Timestamp,roll,pitch,heading,rollRate,pitchRate,yawRate,groundSpeed,airSpeed,airSpeedSetpoint,climbRate,altitudeRelative,altitudeAMSL,altitudeTuning,altitudeTuningSetpoint,xTrackError,flightDistance,flightTime,distanceToHome,missionItemIndex,headingToNextWP,headingToHome,distanceToGCS,throttlePct,hobbs,battery0.id,battery0.batteryFunction,battery0.batteryType,battery0.voltage,battery0.current,battery0.mahConsumed,battery0.temperature,battery0.percentRemaining,battery0.timeRemaining,battery0.timeRemainingStr,battery0.chargeState,battery0.instantPower,clock.currentTime,clock.currentDate,distanceSensor.rotationNone,distanceSensor.rotationYaw45,distanceSensor.rotationYaw90,distanceSensor.rotationYaw135,distanceSensor.rotationYaw180,distanceSensor.rotationYaw225,distanceSensor.rotationYaw270,distanceSensor.rotationYaw315,distanceSensor.rotationPitch90,distanceSensor.rotationPitch270,distanceSensor.minDistance,distanceSensor.maxDistance,escStatus.index,escStatus.rpm1,escStatus.rpm2,escStatus.rpm3,escStatus.rpm4,escStatus.current1,escStatus.current2,escStatus.current3,escStatus.current4,escStatus.voltage1,escStatus.voltage2,escStatus.voltage3,escStatus.voltage4,estimatorStatus.goodAttitudeEsimate,estimatorStatus.goodHorizVelEstimate,estimatorStatus.goodVertVelEstimate,estimatorStatus.goodHorizPosRelEstimate,estimatorStatus.goodHorizPosAbsEstimate,estimatorStatus.goodVertPosAbsEstimate,estimatorStatus.goodVertPosAGLEstimate,estimatorStatus.goodConstPosModeEstimate,estimatorStatus.goodPredHorizPosRelEstimate,estimatorStatus.goodPredHorizPosAbsEstimate,estimatorStatus.gpsGlitch,estimatorStatus.accelError,estimatorStatus.velRatio,estimatorStatus.horizPosRatio,estimatorStatus.vertPosRatio,estimatorStatus.magRatio,estimatorStatus.haglRatio,estimatorStatus.tasRatio,estimatorStatus.horizPosAccuracy,estimatorStatus.vertPosAccuracy,gps.lat,gps.lon,gps.mgrs,gps.hdop,gps.vdop,gps.courseOverGround,gps.lock,gps.count,gps2.lat,gps2.lon,gps2.mgrs,gps2.hdop,gps2.vdop,gps2.courseOverGround,gps2.lock,gps2.count,hygrometer.temperature,hygrometer.humidity,hygrometer.hygrometerid,localPosition.x,localPosition.y,localPosition.z,localPosition.vx,localPosition.vy,localPosition.vz,localPositionSetpoint.x,localPositionSetpoint.y,localPositionSetpoint.z,localPositionSetpoint.vx,localPositionSetpoint.vy,localPositionSetpoint.vz,setpoint.roll,setpoint.pitch,setpoint.yaw,setpoint.rollRate,setpoint.pitchRate,setpoint.yawRate,temperature.temperature1,temperature.temperature2,temperature.temperature3,terrain.blocksPending,terrain.blocksLoaded,vibration.xAxis,vibration.yAxis,vibration.zAxis,vibration.clipCount1,vibration.clipCount2,vibration.clipCount3,wind.direction,wind.speed,wind.verticalSpeed
2025-01-29 12:12:54.006,0.6,-0.8,60,0.0,0.0,0.0,0.0,0.0,0.006,0.0,0.0,532.2,-0.050,-0.050,0.000,0.0,00:00:00,0.0,0,--.--,--.--,14.3,0,0000:00:00,0,0,0,46.91,0.00,4512,37,66,--.--,--:--:--,1,0.00,12:12:53,29/01/2025,3.85,--.--,--.--,--.--,--.--,--.--,--.--,--.--,--.--,--.--,--.--,100.00,0,0.000,0.000,0.000,0.000,0.000,0.000,0.000,0.000,0.000,0.000,0.000,0.000,false,false,false,false,false,false,false,false,false,false,false,false,--.--,--.--,--.--,--.--,--.--,--.--,--.--,--.--,-16.6966639,-54.6723418,21KYB 48215 52551,0.6,0.1,116.6,3,27,--.--,--.--,,--.--,--.--,--.--,0,0,--.--,--.--,0,-24.0,-48.9,-6.2,-0.0,-0.0,-0.0,--.--,--.--,--.--,--.--,--.--,--.--,--.--,--.--,--.--,--.--,--.--,--.--,56.29,58.10,--.--,0,0,0.0,0.0,0.0,0,0,0,180.0,0.0,0.0
2025-01-29 12:12:54.861,0.6,-0.8,60,0.0,0.0,0.0,0.0,0.0,0.005,0.0,0.0,532.2,-0.050,-0.050,0.000,0.0,00:00:01,0.0,0,--.--,--.--,14.4,0,0000:39:44,0,0,0,46.91,0.00,4512,37,66,--.--,--:--:--,1,0.00,12:12:54,29/01/2025,3.85,--.--,--.--,--.--,--.--,--.--,--.--,--.--,--.--,--.--,--.--,100.00,0,0.000,0.000,0.000,0.000,0.000,0.000,0.000,0.000,0.000,0.000,0.000,0.000,false,false,false,false,false,false,false,false,false,false,false,false,--.--,--.--,--.--,--.--,--.--,--.--,--.--,--.--,-16.6966640,-54.6723419,21KYB 48215 52551,0.6,0.1,180.0,3,27,--.--,--.--,,--.--,--.--,--.--,0,0,--.--,--.--,0,-24.0,-48.9,-6.2,-0.0,-0.0,-0.0,--.--,--.--,--.--,--.--,--.--,--.--,--.--,--.--,--.--,--.--,--.--,--.--,56.26,58.06,--.--,0,0,0.0,0.0,0.0,0,0,0,180.0,0.0,0.0
2025-01-29 12:12:55.861,0.6,-0.8,60,0.0,0.0,0.0,0.0,0.0,0.005,0.0,0.0,532.2,-0.040,-0.040,0.000,0.0,00:00:01,0.0,0,--.--,--.--,14.3,0,0000:39:44,0,0,0,46.91,0.00,4512,37,66,--.--,--:--:--,1,0.00,12:12:55,29/01/2025,3.80,--.--,--.--,--.--,--.--,--.--,--.--,--.--,--.--,--.--,--.--,100.00,0,0.000,0.000,0.000,0.000,0.000,0.000,0.000,0.000,0.000,0.000,0.000,0.000,false,false,false,false,false,false,false,false,false,false,false,false,--.--,--.--,--.--,--.--,--.--,--.--,--.--,--.--,-16.6966641,-54.6723419,21KYB 48215 52551,0.6,0.1,90.0,3,27,--.--,--.--,,--.--,--.--,--.--,0,0,--.--,--.--,0,-24.0,-48.9,-6.2,-0.0,-0.0,-0.0,--.--,--.--,--.--,--.--,--.--,--.--,--.--,--.--,--.--,--.--,--.--,--.--,56.28,58.06,--.--,0,0,0.0,0.0,0.0,0,0,0,180.0,0.0,0.0
2025-01-29 12:12:56.863,0.6,-0.8,60,0.0,0.0,0.0,0.0,0.0,0.005,0.0,0.0,532.2,-0.030,-0.030,0.000,0.0,00:00:02,0.0,0,--.--,--.--,12.8,0,0000:39:44,0,0,0,46.91,0.00,4512,37,66,--.--,--:--:--,1,0.00,12:12:56,29/01/2025,3.85,--.--,--.--,--.--,--.--,--.--,--.--,--.--,--.--,--.--,--.--,100.00,0,0.000,0.000,0.000,0.000,0.000,0.000,0.000,0.000,0.000,0.000,0.000,0.000,false,false,false,false,false,false,false,false,false,false,false,false,--.--,--.--,--.--,--.--,--.--,--.--,--.--,--.--,-16.6966641,-54.6723419,21KYB 48215 52551,0.6,0.1,0.0,3,27,--.--,--.--,,--.--,--.--,--.--,0,0,--.--,--.--,0,-24.0,-48.9,-6.2,-0.0,-0.0,-0.0,--.--,--.--,--.--,--.--,--.--,--.--,--.--,--.--,--.--,--.--,--.--,--.--,56.28,58.07,--.--,0,0,0.0,0.0,0.0,0,0,0,180.0,0.0,0.0
2025-01-29 12:12:57.857,0.5,-0.8,61,0.0,0.0,0.0,0.0,0.0,0.006,0.0,0.0,532.2,-0.020,-0.030,0.000,0.0,00:00:03,0.0,0,--.--,--.--,12.0,0,0000:39:44,0,0,0,46.91,0.00,4512,37,66,--.--,--:--:--,1,0.00,12:12:57,29/01/2025,3.85,--.--,--.--,--.--,--.--,--.--,--.--,--.--,--.--,--.--,--.--,100.00,0,0.000,0.000,0.000,0.000,0.000,0.000,0.000,0.000,0.000,0.000,0.000,0.000,false,false,false,false,false,false,false,false,false,false,false,false,--.--,--.--,--.--,--.--,--.--,--.--,--.--,--.--,-16.6966641,-54.6723419,21KYB 48215 52551,0.6,0.1,198.4,3,27,--.--,--.--,,--.--,--.--,--.--,0,0,--.--,--.--,0,-24.0,-48.9,-6.2,0.0,-0.0,-0.0,--.--,--.--,--.--,--.--,--.--,--.--,--.--,--.--,--.--,--.--,--.--,--.--,56.25,58.06,--.--,0,0,0.6,0.5,0.5,0,0,0,180.0,0.0,0.0
2025-01-29 12:12:58.859,0.6,-0.8,61,0.0,0.0,0.0,0.0,0.0,0.007,-0.0,0.0,532.2,-0.020,-0.020,0.000,0.0,00:00:04,0.0,0,--.--,--.--,11.9,0,0000:39:44,0,0,0,46.84,4.98,4513,37,66,--.--,--:--:--,1,233.26,12:12:58,29/01/2025,3.82,--.--,--.--,--.--,--.--,--.--,--.--,--.--,--.--,--.--,--.--,100.00,0,0.000,0.000,0.000,0.000,0.000,0.000,0.000,0.000,0.000,0.000,0.000,0.000,false,false,false,false,false,false,false,false,false,false,false,false,--.--,--.--,--.--,--.--,--.--,--.--,--.--,--.--,-16.6966642,-54.6723419,21KYB 48215 52551,0.5,0.1,180.0,3,28,--.--,--.--,,--.--,--.--,--.--,0,0,--.--,--.--,0,-24.0,-49.0,-6.2,0.0,-0.0,-0.0,--.--,--.--,--.--,--.--,--.--,--.--,--.--,--.--,--.--,--.--,--.--,--.--,56.26,58.09,--.--,0,0,1.7,1.4,1.0,0,0,0,180.0,0.0,0.0
2025-01-29 12:12:59.861,0.6,-0.8,60,0.0,0.0,0.0,0.0,0.0,0.051,0.0,0.0,532.2,-0.010,-0.010,0.000,0.0,00:00:05,0.0,0,--.--,--.--,11.8,0,0000:39:44,0,0,0,46.84,4.98,4514,37,66,--.--,--:--:--,1,233.24,12:12:59,29/01/2025,3.66,--.--,--.--,--.--,--.--,--.--,--.--,--.--,--.--,--.--,--.--,100.00,0,0.000,0.000,0.000,0.000,0.000,0.000,0.000,0.000,0.000,0.000,0.000,0.000,false,false,false,false,false,false,false,false,false,false,false,false,--.--,--.--,--.--,--.--,--.--,--.--,--.--,--.--,-16.6966642,-54.6723419,21KYB 48215 52551,0.5,0.1,161.6,3,28,--.--,--.--,,--.--,--.--,--.--,0,0,--.--,--.--,0,-24.0,-49.0,-6.3,-0.0,-0.0,0.0,--.--,--.--,--.--,--.--,--.--,--.--,--.--,--.--,--.--,--.--,--.--,--.--,56.28,58.05,--.--,0,0,1.7,1.4,1.1,0,0,0,180.0,0.0,0.0
2025-01-29 12:13:00.859,0.7,-0.8,60,0.0,0.0,0.0,0.0,0.0,0.027,0.0,0.1,532.2,0.000,0.000,0.000,0.0,00:00:06,0.0,0,--.--,--.--,11.7,0,0000:39:44,0,0,0,46.82,4.98,4516,37,66,--.--,--:--:--,1,233.18,12:13:00,29/01/2025,3.46,--.--,--.--,--.--,--.--,--.--,--.--,--.--,--.--,--.--,--.--,100.00,0,0.000,0.000,0.000,0.000,0.000,0.000,0.000,0.000,0.000,0.000,0.000,0.000,false,false,false,false,false,false,false,false,false,false,false,false,--.--,--.--,--.--,--.--,--.--,--.--,--.--,--.--,-16.6966643,-54.6723419,21KYB 48215 52551,0.5,0.1,198.4,3,28,--.--,--.--,,--.--,--.--,--.--,0,0,--.--,--.--,0,-24.0,-49.0,-6.3,-0.0,-0.0,-0.0,--.--,--.--,--.--,--.--,--.--,--.--,--.--,--.--,--.--,--.--,--.--,--.--,56.29,58.06,--.--,0,0,2.0,1.7,1.6,0,0,0,180.0,0.0,0.0
2025-01-29 12:13:01.860,0.6,-0.8,61,0.0,0.0,0.0,0.1,0.1,0.017,-0.0,0.1,532.2,0.020,0.010,0.000,0.0,00:00:07,0.0,0,--.--,--.--,12.3,0,0000:39:44,0,0,0,46.82,4.98,4517,37,66,--.--,--:--:--,1,233.17,12:13:01,29/01/2025,3.69,--.--,--.--,--.--,--.--,--.--,--.--,--.--,--.--,--.--,--.--,100.00,0,0.000,0.000,0.000,0.000,0.000,0.000,0.000,0.000,0.000,0.000,0.000,0.000,false,false,false,false,false,false,false,false,false,false,false,false,--.--,--.--,--.--,--.--,--.--,--.--,--.--,--.--,-16.6966642,-54.6723419,21KYB 48215 52551,0.5,0.1,116.6,3,28,--.--,--.--,,--.--,--.--,--.--,0,0,--.--,--.--,0,-24.0,-49.0,-6.3,-0.0,-0.0,-0.0,--.--,--.--,--.--,--.--,--.--,--.--,--.--,--.--,--.--,--.--,--.--,--.--,56.26,58.09,--.--,0,0,1.3,1.4,1.2,0,0,0,180.0,0.0,0.0
2025-01-29 12:13:02.863,0.7,-0.8,60,0.0,0.0,0.0,0.0,0.0,0.043,0.0,0.1,532.3,0.020,-0.020,0.020,0.0,00:00:08,0.1,0,--.--,--.--,12.2,5,0000:39:44,0,0,0,46.80,8.99,4518,37,66,--.--,--:--:--,1,420.78,12:13:02,29/01/2025,3.68,--.--,--.--,--.--,--.--,--.--,--.--,--.--,--.--,--.--,--.--,100.00,0,0.000,0.000,0.000,0.000,0.000,0.000,0.000,0.000,0.000,0.000,0.000,0.000,false,false,false,false,false,false,false,false,false,false,false,false,--.--,--.--,--.--,--.--,--.--,--.--,--.--,--.--,-16.6966642,-54.6723419,21KYB 48215 52551,0.5,0.1,225.0,3,28,--.--,--.--,,--.--,--.--,--.--,0,0,--.--,--.--,0,-24.0,-49.0,-6.3,0.0,-0.0,-0.0,--.--,--.--,--.--,--.--,--.--,--.--,--.--,--.--,--.--,--.--,--.--,--.--,56.26,58.09,--.--,0,0,1.6,1.4,2.3,0,0,0,180.0,0.0,0.0
2025-01-29 12:13:03.865,-0.6,0.1,61,0.0,0.0,0.0,0.0,0.1,0.026,0.0,0.1,532.3,0.040,-0.144,0.024,0.0,00:00:09,0.0,0,--.--,--.--,12.8,11,0000:39:44,0,0,0,46.64,19.99,4522,37,66,--.--,--:--:--,1,932.27,12:13:03,29/01/2025,3.22,--.--,--.--,--.--,--.--,--.--,--.--,--.--,--.--,--.--,--.--,100.00,0,0.000,0.000,0.000,0.000,0.000,0.000,0.000,0.000,0.000,0.000,0.000,0.000,false,false,false,false,false,false,false,false,false,false,false,false,--.--,--.--,--.--,--.--,--.--,--.--,--.--,--.--,-16.6966642,-54.6723420,21KYB 48215 52551,0.5,0.1,211.0,3,28,--.--,--.--,,--.--,--.--,--.--,0,0,--.--,--.--,0,-24.0,-49.0,-6.3,-0.0,-0.0,-0.0,--.--,--.--,--.--,--.--,--.--,--.--,--.--,--.--,--.--,--.--,--.--,--.--,56.26,58.06,--.--,0,0,1.1,1.8,5.0,0,0,0,180.0,0.0,0.0
2025-01-29 12:13:04.859,-0.1,-1.1,61,0.0,0.0,0.0,0.0,0.2,0.234,0.2,0.2,532.4,0.210,-0.052,0.002,0.0,00:00:10,0.1,0,--.--,--.--,13.2,11,0000:39:44,0,0,0,46.36,38.98,4529,37,66,--.--,--:--:--,1,1807.19,12:13:04,29/01/2025,2.71,--.--,--.--,--.--,--.--,--.--,--.--,--.--,--.--,--.--,--.--,100.00,0,0.000,0.000,0.000,0.000,0.000,0.000,0.000,0.000,0.000,0.000,0.000,0.000,false,false,false,false,false,false,false,false,false,false,false,false,--.--,--.--,--.--,--.--,--.--,--.--,--.--,--.--,-16.6966641,-54.6723423,21KYB 48215 52551,0.5,0.1,274.3,3,28,--.--,--.--,,--.--,--.--,--.--,0,0,--.--,--.--,0,-24.0,-49.0,-6.4,0.0,-0.0,-0.2,--.--,--.--,--.--,--.--,--.--,--.--,--.--,--.--,--.--,--.--,--.--,--.--,56.27,58.10,--.--,0,0,1.1,2.8,4.5,0,0,0,180.0,0.0,0.0
2025-01-29 12:13:05.859,-1.2,-0.8,61,0.0,0.0,0.0,0.0,0.3,0.243,0.3,0.5,532.6,0.440,0.248,0.042,0.0,00:00:11,0.1,0,--.--,--.--,13.7,12,0000:39:44,0,0,0,46.31,38.98,4541,37,66,--.--,--:--:--,1,1805.20,12:13:05,29/01/2025,2.24,--.--,--.--,--.--,--.--,--.--,--.--,--.--,--.--,--.--,--.--,100.00,0,0.000,0.000,0.000,0.000,0.000,0.000,0.000,0.000,0.000,0.000,0.000,0.000,false,false,false,false,false,false,false,false,false,false,false,false,--.--,--.--,--.--,--.--,--.--,--.--,--.--,--.--,-16.6966641,-54.6723431,21KYB 48215 52551,0.5,0.1,134.3,3,28,--.--,--.--,,--.--,--.--,--.--,0,0,--.--,--.--,0,-24.0,-49.0,-6.7,-0.0,0.0,-0.3,--.--,--.--,--.--,--.--,--.--,--.--,--.--,--.--,--.--,--.--,--.--,--.--,56.28,58.07,--.--,0,0,1.8,3.3,4.1,0,0,0,180.0,0.0,0.0
2025-01-29 12:13:06.859,-0.2,-2.0,61,0.0,0.0,0.0,0.0,0.3,0.334,0.3,0.8,532.9,0.740,0.577,0.059,0.0,00:00:12,0.1,0,--.--,--.--,13.9,11,0000:39:44,0,0,0,46.23,41.99,4552,37,66,--.--,--:--:--,1,1941.37,12:13:06,29/01/2025,2.02,--.--,--.--,--.--,--.--,--.--,--.--,--.--,--.--,--.--,--.--,100.00,0,0.000,0.000,0.000,0.000,0.000,0.000,0.000,0.000,0.000,0.000,0.000,0.000,false,false,false,false,false,false,false,false,false,false,false,false,--.--,--.--,--.--,--.--,--.--,--.--,--.--,--.--,-16.6966641,-54.6723441,21KYB 48215 52551,0.5,0.1,278.5,3,28,--.--,--.--,,--.--,--.--,--.--,0,0,--.--,--.--,0,-24.0,-49.0,-7.0,-0.0,-0.0,-0.3,--.--,--.--,--.--,--.--,--.--,--.--,--.--,--.--,--.--,--.--,--.--,--.--,56.30,58.02,--.--,0,0,1.7,4.7,6.5,0,0,0,180.0,0.0,0.0
2025-01-29 12:13:07.861,-2.2,-1.3,60,0.0,0.0,0.0,0.0,0.5,0.467,0.5,1.1,533.3,1.140,0.921,0.078,0.0,00:00:13,0.1,0,--.--,--.--,13.8,12,0000:39:44,0,0,0,46.17,43.99,4564,37,66,--.--,--:--:--,1,2031.02,12:13:07,29/01/2025,1.78,--.--,--.--,--.--,--.--,--.--,--.--,--.--,--.--,--.--,--.--,100.00,0,0.000,0.000,0.000,0.000,0.000,0.000,0.000,0.000,0.000,0.000,0.000,0.000,false,false,false,false,false,false,false,false,false,false,false,false,--.--,--.--,--.--,--.--,--.--,--.--,--.--,--.--,-16.6966642,-54.6723442,21KYB 48215 52551,0.6,0.1,136.3,3,27,--.--,--.--,,--.--,--.--,--.--,0,0,--.--,--.--,0,-24.1,-49.0,-7.3,-0.0,0.1,-0.5,--.--,--.--,--.--,--.--,--.--,--.--,--.--,--.--,--.--,--.--,--.--,--.--,56.27,58.05,--.--,0,0,1.6,3.8,4.4,0,0,0,180.0,0.0,0.0
2025-01-29 12:13:08.861,-1.1,-1.4,61,0.0,0.0,0.0,0.0,0.5,0.504,0.5,1.6,533.8,1.670,1.495,0.052,0.0,00:00:14,0.1,0,--.--,--.--,13.6,12,0000:39:44,0,0,0,46.15,40.99,4577,37,66,--.--,--:--:--,1,1891.73,12:13:08,29/01/2025,1.89,--.--,--.--,--.--,--.--,--.--,--.--,--.--,--.--,--.--,--.--,100.00,0,0.000,0.000,0.000,0.000,0.000,0.000,0.000,0.000,0.000,0.000,0.000,0.000,false,false,false,false,false,false,false,false,false,false,false,false,--.--,--.--,--.--,--.--,--.--,--.--,--.--,--.--,-16.6966640,-54.6723436,21KYB 48215 52551,0.6,0.1,32.9,3,27,--.--,--.--,,--.--,--.--,--.--,0,0,--.--,--.--,0,-24.0,-49.0,-7.9,0.0,0.0,-0.5,--.--,--.--,--.--,--.--,--.--,--.--,--.--,--.--,--.--,--.--,--.--,--.--,56.29,58.09,--.--,0,0,1.9,3.2,5.8,0,0,0,180.0,0.0,0.0
2025-01-29 12:13:09.858,-2.0,-1.7,60,0.0,0.0,0.0,0.1,0.7,0.662,0.7,2.2,534.4,2.290,2.040,0.060,0.0,00:00:15,0.1,0,--.--,--.--,12.9,12,0000:39:44,0,0,0,46.15,41.99,4582,37,66,--.--,--:--:--,1,1937.75,12:13:09,29/01/2025,1.63,--.--,--.--,--.--,--.--,--.--,--.--,--.--,--.--,--.--,--.--,100.00,0,0.000,0.000,0.000,0.000,0.000,0.000,0.000,0.000,0.000,0.000,0.000,0.000,false,false,false,false,false,false,false,false,false,false,false,false,--.--,--.--,--.--,--.--,--.--,--.--,--.--,--.--,-16.6966639,-54.6723431,21KYB 48215 52551,0.6,0.1,153.4,3,27,--.--,--.--,,--.--,--.--,--.--,0,0,--.--,--.--,0,-24.1,-49.0,-8.5,-0.0,0.1,-0.7,--.--,--.--,--.--,--.--,--.--,--.--,--.--,--.--,--.--,--.--,--.--,--.--,56.25,58.06,--.--,0,0,1.8,3.0,8.3,0,0,0,180.0,0.0,0.0
2025-01-29 12:13:10.859,-1.8,-1.7,60,0.0,0.0,0.0,0.1,0.6,0.649,0.6,2.9,535.1,2.950,2.766,0.052,0.0,00:00:16,0.1,0,--.--,--.--,6.1,12,0000:39:44,0,0,0,46.08,43.99,4595,37,66,--.--,--:--:--,1,2026.88,12:13:10,29/01/2025,1.52,--.--,--.--,--.--,--.--,--.--,--.--,--.--,--.--,--.--,--.--,100.00,0,0.000,0.000,0.000,0.000,0.000,0.000,0.000,0.000,0.000,0.000,0.000,0.000,false,false,false,false,false,false,false,false,false,false,false,false,--.--,--.--,--.--,--.--,--.--,--.--,--.--,--.--,-16.6966638,-54.6723424,21KYB 48215 52551,0.6,0.1,8.7,3,27,--.--,--.--,,--.--,--.--,--.--,0,0,--.--,--.--,0,-24.0,-48.9,-9.1,0.1,-0.0,-0.6,--.--,--.--,--.--,--.--,--.--,--.--,--.--,--.--,--.--,--.--,--.--,--.--,56.25,58.09,--.--,0,0,2.5,2.9,8.1,0,0,0,180.0,0.0,0.0
2025-01-29 12:13:11.859,-1.5,-1.8,60,0.0,0.0,0.0,0.0,0.5,0.524,0.5,3.5,535.7,3.510,3.342,0.034,0.0,00:00:17,0.1,0,--.--,--.--,8.3,12,0000:39:44,0,0,0,46.06,41.99,4607,37,66,--.--,--:--:--,1,1934.02,12:13:11,29/01/2025,1.40,--.--,--.--,--.--,--.--,--.--,--.--,--.--,--.--,--.--,--.--,100.00,0,0.000,0.000,0.000,0.000,0.000,0.000,0.000,0.000,0.000,0.000,0.000,0.000,false,false,false,false,false,false,false,false,false,false,false,false,--.--,--.--,--.--,--.--,--.--,--.--,--.--,--.--,-16.6966640,-54.6723441,21KYB 48215 52551,0.5,0.1,218.3,3,28,--.--,--.--,,--.--,--.--,--.--,0,0,--.--,--.--,0,-24.0,-49.0,-9.7,0.0,0.0,-0.5,--.--,--.--,--.--,--.--,--.--,--.--,--.--,--.--,--.--,--.--,--.--,--.--,56.30,58.06,--.--,0,0,3.1,3.6,8.1,0,0,0,180.0,0.0,0.0
2025-01-29 12:13:12.859,-2.2,-2.0,60,0.0,0.0,0.0,0.1,0.2,0.468,0.2,4.0,536.2,4.000,3.933,0.057,0.0,00:00:18,0.1,0,--.--,--.--,7.6,11,0000:39:44,0,0,0,46.01,42.99,4619,37,66,--.--,--:--:--,1,1977.84,12:13:12,29/01/2025,1.39,--.--,--.--,--.--,--.--,--.--,--.--,--.--,--.--,--.--,--.--,100.00,0,0.000,0.000,0.000,0.000,0.000,0.000,0.000,0.000,0.000,0.000,0.000,0.000,false,false,false,false,false,false,false,false,false,false,false,false,--.--,--.--,--.--,--.--,--.--,--.--,--.--,--.--,-16.6966643,-54.6723453,21KYB 48215 52551,0.5,0.1,152.7,3,28,--.--,--.--,,--.--,--.--,--.--,0,0,--.--,--.--,0,-24.1,-49.0,-10.2,0.0,0.0,-0.3,--.--,--.--,--.--,--.--,--.--,--.--,--.--,--.--,--.--,--.--,--.--,--.--,56.28,58.04,--.--,0,0,2.6,4.0,6.2,0,0,0,180.0,0.0,0.0
2025-01-29 12:13:13.857,-1.0,-1.9,57,0.0,0.0,0.0,0.1,0.1,0.066,-0.0,4.0,536.2,3.950,3.951,0.050,0.0,00:00:19,0.1,0,--.--,--.--,6.5,12,0000:39:44,0,0,0,46.02,39.98,4631,37,66,--.--,--:--:--,1,1839.80,12:13:13,29/01/2025,1.39,--.--,--.--,--.--,--.--,--.--,--.--,--.--,--.--,--.--,--.--,100.00,0,0.000,0.000,0.000,0.000,0.000,0.000,0.000,0.000,0.000,0.000,0.000,0.000,false,false,false,false,false,false,false,false,false,false,false,false,--.--,--.--,--.--,--.--,--.--,--.--,--.--,--.--,-16.6966640,-54.6723454,21KYB 48215 52551,0.5,0.1,347.3,3,28,--.--,--.--,,--.--,--.--,--.--,0,0,--.--,--.--,0,-24.0,-49.0,-10.2,0.1,0.0,0.0,--.--,--.--,--.--,--.--,--.--,--.--,--.--,--.--,--.--,--.--,--.--,--.--,56.27,58.04,--.--,0,0,1.6,3.1,5.4,0,0,0,180.0,0.0,0.0
2025-01-29 12:13:14.864,-2.2,-1.7,64,0.0,0.0,0.0,0.1,0.1,0.089,0.0,4.0,536.2,3.960,3.929,0.048,0.0,00:00:20,0.1,0,--.--,--.--,5.7,12,0000:39:44,0,0,0,45.97,42.99,4643,37,66,--.--,--:--:--,1,1976.04,12:13:14,29/01/2025,1.39,--.--,--.--,--.--,--.--,--.--,--.--,--.--,--.--,--.--,--.--,100.00,0,0.000,0.000,0.000,0.000,0.000,0.000,0.000,0.000,0.000,0.000,0.000,0.000,false,false,false,false,false,false,false,false,false,false,false,false,--.--,--.--,--.--,--.--,--.--,--.--,--.--,--.--,-16.6966637,-54.6723448,21KYB 48215 52551,0.5,0.1,129.6,3,28,--.--,--.--,,--.--,--.--,--.--,0,0,--.--,--.--,0,-24.0,-49.0,-10.2,-0.0,0.1,-0.0,--.--,--.--,--.--,--.--,--.--,--.--,--.--,--.--,--.--,--.--,--.--,--.--,56.28,58.04,--.--,0,0,2.2,2.6,7.4,0,0,0,180.0,0.0,0.0
2025-01-29 12:13:15.860,-2.5,-0.9,79,0.0,0.0,0.0,0.0,0.1,0.061,0.0,4.0,536.2,3.970,3.953,0.030,0.0,00:00:21,0.0,0,--.--,--.--,6.2,12,0000:39:44,0,0,0,45.94,42.99,4655,37,66,--.--,--:--:--,1,1975.09,12:13:15,29/01/2025,1.39,--.--,--.--,--.--,--.--,--.--,--.--,--.--,--.--,--.--,--.--,100.00,0,0.000,0.000,0.000,0.000,0.000,0.000,0.000,0.000,0.000,0.000,0.000,0.000,false,false,false,false,false,false,false,false,false,false,false,false,--.--,--.--,--.--,--.--,--.--,--.--,--.--,--.--,-16.6966636,-54.6723447,21KYB 48215 52551,0.5,0.1,84.8,3,28,--.--,--.--,,--.--,--.--,--.--,0,0,--.--,--.--,0,-24.0,-48.9,-10.2,0.0,0.1,-0.0,--.--,--.--,--.--,--.--,--.--,--.--,--.--,--.--,--.--,--.--,--.--,--.--,56.29,58.06,--.--,0,0,2.8,3.5,6.6,0,0,0,180.0,0.0,0.0
2025-01-29 12:13:16.861,-2.0,-0.5,96,0.0,0.0,0.0,0.0,0.0,0.035,0.0,4.0,536.2,3.980,3.968,0.010,0.0,00:00:22,0.0,0,--.--,--.--,6.3,12,0000:39:44,0,0,0,45.92,42.99,4667,37,66,--.--,--:--:--,1,1974.01,12:13:16,29/01/2025,87.53,--.--,--.--,--.--,--.--,--.--,--.--,--.--,--.--,--.--,--.--,100.00,0,0.000,0.000,0.000,0.000,0.000,0.000,0.000,0.000,0.000,0.000,0.000,0.000,false,false,false,false,false,false,false,false,false,false,false,false,--.--,--.--,--.--,--.--,--.--,--.--,--.--,--.--,-16.6966632,-54.6723446,21KYB 48215 52551,0.5,0.1,344.6,3,28,--.--,--.--,,--.--,--.--,--.--,0,0,--.--,--.--,0,-24.0,-49.0,-10.2,0.0,0.0,-0.0,--.--,--.--,--.--,--.--,--.--,--.--,--.--,--.--,--.--,--.--,--.--,--.--,56.28,58.04,--.--,0,0,3.3,3.8,4.2,0,0,0,180.0,0.0,0.0
2025-01-29 12:13:17.860,-3.0,0.2,111,0.0,0.0,0.0,0.0,0.0,0.056,0.0,4.0,536.2,3.980,3.975,0.027,0.0,00:00:23,0.1,0,--.--,--.--,6.5,12,0000:39:44,0,0,0,45.89,43.99,4679,37,66,--.--,--:--:--,1,2018.83,12:13:17,29/01/2025,19.81,--.--,--.--,--.--,--.--,--.--,--.--,--.--,--.--,--.--,--.--,100.00,0,0.000,0.000,0.000,0.000,0.000,0.000,0.000,0.000,0.000,0.000,0.000,0.000,false,false,false,false,false,false,false,false,false,false,false,false,--.--,--.--,--.--,--.--,--.--,--.--,--.--,--.--,-16.6966630,-54.6723448,21KYB 48215 52551,0.5,0.1,230.0,3,27,--.--,--.--,,--.--,--.--,--.--,0,0,--.--,--.--,0,-24.0,-49.0,-10.2,-0.0,0.0,0.0,--.--,--.--,--.--,--.--,--.--,--.--,--.--,--.--,--.--,--.--,--.--,--.--,56.28,58.03,--.--,0,0,2.9,5.6,9.6,0,0,0,180.0,0.0,0.0
2025-01-29 12:13:18.861,-2.7,-0.1,125,0.0,0.0,0.0,0.0,0.0,0.059,0.0,4.0,536.2,3.980,3.971,0.050,0.0,00:00:24,0.1,0,--.--,--.--,6.7,12,0000:39:44,0,0,0,45.87,42.99,4692,37,66,--.--,--:--:--,1,1971.82,12:13:18,29/01/2025,19.81,--.--,--.--,--.--,--.--,--.--,--.--,--.--,--.--,--.--,--.--,100.00,0,0.000,0.000,0.000,0.000,0.000,0.000,0.000,0.000,0.000,0.000,0.000,0.000,false,false,false,false,false,false,false,false,false,false,false,false,--.--,--.--,--.--,--.--,--.--,--.--,--.--,--.--,-16.6966629,-54.6723451,21KYB 48215 52551,0.5,0.1,309.3,3,28,--.--,--.--,,--.--,--.--,--.--,0,0,--.--,--.--,0,-24.0,-49.0,-10.2,0.1,-0.0,-0.0,--.--,--.--,--.--,--.--,--.--,--.--,--.--,--.--,--.--,--.--,--.--,--.--,56.28,58.05,--.--,0,0,2.2,5.4,7.0,0,0,0,180.0,0.0,0.0
2025-01-29 12:13:19.862,-2.1,0.4,127,0.0,0.0,0.0,0.1,0.2,0.138,0.2,4.1,536.2,4.030,3.964,0.037,0.0,00:00:25,0.1,0,--.--,--.--,7.3,13,0000:39:44,0,0,0,45.84,43.99,4704,37,65,--.--,--:--:--,1,2016.28,12:13:19,29/01/2025,19.81,--.--,--.--,--.--,--.--,--.--,--.--,--.--,--.--,--.--,--.--,100.00,0,0.000,0.000,0.000,0.000,0.000,0.000,0.000,0.000,0.000,0.000,0.000,0.000,false,false,false,false,false,false,false,false,false,false,false,false,--.--,--.--,--.--,--.--,--.--,--.--,--.--,--.--,-16.6966628,-54.6723448,21KYB 48215 52552,0.5,0.1,30.7,3,28,--.--,--.--,,--.--,--.--,--.--,0,0,--.--,--.--,0,-24.0,-49.0,-10.3,0.0,0.1,-0.2,--.--,--.--,--.--,--.--,--.--,--.--,--.--,--.--,--.--,--.--,--.--,--.--,56.33,58.03,--.--,0,0,2.9,3.3,7.3,0,0,0,180.0,0.0,0.0
2025-01-29 12:13:20.857,-2.7,0.4,127,0.0,0.0,0.0,0.0,0.3,0.313,0.3,4.3,536.5,4.310,4.190,0.033,0.0,00:00:26,0.1,0,--.--,--.--,7.4,12,0000:39:44,0,0,0,45.79,46.99,4717,37,65,--.--,--:--:--,1,2151.72,12:13:20,29/01/2025,19.81,--.--,--.--,--.--,--.--,--.--,--.--,--.--,--.--,--.--,--.--,100.00,0,0.000,0.000,0.000,0.000,0.000,0.000,0.000,0.000,0.000,0.000,0.000,0.000,false,false,false,false,false,false,false,false,false,false,false,false,--.--,--.--,--.--,--.--,--.--,--.--,--.--,--.--,-16.6966629,-54.6723442,21KYB 48215 52551,0.5,0.1,156.0,3,28,--.--,--.--,,--.--,--.--,--.--,0,0,--.--,--.--,0,-24.0,-49.0,-10.5,-0.0,0.0,-0.3,--.--,--.--,--.--,--.--,--.--,--.--,--.--,--.--,--.--,--.--,--.--,--.--,56.27,58.05,--.--,0,0,1.5,5.3,6.4,0,0,0,180.0,0.0,0.0
2025-01-29 12:13:21.858,-2.5,1.6,127,0.0,0.0,0.0,0.0,0.3,0.307,0.3,4.6,536.8,4.600,4.476,0.018,0.0,00:00:27,0.0,0,--.--,--.--,7.3,12,0000:39:44,0,0,0,45.77,44.99,4730,37,65,--.--,--:--:--,1,2059.37,12:13:21,29/01/2025,0.97,--.--,--.--,--.--,--.--,--.--,--.--,--.--,--.--,--.--,--.--,100.00,0,0.000,0.000,0.000,0.000,0.000,0.000,0.000,0.000,0.000,0.000,0.000,0.000,false,false,false,false,false,false,false,false,false,false,false,false,--.--,--.--,--.--,--.--,--.--,--.--,--.--,--.--,-16.6966633,-54.6723437,21KYB 48215 52551,0.5,0.1,132.7,3,28,--.--,--.--,,--.--,--.--,--.--,0,0,--.--,--.--,0,-24.0,-49.0,-10.8,-0.0,0.0,-0.3,--.--,--.--,--.--,--.--,--.--,--.--,--.--,--.--,--.--,--.--,--.--,--.--,56.28,58.04,--.--,0,0,1.7,4.1,9.5,0,0,0,180.0,0.0,0.0
2025-01-29 12:13:22.858,-2.7,0.9,127,0.0,0.0,0.0,0.1,0.3,0.305,0.3,4.9,537.1,4.890,4.792,0.031,0.0,00:00:28,0.1,0,--.--,--.--,6.8,13,0000:39:44,0,0,0,45.77,45.99,4744,37,65,--.--,--:--:--,1,2104.78,12:13:22,29/01/2025,0.97,--.--,--.--,--.--,--.--,--.--,--.--,--.--,--.--,--.--,--.--,100.00,0,0.000,0.000,0.000,0.000,0.000,0.000,0.000,0.000,0.000,0.000,0.000,0.000,false,false,false,false,false,false,false,false,false,false,false,false,--.--,--.--,--.--,--.--,--.--,--.--,--.--,--.--,-16.6966636,-54.6723436,21KYB 48215 52551,0.5,0.1,304.5,3,28,--.--,--.--,,--.--,--.--,--.--,0,0,--.--,--.--,0,-24.0,-49.0,-11.1,0.0,-0.0,-0.3,--.--,--.--,--.--,--.--,--.--,--.--,--.--,--.--,--.--,--.--,--.--,--.--,56.25,58.00,--.--,0,0,2.8,4.6,7.4,0,0,0,180.0,0.0,0.0
2025-01-29 12:13:23.856,-2.9,0.9,127,0.0,0.0,0.0,0.1,0.3,0.287,0.3,5.2,537.4,5.170,5.049,0.042,0.0,00:00:29,0.1,0,--.--,--.--,6.8,13,0000:39:44,0,0,0,45.74,45.99,4757,37,65,--.--,--:--:--,1,2103.49,12:13:23,29/01/2025,0.97,--.--,--.--,--.--,--.--,--.--,--.--,--.--,--.--,--.--,--.--,100.00,0,0.000,0.000,0.000,0.000,0.000,0.000,0.000,0.000,0.000,0.000,0.000,0.000,false,false,false,false,false,false,false,false,false,false,false,false,--.--,--.--,--.--,--.--,--.--,--.--,--.--,--.--,-16.6966635,-54.6723437,21KYB 48215 52551,0.5,0.1,312.7,3,28,--.--,--.--,,--.--,--.--,--.--,0,0,--.--,--.--,0,-24.0,-49.0,-11.4,0.0,-0.0,-0.3,--.--,--.--,--.--,--.--,--.--,--.--,--.--,--.--,--.--,--.--,--.--,--.--,56.27,58.04,--.--,0,0,1.8,5.8,8.9,0,0,0,180.0,0.0,0.0
2025-01-29 12:13:24.860,-3.0,0.9,127,0.0,0.0,0.0,0.1,0.2,0.265,0.2,5.4,537.6,5.430,5.330,0.040,0.0,00:00:30,0.1,0,--.--,--.--,6.8,13,0000:39:44,0,0,0,45.70,46.99,4770,37,65,--.--,--:--:--,1,2147.63,12:13:24,29/01/2025,0.97,--.--,--.--,--.--,--.--,--.--,--.--,--.--,--.--,--.--,--.--,100.00,0,0.000,0.000,0.000,0.000,0.000,0.000,0.000,0.000,0.000,0.000,0.000,0.000,false,false,false,false,false,false,false,false,false,false,false,false,--.--,--.--,--.--,--.--,--.--,--.--,--.--,--.--,-16.6966633,-54.6723441,21KYB 48215 52551,0.5,0.1,298.6,3,28,--.--,--.--,,--.--,--.--,--.--,0,0,--.--,--.--,0,-24.0,-49.1,-11.7,0.0,0.0,-0.3,--.--,--.--,--.--,--.--,--.--,--.--,--.--,--.--,--.--,--.--,--.--,--.--,56.27,58.02,--.--,0,0,1.7,4.0,10.9,0,0,0,180.0,0.0,0.0
2025-01-29 12:13:25.860,-4.2,1.9,127,0.0,0.0,0.0,0.2,0.2,0.106,-0.0,5.5,537.7,5.460,5.427,0.019,0.0,00:00:31,0.1,0,--.--,--.--,6.7,14,0000:39:44,0,0,0,45.69,47.99,4783,37,65,--.--,--:--:--,1,2192.66,12:13:25,29/01/2025,0.97,--.--,--.--,--.--,--.--,--.--,--.--,--.--,--.--,--.--,--.--,100.00,0,0.000,0.000,0.000,0.000,0.000,0.000,0.000,0.000,0.000,0.000,0.000,0.000,false,false,false,false,false,false,false,false,false,false,false,false,--.--,--.--,--.--,--.--,--.--,--.--,--.--,--.--,-16.6966630,-54.6723443,21KYB 48215 52551,0.5,0.1,90.0,3,28,--.--,--.--,,--.--,--.--,--.--,0,0,--.--,--.--,0,-24.0,-49.0,-11.7,0.1,0.1,-0.0,--.--,--.--,--.--,--.--,--.--,--.--,--.--,--.--,--.--,--.--,--.--,--.--,56.26,58.03,--.--,0,0,2.6,5.0,13.7,0,0,0,180.0,0.0,0.0
2025-01-29 12:13:26.864,-2.5,0.4,127,0.0,0.0,0.0,0.1,0.1,0.096,0.0,5.5,537.7,5.460,5.408,0.032,0.0,00:00:32,0.1,0,--.--,--.--,6.6,14,0000:39:44,0,0,0,45.63,49.99,4797,37,65,--.--,--:--:--,1,2280.94,12:13:26,29/01/2025,0.97,--.--,--.--,--.--,--.--,--.--,--.--,--.--,--.--,--.--,--.--,100.00,0,0.000,0.000,0.000,0.000,0.000,0.000,0.000,0.000,0.000,0.000,0.000,0.000,false,false,false,false,false,false,false,false,false,false,false,false,--.--,--.--,--.--,--.--,--.--,--.--,--.--,--.--,-16.6966620,-54.6723437,21KYB 48215 52552,0.5,0.1,44.2,3,28,--.--,--.--,,--.--,--.--,--.--,0,0,--.--,--.--,0,-23.9,-48.9,-11.7,-0.0,0.1,-0.0,--.--,--.--,--.--,--.--,--.--,--.--,--.--,--.--,--.--,--.--,--.--,--.--,56.26,58.01,--.--,0,0,2.4,4.4,12.8,0,0,0,180.0,0.0,0.0
2025-01-29 12:13:27.855,-4.1,3.7,127,0.0,0.0,0.0,0.0,0.0,0.134,0.0,5.5,537.7,5.470,5.408,0.082,0.0,00:00:33,0.1,0,--.--,--.--,6.6,14,0000:39:44,0,0,0,45.59,51.99,4812,37,65,--.--,--:--:--,1,2370.28,12:13:27,29/01/2025,0.97,--.--,--.--,--.--,--.--,--.--,--.--,--.--,--.--,--.--,--.--,100.00,0,0.000,0.000,0.000,0.000,0.000,0.000,0.000,0.000,0.000,0.000,0.000,0.000,false,false,false,false,false,false,false,false,false,false,false,false,--.--,--.--,--.--,--.--,--.--,--.--,--.--,--.--,-16.6966625,-54.6723434,21KYB 48215 52552,0.5,0.1,145.6,3,28,--.--,--.--,,--.--,--.--,--.--,0,0,--.--,--.--,0,-24.0,-48.9,-11.7,-0.0,0.1,-0.0,--.--,--.--,--.--,--.--,--.--,--.--,--.--,--.--,--.--,--.--,--.--,--.--,56.29,58.00,--.--,0,0,2.8,3.8,12.6,0,0,0,180.0,0.0,0.0
2025-01-29 12:13:28.856,-3.8,4.0,126,0.0,0.0,0.0,0.3,0.3,0.200,0.1,5.5,537.7,5.430,5.369,0.082,0.0,00:00:34,0.1,0,--.--,--.--,6.5,13,0000:39:44,0,0,0,45.55,52.99,4820,37,64,--.--,--:--:--,1,2413.75,12:13:28,29/01/2025,0.97,--.--,--.--,--.--,--.--,--.--,--.--,--.--,--.--,--.--,--.--,100.00,0,0.000,0.000,0.000,0.000,0.000,0.000,0.000,0.000,0.000,0.000,0.000,0.000,false,false,false,false,false,false,false,false,false,false,false,false,--.--,--.--,--.--,--.--,--.--,--.--,--.--,--.--,-16.6966616,-54.6723443,21KYB 48215 52552,0.5,0.1,311.0,3,28,--.--,--.--,,--.--,--.--,--.--,0,0,--.--,--.--,0,-23.9,-49.0,-11.7,0.2,-0.2,-0.1,--.--,--.--,--.--,--.--,--.--,--.--,--.--,--.--,--.--,--.--,--.--,--.--,56.28,58.02,--.--,0,0,3.6,5.1,10.5,0,0,0,180.0,0.0,0.0
2025-01-29 12:13:29.859,-2.6,0.1,127,0.0,0.0,0.0,0.6,0.6,0.550,0.1,5.5,537.7,5.430,5.367,0.038,0.0,00:00:35,0.6,0,--.--,--.--,6.6,12,0000:39:44,0,0,0,45.59,50.99,4836,37,64,--.--,--:--:--,1,2324.43,12:13:29,29/01/2025,1.29,--.--,--.--,--.--,--.--,--.--,--.--,--.--,--.--,--.--,--.--,100.00,0,0.000,0.000,0.000,0.000,0.000,0.000,0.000,0.000,0.000,0.000,0.000,0.000,false,false,false,false,false,false,false,false,false,false,false,false,--.--,--.--,--.--,--.--,--.--,--.--,--.--,--.--,-16.6966586,-54.6723471,21KYB 48215 52552,0.5,0.1,313.3,3,28,--.--,--.--,,--.--,--.--,--.--,0,0,--.--,--.--,0,-23.5,-49.3,-11.7,0.4,-0.4,-0.1,--.--,--.--,--.--,--.--,--.--,--.--,--.--,--.--,--.--,--.--,--.--,--.--,56.26,57.98,--.--,0,0,2.0,6.4,8.3,0,0,0,180.0,0.0,0.0
2025-01-29 12:13:30.862,-1.9,-1.1,127,0.0,0.0,0.0,0.4,0.4,0.422,0.1,5.5,537.6,5.410,5.322,0.039,0.0,00:00:36,1.1,0,--.--,137,6.7,12,0000:39:44,0,0,0,45.61,45.99,4850,37,64,--.--,--:--:--,1,2097.83,12:13:30,29/01/2025,0.95,--.--,--.--,--.--,--.--,--.--,--.--,--.--,--.--,--.--,--.--,100.00,0,0.000,0.000,0.000,0.000,0.000,0.000,0.000,0.000,0.000,0.000,0.000,0.000,false,false,false,false,false,false,false,false,false,false,false,false,--.--,--.--,--.--,--.--,--.--,--.--,--.--,--.--,-16.6966552,-54.6723507,21KYB 48215 52552,0.5,0.1,315.4,3,28,--.--,--.--,,--.--,--.--,--.--,0,0,--.--,--.--,0,-23.2,-49.7,-11.7,0.3,-0.3,-0.1,--.--,--.--,--.--,--.--,--.--,--.--,--.--,--.--,--.--,--.--,--.--,--.--,56.26,58.01,--.--,0,0,2.2,6.4,9.4,0,0,0,180.0,0.0,0.0
2025-01-29 12:13:31.859,-1.8,0.6,127,0.0,0.0,0.0,0.3,0.3,0.319,0.1,5.4,537.6,5.390,5.268,0.063,0.0,00:00:37,1.4,0,--.--,135,6.8,12,0000:39:44,0,0,0,45.62,44.99,4863,37,64,--.--,--:--:--,1,2052.31,12:13:31,29/01/2025,1.29,--.--,--.--,--.--,--.--,--.--,--.--,--.--,--.--,--.--,--.--,100.00,0,0.000,0.000,0.000,0.000,0.000,0.000,0.000,0.000,0.000,0.000,0.000,0.000,false,false,false,false,false,false,false,false,false,false,false,false,--.--,--.--,--.--,--.--,--.--,--.--,--.--,--.--,-16.6966533,-54.6723533,21KYB 48214 52553,0.5,0.1,301.3,3,28,--.--,--.--,,--.--,--.--,--.--,0,0,--.--,--.--,0,-23.0,-50.0,-11.7,0.2,-0.3,-0.1,--.--,--.--,--.--,--.--,--.--,--.--,--.--,--.--,--.--,--.--,--.--,--.--,56.28,58.01,--.--,0,0,1.4,7.4,9.2,0,0,0,180.0,0.0,0.0
2025-01-29 12:13:32.867,-3.4,1.4,127,0.0,0.0,0.0,0.4,0.4,0.383,0.1,5.5,537.6,5.420,5.302,0.011,0.0,00:00:38,1.8,0,--.--,131,7.0,12,0000:39:44,0,0,0,45.61,44.99,4876,37,64,--.--,--:--:--,1,2051.86,12:13:32,29/01/2025,1.56,--.--,--.--,--.--,--.--,--.--,--.--,--.--,--.--,--.--,--.--,100.00,0,0.000,0.000,0.000,0.000,0.000,0.000,0.000,0.000,0.000,0.000,0.000,0.000,false,false,false,false,false,false,false,false,false,false,false,false,--.--,--.--,--.--,--.--,--.--,--.--,--.--,--.--,-16.6966521,-54.6723559,21KYB 48214 52553,0.5,0.1,295.7,3,28,--.--,--.--,,--.--,--.--,--.--,0,0,--.--,--.--,0,-22.8,-50.3,-11.7,0.2,-0.4,-0.1,--.--,--.--,--.--,--.--,--.--,--.--,--.--,--.--,--.--,--.--,--.--,--.--,56.25,58.01,--.--,0,0,1.2,7.0,8.9,0,0,0,180.0,0.0,0.0
2025-01-29 12:13:33.867,-2.9,1.1,126,0.0,0.0,0.0,0.5,0.5,0.503,0.0,5.5,537.7,5.450,5.368,0.061,2.1,00:00:39,2.2,0,--.--,129,7.2,13,0000:39:44,0,0,0,45.58,44.99,4888,37,64,--.--,--:--:--,1,2050.78,12:13:33,29/01/2025,0.90,--.--,--.--,--.--,--.--,--.--,--.--,--.--,--.--,--.--,--.--,100.00,0,0.000,0.000,0.000,0.000,0.000,0.000,0.000,0.000,0.000,0.000,0.000,0.000,false,false,false,false,false,false,false,false,false,false,false,false,--.--,--.--,--.--,--.--,--.--,--.--,--.--,--.--,-16.6966504,-54.6723589,21KYB 48214 52553,0.5,0.1,311.2,3,28,--.--,--.--,,--.--,--.--,--.--,0,0,--.--,--.--,0,-22.6,-50.7,-11.7,0.3,-0.4,-0.1,--.--,--.--,--.--,--.--,--.--,--.--,--.--,--.--,--.--,--.--,--.--,--.--,56.30,57.95,--.--,0,0,1.9,4.4,10.3,0,0,0,180.0,0.0,0.0
2025-01-29 12:13:34.860,-3.3,1.8,127,0.0,0.0,0.0,0.5,0.5,0.474,0.0,5.5,537.7,5.480,5.430,0.041,2.1,00:00:40,2.8,0,--.--,129,7.5,13,0000:39:44,0,0,0,45.58,45.99,4901,37,64,--.--,--:--:--,1,2096.32,12:13:34,29/01/2025,0.89,--.--,--.--,--.--,--.--,--.--,--.--,--.--,--.--,--.--,--.--,100.00,0,0.000,0.000,0.000,0.000,0.000,0.000,0.000,0.000,0.000,0.000,0.000,0.000,false,false,false,false,false,false,false,false,false,false,false,false,--.--,--.--,--.--,--.--,--.--,--.--,--.--,--.--,-16.6966477,-54.6723624,21KYB 48213 52553,0.5,0.1,308.3,3,28,--.--,--.--,,--.--,--.--,--.--,0,0,--.--,--.--,0,-22.2,-51.1,-11.7,0.3,-0.4,-0.1,--.--,--.--,--.--,--.--,--.--,--.--,--.--,--.--,--.--,--.--,--.--,--.--,56.27,57.97,--.--,0,0,2.0,5.1,10.1,0,0,0,180.0,0.0,0.0
2025-01-29 12:13:35.860,-3.3,-1.9,127,0.0,0.0,0.0,0.4,0.4,0.478,0.0,5.5,537.7,5.500,5.449,0.032,2.1,00:00:41,3.2,0,--.--,129,7.7,12,0000:39:44,0,0,0,45.55,45.99,4914,37,64,--.--,--:--:--,1,2094.94,12:13:35,29/01/2025,0.93,--.--,--.--,--.--,--.--,--.--,--.--,--.--,--.--,--.--,--.--,100.00,0,0.000,0.000,0.000,0.000,0.000,0.000,0.000,0.000,0.000,0.000,0.000,0.000,false,false,false,false,false,false,false,false,false,false,false,false,--.--,--.--,--.--,--.--,--.--,--.--,--.--,--.--,-16.6966446,-54.6723659,21KYB 48213 52554,0.5,0.1,308.9,3,28,--.--,--.--,,--.--,--.--,--.--,0,0,--.--,--.--,0,-21.9,-51.5,-11.8,0.3,-0.3,0.0,--.--,--.--,--.--,--.--,--.--,--.--,--.--,--.--,--.--,--.--,--.--,--.--,56.27,57.99,--.--,0,0,1.9,6.4,11.3,0,0,0,180.0,0.0,0.0
2025-01-29 12:13:36.861,-3.3,0.3,126,0.0,0.0,0.0,0.2,0.2,0.105,-0.0,5.6,537.7,5.490,5.490,0.010,2.1,00:00:42,3.4,0,--.--,129,7.8,13,0000:39:44,0,0,0,45.57,44.99,4927,37,64,--.--,--:--:--,1,2050.15,12:13:36,29/01/2025,1.25,--.--,--.--,--.--,--.--,--.--,--.--,--.--,--.--,--.--,--.--,100.00,0,0.000,0.000,0.000,0.000,0.000,0.000,0.000,0.000,0.000,0.000,0.000,0.000,false,false,false,false,false,false,false,false,false,false,false,false,--.--,--.--,--.--,--.--,--.--,--.--,--.--,--.--,-16.6966429,-54.6723676,21KYB 48213 52554,0.5,0.1,107.5,3,28,--.--,--.--,,--.--,--.--,--.--,0,0,--.--,--.--,0,-21.8,-51.6,-11.8,-0.0,0.1,-0.0,--.--,--.--,--.--,--.--,--.--,--.--,--.--,--.--,--.--,--.--,--.--,--.--,56.25,57.93,--.--,0,0,2.8,7.5,11.3,0,0,0,180.0,0.0,0.0
2025-01-29 12:13:37.859,-3.0,2.6,127,0.0,0.0,0.0,0.3,0.3,0.097,0.0,5.5,537.7,5.500,5.462,0.008,2.1,00:00:43,3.3,0,--.--,130,7.8,12,0000:39:44,0,0,0,45.52,47.99,4940,37,64,--.--,--:--:--,1,2184.55,12:13:37,29/01/2025,1.36,--.--,--.--,--.--,--.--,--.--,--.--,--.--,--.--,--.--,--.--,100.00,0,0.000,0.000,0.000,0.000,0.000,0.000,0.000,0.000,0.000,0.000,0.000,0.000,false,false,false,false,false,false,false,false,false,false,false,false,--.--,--.--,--.--,--.--,--.--,--.--,--.--,--.--,-16.6966428,-54.6723675,21KYB 48213 52554,0.5,0.1,302.9,3,28,--.--,--.--,,--.--,--.--,--.--,0,0,--.--,--.--,0,-21.9,-51.5,-11.8,0.1,-0.1,-0.0,--.--,--.--,--.--,--.--,--.--,--.--,--.--,--.--,--.--,--.--,--.--,--.--,56.25,57.98,--.--,0,0,3.7,4.6,10.9,0,0,0,180.0,0.0,0.0
2025-01-29 12:13:38.857,-2.4,-0.9,127,0.0,0.0,0.0,0.1,0.1,0.237,-0.0,5.6,537.7,5.510,5.505,0.041,2.1,00:00:44,3.7,0,--.--,130,7.3,13,0000:39:44,0,0,0,45.56,44.99,4954,37,63,--.--,--:--:--,1,2049.65,12:13:38,29/01/2025,1.33,--.--,--.--,--.--,--.--,--.--,--.--,--.--,--.--,--.--,--.--,100.00,0,0.000,0.000,0.000,0.000,0.000,0.000,0.000,0.000,0.000,0.000,0.000,0.000,false,false,false,false,false,false,false,false,false,false,false,false,--.--,--.--,--.--,--.--,--.--,--.--,--.--,--.--,-16.6966406,-54.6723700,21KYB 48213 52554,0.5,0.1,310.6,3,28,--.--,--.--,,--.--,--.--,--.--,0,0,--.--,--.--,0,-21.6,-51.8,-11.8,0.1,-0.2,-0.0,--.--,--.--,--.--,--.--,--.--,--.--,--.--,--.--,--.--,--.--,--.--,--.--,56.29,57.98,--.--,0,0,3.4,6.6,10.1,0,0,0,180.0,0.0,0.0
2025-01-29 12:13:39.859,-3.8,0.4,126,0.0,0.0,0.0,0.1,0.1,0.120,0.0,5.5,537.7,5.490,5.468,0.016,2.1,00:00:45,3.8,0,--.--,129,7.7,13,0000:39:44,0,0,0,45.53,45.99,4967,37,63,--.--,--:--:--,1,2093.79,12:13:39,29/01/2025,1.33,--.--,--.--,--.--,--.--,--.--,--.--,--.--,--.--,--.--,--.--,100.00,0,0.000,0.000,0.000,0.000,0.000,0.000,0.000,0.000,0.000,0.000,0.000,0.000,false,false,false,false,false,false,false,false,false,false,false,false,--.--,--.--,--.--,--.--,--.--,--.--,--.--,--.--,-16.6966402,-54.6723713,21KYB 48212 52554,0.5,0.1,210.6,3,28,--.--,--.--,,--.--,--.--,--.--,0,0,--.--,--.--,0,-21.6,-51.9,-11.8,-0.1,0.0,-0.0,--.--,--.--,--.--,--.--,--.--,--.--,--.--,--.--,--.--,--.--,--.--,--.--,56.26,57.94,--.--,0,0,1.9,6.8,12.8,0,0,0,180.0,0.0,0.0
2025-01-29 12:13:40.856,-3.1,0.7,127,0.0,0.0,0.0,0.0,0.1,0.051,0.0,5.5,537.7,5.490,5.483,0.012,2.1,00:00:46,3.8,0,--.--,129,7.0,13,0000:39:44,0,0,0,45.51,46.99,4981,37,63,--.--,--:--:--,1,2138.47,12:13:40,29/01/2025,1.33,--.--,--.--,--.--,--.--,--.--,--.--,--.--,--.--,--.--,--.--,100.00,0,0.000,0.000,0.000,0.000,0.000,0.000,0.000,0.000,0.000,0.000,0.000,0.000,false,false,false,false,false,false,false,false,false,false,false,false,--.--,--.--,--.--,--.--,--.--,--.--,--.--,--.--,-16.6966406,-54.6723710,21KYB 48212 52554,0.5,0.1,132.1,3,28,--.--,--.--,,--.--,--.--,--.--,0,0,--.--,--.--,0,-21.6,-51.8,-11.8,-0.0,0.0,0.0,--.--,--.--,--.--,--.--,--.--,--.--,--.--,--.--,--.--,--.--,--.--,--.--,56.24,57.97,--.--,0,0,1.4,5.4,9.0,0,0,0,180.0,0.0,0.0
2025-01-29 12:13:41.859,-3.0,1.5,127,0.0,0.0,0.0,0.1,0.1,0.050,0.0,5.5,537.7,5.490,5.462,0.020,2.1,00:00:47,3.8,0,--.--,129,6.4,12,0000:39:44,0,0,0,45.52,44.99,4994,37,63,--.--,--:--:--,1,2047.85,12:13:41,29/01/2025,1.30,--.--,--.--,--.--,--.--,--.--,--.--,--.--,--.--,--.--,--.--,100.00,0,0.000,0.000,0.000,0.000,0.000,0.000,0.000,0.000,0.000,0.000,0.000,0.000,false,false,false,false,false,false,false,false,false,false,false,false,--.--,--.--,--.--,--.--,--.--,--.--,--.--,--.--,-16.6966409,-54.6723709,21KYB 48212 52554,0.5,0.1,216.0,3,28,--.--,--.--,,--.--,--.--,--.--,0,0,--.--,--.--,0,-21.6,-51.8,-11.7,0.1,-0.0,-0.0,--.--,--.--,--.--,--.--,--.--,--.--,--.--,--.--,--.--,--.--,--.--,--.--,56.24,57.91,--.--,0,0,3.2,4.0,9.9,0,0,0,180.0,0.0,0.0
2025-01-29 12:13:42.857,-3.8,1.9,127,0.0,0.0,0.0,0.0,0.0,0.039,0.0,5.6,537.7,5.490,5.488,0.005,2.1,00:00:48,3.8,0,--.--,129,6.9,13,0000:39:44,0,0,0,45.52,45.99,5007,37,63,--.--,--:--:--,1,2093.28,12:13:42,29/01/2025,1.50,--.--,--.--,--.--,--.--,--.--,--.--,--.--,--.--,--.--,--.--,100.00,0,0.000,0.000,0.000,0.000,0.000,0.000,0.000,0.000,0.000,0.000,0.000,0.000,false,false,false,false,false,false,false,false,false,false,false,false,--.--,--.--,--.--,--.--,--.--,--.--,--.--,--.--,-16.6966403,-54.6723713,21KYB 48212 52554,0.5,0.1,280.7,3,28,--.--,--.--,,--.--,--.--,--.--,0,0,--.--,--.--,0,-21.6,-51.9,-11.8,-0.0,-0.0,0.0,--.--,--.--,--.--,--.--,--.--,--.--,--.--,--.--,--.--,--.--,--.--,--.--,56.25,57.92,--.--,0,0,2.8,5.6,11.7,0,0,0,180.0,0.0,0.0
2025-01-29 12:13:43.861,-4.0,1.8,126,0.0,0.0,0.0,0.1,0.1,0.044,-0.0,5.6,537.7,5.500,5.483,0.051,2.1,00:00:49,3.8,0,--.--,129,7.4,13,0000:39:44,0,0,0,45.50,45.99,5013,37,63,--.--,--:--:--,1,2092.36,12:13:43,29/01/2025,1.87,--.--,--.--,--.--,--.--,--.--,--.--,--.--,--.--,--.--,--.--,100.00,0,0.000,0.000,0.000,0.000,0.000,0.000,0.000,0.000,0.000,0.000,0.000,0.000,false,false,false,false,false,false,false,false,false,false,false,false,--.--,--.--,--.--,--.--,--.--,--.--,--.--,--.--,-16.6966403,-54.6723716,21KYB 48212 52554,0.5,0.1,261.0,3,28,--.--,--.--,,--.--,--.--,--.--,0,0,--.--,--.--,0,-21.6,-51.9,-11.8,0.0,-0.0,-0.0,--.--,--.--,--.--,--.--,--.--,--.--,--.--,--.--,--.--,--.--,--.--,--.--,56.29,57.90,--.--,0,0,2.3,4.9,11.2,0,0,0,180.0,0.0,0.0
2025-01-29 12:13:44.864,-3.2,1.3,126,0.0,0.0,0.0,0.0,0.0,0.062,0.0,5.6,537.7,5.500,5.471,0.008,2.1,00:00:50,3.9,0,--.--,129,7.6,12,0000:39:44,0,0,0,45.48,47.99,5027,37,63,--.--,--:--:--,1,2182.78,12:13:44,29/01/2025,1.57,--.--,--.--,--.--,--.--,--.--,--.--,--.--,--.--,--.--,--.--,100.00,0,0.000,0.000,0.000,0.000,0.000,0.000,0.000,0.000,0.000,0.000,0.000,0.000,false,false,false,false,false,false,false,false,false,false,false,false,--.--,--.--,--.--,--.--,--.--,--.--,--.--,--.--,-16.6966399,-54.6723720,21KYB 48212 52554,0.5,0.1,333.8,3,28,--.--,--.--,,--.--,--.--,--.--,0,0,--.--,--.--,0,-21.5,-52.0,-11.8,0.0,-0.0,-0.0,--.--,--.--,--.--,--.--,--.--,--.--,--.--,--.--,--.--,--.--,--.--,--.--,56.27,57.90,--.--,0,0,2.8,5.2,9.7,0,0,0,180.0,0.0,0.0
2025-01-29 12:13:45.858,-3.9,2.7,126,0.0,0.0,0.0,0.1,0.1,0.091,-0.1,5.6,537.8,5.520,5.526,0.014,2.1,00:00:51,3.9,0,--.--,129,7.5,13,0000:39:44,0,0,0,45.49,45.99,5040,37,63,--.--,--:--:--,1,2092.13,12:13:45,29/01/2025,1.45,--.--,--.--,--.--,--.--,--.--,--.--,--.--,--.--,--.--,--.--,100.00,0,0.000,0.000,0.000,0.000,0.000,0.000,0.000,0.000,0.000,0.000,0.000,0.000,false,false,false,false,false,false,false,false,false,false,false,false,--.--,--.--,--.--,--.--,--.--,--.--,--.--,--.--,-16.6966399,-54.6723719,21KYB 48212 52554,0.5,0.1,150.9,3,28,--.--,--.--,,--.--,--.--,--.--,0,0,--.--,--.--,0,-21.5,-52.0,-11.8,-0.1,0.1,0.0,--.--,--.--,--.--,--.--,--.--,--.--,--.--,--.--,--.--,--.--,--.--,--.--,56.28,57.88,--.--,0,0,3.7,5.0,9.5,0,0,0,180.0,0.0,0.0
2025-01-29 12:13:46.866,-4.6,3.8,126,0.0,0.0,0.0,0.0,0.1,0.043,-0.0,5.6,537.8,5.560,5.605,0.039,2.1,00:00:52,3.9,0,--.--,129,7.5,13,0000:39:44,0,0,0,45.48,46.99,5053,37,62,--.--,--:--:--,1,2136.92,12:13:46,29/01/2025,0.95,--.--,--.--,--.--,--.--,--.--,--.--,--.--,--.--,--.--,--.--,100.00,0,0.000,0.000,0.000,0.000,0.000,0.000,0.000,0.000,0.000,0.000,0.000,0.000,false,false,false,false,false,false,false,false,false,false,false,false,--.--,--.--,--.--,--.--,--.--,--.--,--.--,--.--,-16.6966407,-54.6723718,21KYB 48212 52554,0.5,0.1,169.2,3,28,--.--,--.--,,--.--,--.--,--.--,0,0,--.--,--.--,0,-21.6,-52.0,-11.8,-0.1,0.0,-0.0,--.--,--.--,--.--,--.--,--.--,--.--,--.--,--.--,--.--,--.--,--.--,--.--,56.28,57.88,--.--,0,0,4.1,6.2,8.3,0,0,0,180.0,0.0,0.0
2025-01-29 12:13:47.857,-4.5,2.1,126,0.0,0.0,0.0,0.1,0.1,0.088,-0.0,5.6,537.8,5.550,5.610,0.067,2.1,00:00:53,3.9,0,--.--,128,7.3,12,0000:39:44,0,0,0,45.49,44.99,5066,37,62,--.--,--:--:--,1,2046.60,12:13:47,29/01/2025,0.95,--.--,--.--,--.--,--.--,--.--,--.--,--.--,--.--,--.--,--.--,100.00,0,0.000,0.000,0.000,0.000,0.000,0.000,0.000,0.000,0.000,0.000,0.000,0.000,false,false,false,false,false,false,false,false,false,false,false,false,--.--,--.--,--.--,--.--,--.--,--.--,--.--,--.--,-16.6966409,-54.6723722,21KYB 48212 52554,0.5,0.1,302.9,3,28,--.--,--.--,,--.--,--.--,--.--,0,0,--.--,--.--,0,-21.6,-52.0,-11.8,0.0,-0.0,0.0,--.--,--.--,--.--,--.--,--.--,--.--,--.--,--.--,--.--,--.--,--.--,--.--,56.25,57.86,--.--,0,0,2.8,5.4,10.4,0,0,0,180.0,0.0,0.0
2025-01-29 12:13:48.858,-4.2,2.0,126,0.0,0.0,0.0,0.0,0.0,0.096,-0.0,5.6,537.8,5.520,5.550,0.033,2.1,00:00:54,4.0,0,--.--,129,7.0,12,0000:39:44,0,0,0,45.49,43.99,5079,37,62,--.--,--:--:--,1,2000.89,12:13:48,29/01/2025,0.95,--.--,--.--,--.--,--.--,--.--,--.--,--.--,--.--,--.--,--.--,100.00,0,0.000,0.000,0.000,0.000,0.000,0.000,0.000,0.000,0.000,0.000,0.000,0.000,false,false,false,false,false,false,false,false,false,false,false,false,--.--,--.--,--.--,--.--,--.--,--.--,--.--,--.--,-16.6966405,-54.6723725,21KYB 48212 52554,0.5,0.1,349.5,3,28,--.--,--.--,,--.--,--.--,--.--,0,0,--.--,--.--,0,-21.5,-52.0,-11.8,0.1,0.0,0.0,--.--,--.--,--.--,--.--,--.--,--.--,--.--,--.--,--.--,--.--,--.--,--.--,56.29,57.89,--.--,0,0,3.6,5.0,9.5,0,0,0,180.0,0.0,0.0
2025-01-29 12:13:49.861,-4.2,2.6,126,0.0,0.0,0.0,0.0,0.1,0.066,0.0,5.6,537.7,5.500,5.506,0.003,2.1,00:00:55,4.0,0,--.--,129,6.6,12,0000:39:44,0,0,0,45.45,44.99,5093,37,62,--.--,--:--:--,1,2044.75,12:13:49,29/01/2025,1.49,--.--,--.--,--.--,--.--,--.--,--.--,--.--,--.--,--.--,--.--,100.00,0,0.000,0.000,0.000,0.000,0.000,0.000,0.000,0.000,0.000,0.000,0.000,0.000,false,false,false,false,false,false,false,false,false,false,false,false,--.--,--.--,--.--,--.--,--.--,--.--,--.--,--.--,-16.6966401,-54.6723726,21KYB 48212 52554,0.5,0.1,327.1,3,28,--.--,--.--,,--.--,--.--,--.--,0,0,--.--,--.--,0,-21.4,-52.0,-11.8,0.0,-0.0,0.0,--.--,--.--,--.--,--.--,--.--,--.--,--.--,--.--,--.--,--.--,--.--,--.--,56.28,57.88,--.--,0,0,3.2,3.6,9.9,0,0,0,180.0,0.0,0.0
2025-01-29 12:13:50.858,-4.6,2.6,126,0.0,0.0,0.0,0.0,0.0,0.023,-0.0,5.5,537.7,5.490,5.501,0.008,2.1,00:00:56,4.1,0,--.--,129,6.1,12,0000:39:44,0,0,0,45.45,44.99,5106,37,61,--.--,--:--:--,1,2044.66,12:13:50,29/01/2025,1.85,--.--,--.--,--.--,--.--,--.--,--.--,--.--,--.--,--.--,--.--,100.00,0,0.000,0.000,0.000,0.000,0.000,0.000,0.000,0.000,0.000,0.000,0.000,0.000,false,false,false,false,false,false,false,false,false,false,false,false,--.--,--.--,--.--,--.--,--.--,--.--,--.--,--.--,-16.6966402,-54.6723731,21KYB 48212 52554,0.5,0.1,244.5,3,28,--.--,--.--,,--.--,--.--,--.--,0,0,--.--,--.--,0,-21.4,-52.1,-11.8,-0.0,-0.0,0.0,--.--,--.--,--.--,--.--,--.--,--.--,--.--,--.--,--.--,--.--,--.--,--.--,56.25,57.89,--.--,0,0,4.0,3.1,10.2,0,0,0,180.0,0.0,0.0
2025-01-29 12:13:51.856,-4.1,2.5,127,0.0,0.0,0.0,0.0,0.0,0.050,-0.0,5.5,537.7,5.480,5.468,0.014,2.1,00:00:57,4.1,0,--.--,129,5.8,13,0000:39:44,0,0,0,45.44,45.99,5119,37,61,--.--,--:--:--,1,2089.74,12:13:51,29/01/2025,1.85,--.--,--.--,--.--,--.--,--.--,--.--,--.--,--.--,--.--,--.--,100.00,0,0.000,0.000,0.000,0.000,0.000,0.000,0.000,0.000,0.000,0.000,0.000,0.000,false,false,false,false,false,false,false,false,false,false,false,false,--.--,--.--,--.--,--.--,--.--,--.--,--.--,--.--,-16.6966405,-54.6723735,21KYB 48212 52554,0.5,0.1,232.1,3,28,--.--,--.--,,--.--,--.--,--.--,0,0,--.--,--.--,0,-21.4,-52.1,-11.7,0.0,0.0,-0.0,--.--,--.--,--.--,--.--,--.--,--.--,--.--,--.--,--.--,--.--,--.--,--.--,56.26,57.89,--.--,0,0,2.8,4.8,12.4,0,0,0,180.0,0.0,0.0
2025-01-29 12:13:52.860,-3.8,2.9,126,0.0,0.0,0.0,0.1,0.1,0.102,0.0,5.5,537.7,5.470,5.447,0.027,4.1,00:00:58,4.1,0,--.--,129,4.7,12,0000:39:44,0,0,0,45.39,47.99,5132,37,61,--.--,--:--:--,1,2178.51,12:13:52,29/01/2025,1.13,--.--,--.--,--.--,--.--,--.--,--.--,--.--,--.--,--.--,--.--,100.00,0,0.000,0.000,0.000,0.000,0.000,0.000,0.000,0.000,0.000,0.000,0.000,0.000,false,false,false,false,false,false,false,false,false,false,false,false,--.--,--.--,--.--,--.--,--.--,--.--,--.--,--.--,-16.6966406,-54.6723737,21KYB 48212 52554,0.5,0.1,345.6,3,28,--.--,--.--,,--.--,--.--,--.--,0,0,--.--,--.--,0,-21.4,-52.1,-11.7,0.1,-0.0,-0.0,--.--,--.--,--.--,--.--,--.--,--.--,--.--,--.--,--.--,--.--,--.--,--.--,56.26,57.82,--.--,0,0,3.0,5.4,12.7,0,0,0,180.0,0.0,0.0
2025-01-29 12:13:53.859,-4.4,2.2,126,0.0,0.0,0.0,0.1,0.1,0.124,0.0,5.5,537.7,5.460,5.428,0.008,4.1,00:00:59,4.2,0,--.--,129,4.2,12,0000:39:44,0,0,0,45.42,45.99,5145,37,61,--.--,--:--:--,1,2089.05,12:13:53,29/01/2025,1.49,--.--,--.--,--.--,--.--,--.--,--.--,--.--,--.--,--.--,--.--,100.00,0,0.000,0.000,0.000,0.000,0.000,0.000,0.000,0.000,0.000,0.000,0.000,0.000,false,false,false,false,false,false,false,false,false,false,false,false,--.--,--.--,--.--,--.--,--.--,--.--,--.--,--.--,-16.6966398,-54.6723745,21KYB 48212 52554,0.5,0.1,309.4,3,28,--.--,--.--,,--.--,--.--,--.--,0,0,--.--,--.--,0,-21.3,-52.2,-11.7,0.0,-0.1,-0.0,--.--,--.--,--.--,--.--,--.--,--.--,--.--,--.--,--.--,--.--,--.--,--.--,56.27,57.89,--.--,0,0,3.2,7.7,10.7,0,0,0,180.0,0.0,0.0
2025-01-29 12:13:54.858,-4.0,2.1,129,0.0,0.0,0.0,0.0,0.0,0.032,-0.0,5.5,537.7,5.470,5.424,0.035,4.1,00:01:00,4.3,0,--.--,129,3.9,13,0000:39:44,0,0,0,45.40,47.99,5159,37,61,--.--,--:--:--,1,2178.84,12:13:54,29/01/2025,1.22,--.--,--.--,--.--,--.--,--.--,--.--,--.--,--.--,--.--,--.--,100.00,0,0.000,0.000,0.000,0.000,0.000,0.000,0.000,0.000,0.000,0.000,0.000,0.000,false,false,false,false,false,false,false,false,false,false,false,false,--.--,--.--,--.--,--.--,--.--,--.--,--.--,--.--,-16.6966395,-54.6723753,21KYB 48212 52554,0.5,0.1,311.3,3,28,--.--,--.--,,--.--,--.--,--.--,0,0,--.--,--.--,0,-21.3,-52.3,-11.7,0.0,-0.0,-0.1,--.--,--.--,--.--,--.--,--.--,--.--,--.--,--.--,--.--,--.--,--.--,--.--,56.24,57.82,--.--,0,0,2.4,8.2,10.7,0,0,0,180.0,0.0,0.0
2025-01-29 12:13:55.866,-4.4,3.0,128,0.0,0.0,0.0,0.0,0.1,0.055,0.1,5.5,537.7,5.460,5.424,0.044,4.1,00:01:01,4.3,0,--.--,128,4.0,12,0000:39:44,0,0,0,45.37,47.99,5172,37,61,--.--,--:--:--,1,2177.21,12:13:55,29/01/2025,1.54,--.--,--.--,--.--,--.--,--.--,--.--,--.--,--.--,--.--,--.--,100.00,0,0.000,0.000,0.000,0.000,0.000,0.000,0.000,0.000,0.000,0.000,0.000,0.000,false,false,false,false,false,false,false,false,false,false,false,false,--.--,--.--,--.--,--.--,--.--,--.--,--.--,--.--,-16.6966396,-54.6723750,21KYB 48212 52554,0.5,0.1,125.7,3,28,--.--,--.--,,--.--,--.--,--.--,0,0,--.--,--.--,0,-21.3,-52.3,-11.7,0.0,0.1,-0.0,--.--,--.--,--.--,--.--,--.--,--.--,--.--,--.--,--.--,--.--,--.--,--.--,56.27,57.80,--.--,0,0,2.1,5.4,11.3,0,0,0,180.0,0.0,0.0
2025-01-29 12:13:56.860,-3.1,3.4,128,0.0,0.0,0.0,0.1,0.1,0.031,0.0,5.5,537.7,5.500,5.479,0.021,4.1,00:01:02,4.3,0,--.--,128,4.2,12,0000:39:44,0,0,0,45.39,46.99,5186,37,61,--.--,--:--:--,1,2133.11,12:13:56,29/01/2025,1.40,--.--,--.--,--.--,--.--,--.--,--.--,--.--,--.--,--.--,--.--,100.00,0,0.000,0.000,0.000,0.000,0.000,0.000,0.000,0.000,0.000,0.000,0.000,0.000,false,false,false,false,false,false,false,false,false,false,false,false,--.--,--.--,--.--,--.--,--.--,--.--,--.--,--.--,-16.6966397,-54.6723744,21KYB 48212 52554,0.5,0.1,107.7,3,28,--.--,--.--,,--.--,--.--,--.--,0,0,--.--,--.--,0,-21.4,-52.3,-11.8,-0.0,-0.0,-0.0,--.--,--.--,--.--,--.--,--.--,--.--,--.--,--.--,--.--,--.--,--.--,--.--,56.25,57.79,--.--,0,0,3.7,7.2,10.5,0,0,0,180.0,0.0,0.0
2025-01-29 12:13:57.867,-3.9,2.5,128,0.0,0.0,0.0,0.3,0.3,0.260,0.0,5.6,537.7,5.510,5.502,0.037,4.1,00:01:03,4.3,0,--.--,128,4.1,12,0000:39:44,0,0,0,45.38,46.99,5200,37,61,--.--,--:--:--,1,2132.55,12:13:57,29/01/2025,1.16,--.--,--.--,--.--,--.--,--.--,--.--,--.--,--.--,--.--,--.--,100.00,0,0.000,0.000,0.000,0.000,0.000,0.000,0.000,0.000,0.000,0.000,0.000,0.000,false,false,false,false,false,false,false,false,false,false,false,false,--.--,--.--,--.--,--.--,--.--,--.--,--.--,--.--,-16.6966395,-54.6723748,21KYB 48212 52554,0.5,0.1,347.6,3,28,--.--,--.--,,--.--,--.--,--.--,0,0,--.--,--.--,0,-21.3,-52.3,-11.8,0.3,-0.1,-0.0,--.--,--.--,--.--,--.--,--.--,--.--,--.--,--.--,--.--,--.--,--.--,--.--,56.22,57.77,--.--,0,0,3.4,6.7,10.1,0,0,0,180.0,0.0,0.0
2025-01-29 12:13:58.860,-4.9,1.4,129,0.0,0.0,0.0,0.2,0.2,0.234,0.0,5.6,537.7,5.510,5.502,0.055,4.1,00:01:04,4.6,0,--.--,129,4.3,13,0000:39:44,0,0,0,45.36,47.99,5207,37,61,--.--,--:--:--,1,2176.92,12:13:58,29/01/2025,0.73,--.--,--.--,--.--,--.--,--.--,--.--,--.--,--.--,--.--,--.--,100.00,0,0.000,0.000,0.000,0.000,0.000,0.000,0.000,0.000,0.000,0.000,0.000,0.000,false,false,false,false,false,false,false,false,false,false,false,false,--.--,--.--,--.--,--.--,--.--,--.--,--.--,--.--,-16.6966372,-54.6723762,21KYB 48212 52554,0.5,0.1,279.6,3,28,--.--,--.--,,--.--,--.--,--.--,0,0,--.--,--.--,0,-21.1,-52.5,-11.8,-0.0,-0.2,0.0,--.--,--.--,--.--,--.--,--.--,--.--,--.--,--.--,--.--,--.--,--.--,--.--,56.24,57.78,--.--,0,0,4.0,8.0,14.1,0,0,0,180.0,0.0,0.0
2025-01-29 12:13:59.859,-4.7,4.5,128,0.0,0.0,0.0,0.1,0.1,0.153,0.0,5.6,537.8,5.510,5.555,0.047,4.1,00:01:05,4.5,0,--.--,128,4.5,13,0000:39:44,0,0,0,45.35,47.99,5221,37,61,--.--,--:--:--,1,2176.30,12:13:59,29/01/2025,1.37,--.--,--.--,--.--,--.--,--.--,--.--,--.--,--.--,--.--,--.--,100.00,0,0.000,0.000,0.000,0.000,0.000,0.000,0.000,0.000,0.000,0.000,0.000,0.000,false,false,false,false,false,false,false,false,false,false,false,false,--.--,--.--,--.--,--.--,--.--,--.--,--.--,--.--,-16.6966378,-54.6723771,21KYB 48212 52554,0.5,0.1,130.1,3,28,--.--,--.--,,--.--,--.--,--.--,0,0,--.--,--.--,0,-21.2,-52.5,-11.8,-0.0,0.1,-0.0,--.--,--.--,--.--,--.--,--.--,--.--,--.--,--.--,--.--,--.--,--.--,--.--,56.25,57.78,--.--,0,0,2.9,5.1,14.0,0,0,0,180.0,0.0,0.0
2025-01-29 12:14:00.860,-3.2,2.1,128,0.0,0.0,0.0,0.0,0.1,0.141,0.0,5.6,537.8,5.570,5.554,0.045,4.1,00:01:06,4.6,0,--.--,129,4.5,12,0000:39:44,0,0,0,45.33,49.99,5235,37,61,--.--,--:--:--,1,2265.90,12:14:00,29/01/2025,1.75,--.--,--.--,--.--,--.--,--.--,--.--,--.--,--.--,--.--,--.--,100.00,0,0.000,0.000,0.000,0.000,0.000,0.000,0.000,0.000,0.000,0.000,0.000,0.000,false,false,false,false,false,false,false,false,false,false,false,false,--.--,--.--,--.--,--.--,--.--,--.--,--.--,--.--,-16.6966371,-54.6723773,21KYB 48212 52554,0.5,0.1,328.6,3,28,--.--,--.--,,--.--,--.--,--.--,0,0,--.--,--.--,0,-21.1,-52.5,-11.8,0.1,-0.1,-0.0,--.--,--.--,--.--,--.--,--.--,--.--,--.--,--.--,--.--,--.--,--.--,--.--,56.24,57.79,--.--,0,0,4.0,5.4,11.0,0,0,0,180.0,0.0,0.0
2025-01-29 12:14:01.869,-3.7,2.9,128,0.0,0.0,0.0,0.0,0.3,0.303,0.3,5.7,537.9,5.750,5.613,0.022,4.1,00:01:07,4.6,0,--.--,129,4.4,13,0000:39:44,0,0,0,45.31,48.99,5249,37,61,--.--,--:--:--,1,2219.59,12:14:01,29/01/2025,1.55,--.--,--.--,--.--,--.--,--.--,--.--,--.--,--.--,--.--,--.--,100.00,0,0.000,0.000,0.000,0.000,0.000,0.000,0.000,0.000,0.000,0.000,0.000,0.000,false,false,false,false,false,false,false,false,false,false,false,false,--.--,--.--,--.--,--.--,--.--,--.--,--.--,--.--,-16.6966370,-54.6723776,21KYB 48212 52554,0.5,0.1,322.2,3,28,--.--,--.--,,--.--,--.--,--.--,0,0,--.--,--.--,0,-21.1,-52.5,-12.0,-0.0,-0.0,-0.3,--.--,--.--,--.--,--.--,--.--,--.--,--.--,--.--,--.--,--.--,--.--,--.--,56.24,57.79,--.--,0,0,1.9,8.2,9.6,0,0,0,180.0,0.0,0.0
2025-01-29 12:14:02.860,-3.2,4.1,128,0.0,0.0,0.0,0.1,0.2,0.277,0.2,6.0,538.2,6.050,5.947,0.023,4.1,00:01:08,4.6,0,--.--,129,4.4,12,0000:39:44,0,0,0,45.31,51.99,5263,37,61,--.--,--:--:--,1,2355.51,12:14:02,29/01/2025,0.83,--.--,--.--,--.--,--.--,--.--,--.--,--.--,--.--,--.--,--.--,100.00,0,0.000,0.000,0.000,0.000,0.000,0.000,0.000,0.000,0.000,0.000,0.000,0.000,false,false,false,false,false,false,false,false,false,false,false,false,--.--,--.--,--.--,--.--,--.--,--.--,--.--,--.--,-16.6966372,-54.6723776,21KYB 48212 52554,0.5,0.1,68.2,3,28,--.--,--.--,,--.--,--.--,--.--,0,0,--.--,--.--,0,-21.1,-52.6,-12.3,0.0,-0.0,-0.3,--.--,--.--,--.--,--.--,--.--,--.--,--.--,--.--,--.--,--.--,--.--,--.--,56.25,57.77,--.--,0,0,2.1,6.5,9.9,0,0,0,180.0,0.0,0.0
2025-01-29 12:14:03.860,-3.2,3.6,128,0.0,0.0,0.0,0.1,0.2,0.172,0.1,6.2,538.4,6.180,6.141,0.018,4.1,00:01:09,4.7,0,--.--,129,4.6,12,0000:39:44,0,0,0,45.32,47.99,5278,37,61,--.--,--:--:--,1,2175.00,12:14:03,29/01/2025,1.29,--.--,--.--,--.--,--.--,--.--,--.--,--.--,--.--,--.--,--.--,100.00,0,0.000,0.000,0.000,0.000,0.000,0.000,0.000,0.000,0.000,0.000,0.000,0.000,false,false,false,false,false,false,false,false,false,false,false,false,--.--,--.--,--.--,--.--,--.--,--.--,--.--,--.--,-16.6966370,-54.6723780,21KYB 48212 52554,0.5,0.1,309.7,3,28,--.--,--.--,,--.--,--.--,--.--,0,0,--.--,--.--,0,-21.0,-52.6,-12.4,0.1,-0.1,-0.1,--.--,--.--,--.--,--.--,--.--,--.--,--.--,--.--,--.--,--.--,--.--,--.--,56.22,57.77,--.--,0,0,3.7,6.8,9.5,0,0,0,180.0,0.0,0.0
2025-01-29 12:14:04.858,-3.7,4.3,128,0.0,0.0,0.0,0.2,0.2,0.168,-0.0,6.3,538.4,6.190,6.191,0.027,4.1,00:01:10,4.8,0,--.--,128,4.9,12,0000:39:44,0,0,0,45.31,47.99,5292,37,61,--.--,--:--:--,1,2174.38,12:14:04,29/01/2025,0.87,--.--,--.--,--.--,--.--,--.--,--.--,--.--,--.--,--.--,--.--,100.00,0,0.000,0.000,0.000,0.000,0.000,0.000,0.000,0.000,0.000,0.000,0.000,0.000,false,false,false,false,false,false,false,false,false,false,false,false,--.--,--.--,--.--,--.--,--.--,--.--,--.--,--.--,-16.6966364,-54.6723789,21KYB 48212 52554,0.5,0.1,281.2,3,28,--.--,--.--,,--.--,--.--,--.--,0,0,--.--,--.--,0,-21.0,-52.7,-12.5,-0.1,-0.2,-0.0,--.--,--.--,--.--,--.--,--.--,--.--,--.--,--.--,--.--,--.--,--.--,--.--,56.22,57.77,--.--,0,0,2.8,4.7,9.5,0,0,0,180.0,0.0,0.0
2025-01-29 12:14:05.874,-7.4,4.1,128,0.0,0.0,0.0,0.3,0.3,0.140,0.0,6.2,538.4,6.200,6.174,0.097,4.1,00:01:11,5.0,0,--.--,127,5.0,13,0000:39:44,0,0,0,45.30,48.99,5306,37,61,--.--,--:--:--,1,2219.39,12:14:05,29/01/2025,1.23,--.--,--.--,--.--,--.--,--.--,--.--,--.--,--.--,--.--,--.--,100.00,0,0.000,0.000,0.000,0.000,0.000,0.000,0.000,0.000,0.000,0.000,0.000,0.000,false,false,false,false,false,false,false,false,false,false,false,false,--.--,--.--,--.--,--.--,--.--,--.--,--.--,--.--,-16.6966366,-54.6723801,21KYB 48211 52554,0.5,0.1,327.5,3,28,--.--,--.--,,--.--,--.--,--.--,0,0,--.--,--.--,0,-21.0,-52.9,-12.5,0.2,-0.0,-0.0,--.--,--.--,--.--,--.--,--.--,--.--,--.--,--.--,--.--,--.--,--.--,--.--,56.21,57.73,--.--,0,0,2.5,8.5,10.5,0,0,0,180.0,0.0,0.0
2025-01-29 12:14:06.860,2.2,3.8,128,0.0,0.0,0.0,0.3,0.3,0.494,0.0,6.3,538.4,6.220,6.215,0.189,4.1,00:01:12,5.2,0,--.--,132,4.8,12,0000:39:44,0,0,0,45.30,47.99,5319,37,61,--.--,--:--:--,1,2173.90,12:14:06,29/01/2025,1.04,--.--,--.--,--.--,--.--,--.--,--.--,--.--,--.--,--.--,--.--,100.00,0,0.000,0.000,0.000,0.000,0.000,0.000,0.000,0.000,0.000,0.000,0.000,0.000,false,false,false,false,false,false,false,false,false,false,false,false,--.--,--.--,--.--,--.--,--.--,--.--,--.--,--.--,-16.6966334,-54.6723793,21KYB 48212 52555,0.5,0.1,15.9,3,28,--.--,--.--,,--.--,--.--,--.--,0,0,--.--,--.--,0,-20.5,-52.7,-12.5,0.4,0.1,-0.0,--.--,--.--,--.--,--.--,--.--,--.--,--.--,--.--,--.--,--.--,--.--,--.--,56.20,57.73,--.--,0,0,3.1,5.0,9.1,0,0,0,180.0,0.0,0.0
2025-01-29 12:14:07.859,-5.8,-6.0,129,0.0,0.0,0.0,0.4,0.4,0.532,-0.0,6.2,538.4,6.180,6.178,0.092,4.1,00:01:13,5.4,0,--.--,130,5.3,13,0000:39:44,0,0,0,45.31,44.99,5333,37,61,--.--,--:--:--,1,2038.68,12:14:07,29/01/2025,1.49,--.--,--.--,--.--,--.--,--.--,--.--,--.--,--.--,--.--,--.--,100.00,0,0.000,0.000,0.000,0.000,0.000,0.000,0.000,0.000,0.000,0.000,0.000,0.000,false,false,false,false,false,false,false,false,false,false,false,false,--.--,--.--,--.--,--.--,--.--,--.--,--.--,--.--,-16.6966325,-54.6723817,21KYB 48211 52555,0.5,0.1,252.9,3,28,--.--,--.--,,--.--,--.--,--.--,0,0,--.--,--.--,0,-20.6,-53.1,-12.4,-0.2,-0.4,0.1,--.--,--.--,--.--,--.--,--.--,--.--,--.--,--.--,--.--,--.--,--.--,--.--,56.23,57.73,--.--,0,0,2.0,6.8,14.2,0,0,0,180.0,0.0,0.0
2025-01-29 12:14:08.862,-4.7,10.3,128,0.0,0.0,0.0,0.4,0.4,0.701,0.0,6.2,538.4,6.200,6.173,0.260,4.1,00:01:14,5.0,0,--.--,128,5.2,13,0000:39:44,0,0,0,45.30,50.99,5346,37,60,--.--,--:--:--,1,2309.69,12:14:08,29/01/2025,1.13,--.--,--.--,--.--,--.--,--.--,--.--,--.--,--.--,--.--,--.--,100.00,0,0.000,0.000,0.000,0.000,0.000,0.000,0.000,0.000,0.000,0.000,0.000,0.000,false,false,false,false,false,false,false,false,false,false,false,false,--.--,--.--,--.--,--.--,--.--,--.--,--.--,--.--,-16.6966354,-54.6723813,21KYB 48211 52555,0.5,0.1,131.1,3,28,--.--,--.--,,--.--,--.--,--.--,0,0,--.--,--.--,0,-20.9,-52.9,-12.5,-0.3,0.6,-0.0,--.--,--.--,--.--,--.--,--.--,--.--,--.--,--.--,--.--,--.--,--.--,--.--,56.22,57.76,--.--,0,0,1.5,6.0,11.4,0,0,0,180.0,0.0,0.0
