Timestamp,roll,pitch,heading,rollRate,pitchRate,yawRate,groundSpeed,airSpeed,airSpeedSetpoint,climbRate,altitudeRelative,altitudeAMSL,altitudeTuning,altitudeTuningSetpoint,xTrackError,flightDistance,flightTime,distanceToHome,missionItemIndex,headingToNextWP,headingToHome,distanceToGCS,throttlePct,hobbs,battery0.id,battery0.batteryFunction,battery0.batteryType,battery0.voltage,battery0.current,battery0.mahConsumed,battery0.temperature,battery0.percentRemaining,battery0.timeRemaining,battery0.timeRemainingStr,battery0.chargeState,battery0.instantPower,clock.currentTime,clock.currentDate,distanceSensor.rotationNone,distanceSensor.rotationYaw45,distanceSensor.rotationYaw90,distanceSensor.rotationYaw135,distanceSensor.rotationYaw180,distanceSensor.rotationYaw225,distanceSensor.rotationYaw270,distanceSensor.rotationYaw315,distanceSensor.rotationPitch90,distanceSensor.rotationPitch270,distanceSensor.minDistance,distanceSensor.maxDistance,escStatus.index,escStatus.rpm1,escStatus.rpm2,escStatus.rpm3,escStatus.rpm4,escStatus.current1,escStatus.current2,escStatus.current3,escStatus.current4,escStatus.voltage1,escStatus.voltage2,escStatus.voltage3,escStatus.voltage4,estimatorStatus.goodAttitudeEsimate,estimatorStatus.goodHorizVelEstimate,estimatorStatus.goodVertVelEstimate,estimatorStatus.goodHorizPosRelEstimate,estimatorStatus.goodHorizPosAbsEstimate,estimatorStatus.goodVertPosAbsEstimate,estimatorStatus.goodVertPosAGLEstimate,estimatorStatus.goodConstPosModeEstimate,estimatorStatus.goodPredHorizPosRelEstimate,estimatorStatus.goodPredHorizPosAbsEstimate,estimatorStatus.gpsGlitch,estimatorStatus.accelError,estimatorStatus.velRatio,estimatorStatus.horizPosRatio,estimatorStatus.vertPosRatio,estimatorStatus.magRatio,estimatorStatus.haglRatio,estimatorStatus.tasRatio,estimatorStatus.horizPosAccuracy,estimatorStatus.vertPosAccuracy,gps.lat,gps.lon,gps.mgrs,gps.hdop,gps.vdop,gps.courseOverGround,gps.lock,gps.count,gps2.lat,gps2.lon,gps2.mgrs,gps2.hdop,gps2.vdop,gps2.courseOverGround,gps2.lock,gps2.count,hygrometer.temperature,hygrometer.humidity,hygrometer.hygrometerid,localPosition.x,localPosition.y,localPosition.z,localPosition.vx,localPosition.vy,localPosition.vz,localPositionSetpoint.x,localPositionSetpoint.y,localPositionSetpoint.z,localPositionSetpoint.vx,localPositionSetpoint.vy,localPositionSetpoint.vz,setpoint.roll,setpoint.pitch,setpoint.yaw,setpoint.rollRate,setpoint.pitchRate,setpoint.yawRate,temperature.temperature1,temperature.temperature2,temperature.temperature3,terrain.blocksPending,terrain.blocksLoaded,vibration.xAxis,vibration.yAxis,vibration.zAxis,vibration.clipCount1,vibration.clipCount2,vibration.clipCount3,wind.direction,wind.speed,wind.verticalSpeed
2025-01-29 17:29:39.459,-0.1,0.0,340,0.0,0.0,0.0,0.0,0.0,0.007,-0.0,-0.0,528.5,-0.610,-0.610,0.000,0.0,00:00:00,0.0,0,--.--,--.--,9.7,0,0000:55:53,0,0,0,47.90,0.00,0,33,88,--.--,--:--:--,1,0.00,17:29:39,29/01/2025,11.29,--.--,--.--,--.--,--.--,--.--,--.--,--.--,--.--,--.--,--.--,100.00,0,0.000,0.000,0.000,0.000,0.000,0.000,0.000,0.000,0.000,0.000,0.000,0.000,false,false,false,false,false,false,false,false,false,false,false,false,--.--,--.--,--.--,--.--,--.--,--.--,--.--,--.--,-16.6956185,-54.6694853,21KYB 48522 52664,0.5,0.1,0.0,3,28,--.--,--.--,,--.--,--.--,--.--,0,0,--.--,--.--,0,-0.6,-1.9,1.1,0.0,-0.0,0.0,--.--,--.--,--.--,--.--,--.--,--.--,--.--,--.--,--.--,--.--,--.--,--.--,44.42,41.78,--.--,0,0,0.0,0.0,0.0,0,0,0,180.0,0.0,0.0
2025-01-29 17:29:40.442,-0.1,0.0,340,0.0,0.0,0.0,0.0,0.0,0.007,-0.0,-0.0,528.5,-0.620,-0.620,0.000,0.0,00:00:00,0.0,0,--.--,--.--,9.4,0,0000:55:53,0,0,0,47.90,0.00,0,33,88,--.--,--:--:--,1,0.00,17:29:40,29/01/2025,11.29,--.--,--.--,--.--,--.--,--.--,--.--,--.--,--.--,--.--,--.--,100.00,0,0.000,0.000,0.000,0.000,0.000,0.000,0.000,0.000,0.000,0.000,0.000,0.000,false,false,false,false,false,false,false,false,false,false,false,false,--.--,--.--,--.--,--.--,--.--,--.--,--.--,--.--,-16.6956185,-54.6694853,21KYB 48522 52664,0.5,0.1,0.0,3,28,--.--,--.--,,--.--,--.--,--.--,0,0,--.--,--.--,0,-0.6,-1.9,1.1,0.0,0.0,0.0,--.--,--.--,--.--,--.--,--.--,--.--,--.--,--.--,--.--,--.--,--.--,--.--,44.45,41.80,--.--,0,0,0.0,0.0,0.0,0,0,0,180.0,0.0,0.0
2025-01-29 17:29:41.460,-0.1,0.0,340,0.0,0.0,0.0,0.0,0.0,0.007,-0.0,-0.0,528.5,-0.630,-0.630,0.000,0.0,00:00:01,0.0,0,--.--,--.--,8.4,0,0000:55:53,0,0,0,47.90,0.00,0,33,88,--.--,--:--:--,1,0.00,17:29:41,29/01/2025,11.29,--.--,--.--,--.--,--.--,--.--,--.--,--.--,--.--,--.--,--.--,100.00,0,0.000,0.000,0.000,0.000,0.000,0.000,0.000,0.000,0.000,0.000,0.000,0.000,false,false,false,false,false,false,false,false,false,false,false,false,--.--,--.--,--.--,--.--,--.--,--.--,--.--,--.--,-16.6956185,-54.6694852,21KYB 48522 52664,0.5,0.1,0.0,3,28,--.--,--.--,,--.--,--.--,--.--,0,0,--.--,--.--,0,-0.6,-1.9,1.1,0.0,-0.0,0.0,--.--,--.--,--.--,--.--,--.--,--.--,--.--,--.--,--.--,--.--,--.--,--.--,44.43,41.79,--.--,0,0,0.0,0.0,0.0,0,0,0,180.0,0.0,0.0
2025-01-29 17:29:42.447,-0.1,0.0,340,0.0,0.0,0.0,0.0,0.0,0.005,-0.0,-0.0,528.5,-0.630,-0.630,0.000,0.0,00:00:02,0.0,0,--.--,--.--,8.5,0,0000:55:53,0,0,0,47.90,0.00,0,33,88,--.--,--:--:--,1,0.00,17:29:42,29/01/2025,11.29,--.--,--.--,--.--,--.--,--.--,--.--,--.--,--.--,--.--,--.--,100.00,0,0.000,0.000,0.000,0.000,0.000,0.000,0.000,0.000,0.000,0.000,0.000,0.000,false,false,false,false,false,false,false,false,false,false,false,false,--.--,--.--,--.--,--.--,--.--,--.--,--.--,--.--,-16.6956185,-54.6694851,21KYB 48522 52664,0.5,0.1,0.0,3,28,--.--,--.--,,--.--,--.--,--.--,0,0,--.--,--.--,0,-0.6,-1.9,1.1,0.0,0.0,0.0,--.--,--.--,--.--,--.--,--.--,--.--,--.--,--.--,--.--,--.--,--.--,--.--,44.43,41.80,--.--,0,0,0.0,0.0,0.0,0,0,0,180.0,0.0,0.0
2025-01-29 17:29:43.461,-0.1,0.0,340,0.0,0.0,0.0,0.0,0.0,0.005,0.0,-0.0,528.5,-0.630,-0.630,0.000,0.0,00:00:03,0.0,0,--.--,--.--,8.1,0,0000:55:53,0,0,0,47.90,0.00,0,33,88,--.--,--:--:--,1,0.00,17:29:43,29/01/2025,11.29,--.--,--.--,--.--,--.--,--.--,--.--,--.--,--.--,--.--,--.--,100.00,0,0.000,0.000,0.000,0.000,0.000,0.000,0.000,0.000,0.000,0.000,0.000,0.000,false,false,false,false,false,false,false,false,false,false,false,false,--.--,--.--,--.--,--.--,--.--,--.--,--.--,--.--,-16.6956185,-54.6694850,21KYB 48522 52664,0.5,0.1,116.6,3,28,--.--,--.--,,--.--,--.--,--.--,0,0,--.--,--.--,0,-0.6,-1.9,1.1,-0.0,-0.0,0.0,--.--,--.--,--.--,--.--,--.--,--.--,--.--,--.--,--.--,--.--,--.--,--.--,44.39,41.80,--.--,0,0,0.4,0.2,0.3,0,0,0,180.0,0.0,0.0
2025-01-29 17:29:44.445,-0.0,0.0,340,0.0,0.0,0.0,0.0,0.0,0.009,0.0,-0.0,528.5,-0.620,-0.620,0.000,0.0,00:00:04,0.0,0,--.--,--.--,7.8,0,0000:55:53,0,0,0,47.85,2.99,0,33,88,--.--,--:--:--,1,143.08,17:29:44,29/01/2025,11.41,--.--,--.--,--.--,--.--,--.--,--.--,--.--,--.--,--.--,--.--,100.00,0,0.000,0.000,0.000,0.000,0.000,0.000,0.000,0.000,0.000,0.000,0.000,0.000,false,false,false,false,false,false,false,false,false,false,false,false,--.--,--.--,--.--,--.--,--.--,--.--,--.--,--.--,-16.6956185,-54.6694849,21KYB 48522 52664,0.5,0.1,71.6,3,27,--.--,--.--,,--.--,--.--,--.--,0,0,--.--,--.--,0,-0.6,-1.9,1.1,-0.0,0.0,0.0,--.--,--.--,--.--,--.--,--.--,--.--,--.--,--.--,--.--,--.--,--.--,--.--,44.40,41.75,--.--,0,0,0.8,1.3,1.0,0,0,0,180.0,0.0,0.0
2025-01-29 17:29:45.454,-0.0,0.1,340,0.0,0.0,0.0,0.0,0.0,0.027,0.0,-0.0,528.5,-0.610,-0.610,0.000,0.0,00:00:05,0.0,0,--.--,--.--,8.6,0,0000:55:53,0,0,0,47.83,2.99,1,33,88,--.--,--:--:--,1,143.00,17:29:45,29/01/2025,11.38,--.--,--.--,--.--,--.--,--.--,--.--,--.--,--.--,--.--,--.--,100.00,0,0.000,0.000,0.000,0.000,0.000,0.000,0.000,0.000,0.000,0.000,0.000,0.000,false,false,false,false,false,false,false,false,false,false,false,false,--.--,--.--,--.--,--.--,--.--,--.--,--.--,--.--,-16.6956185,-54.6694849,21KYB 48522 52664,0.5,0.1,108.4,3,27,--.--,--.--,,--.--,--.--,--.--,0,0,--.--,--.--,0,-0.6,-1.8,1.1,-0.0,0.0,-0.0,--.--,--.--,--.--,--.--,--.--,--.--,--.--,--.--,--.--,--.--,--.--,--.--,44.51,41.75,--.--,0,0,1.2,1.0,0.9,0,0,0,180.0,0.0,0.0
2025-01-29 17:29:46.453,-0.0,0.0,340,0.0,0.0,0.0,0.0,0.0,0.014,0.0,0.0,528.5,-0.600,-0.610,0.000,0.0,00:00:06,0.0,0,--.--,--.--,8.7,0,0000:55:53,0,0,0,47.81,3.99,2,33,88,--.--,--:--:--,1,190.75,17:29:46,29/01/2025,11.51,--.--,--.--,--.--,--.--,--.--,--.--,--.--,--.--,--.--,--.--,100.00,0,0.000,0.000,0.000,0.000,0.000,0.000,0.000,0.000,0.000,0.000,0.000,0.000,false,false,false,false,false,false,false,false,false,false,false,false,--.--,--.--,--.--,--.--,--.--,--.--,--.--,--.--,-16.6956186,-54.6694848,21KYB 48522 52664,0.5,0.1,26.6,3,28,--.--,--.--,,--.--,--.--,--.--,0,0,--.--,--.--,0,-0.6,-1.8,1.0,-0.0,0.0,-0.0,--.--,--.--,--.--,--.--,--.--,--.--,--.--,--.--,--.--,--.--,--.--,--.--,44.44,41.74,--.--,0,0,1.0,1.1,0.8,0,0,0,180.0,0.0,0.0
2025-01-29 17:29:47.452,0.1,0.1,340,0.0,0.0,0.0,0.1,0.1,0.035,0.0,0.0,528.5,-0.590,-0.600,0.000,0.0,00:00:07,0.1,0,--.--,--.--,8.4,11,0000:55:53,0,0,0,47.81,2.99,3,33,88,--.--,--:--:--,1,142.94,17:29:47,29/01/2025,11.51,--.--,--.--,--.--,--.--,--.--,--.--,--.--,--.--,--.--,--.--,100.00,0,0.000,0.000,0.000,0.000,0.000,0.000,0.000,0.000,0.000,0.000,0.000,0.000,false,false,false,false,false,false,false,false,false,false,false,false,--.--,--.--,--.--,--.--,--.--,--.--,--.--,--.--,-16.6956187,-54.6694847,21KYB 48522 52664,0.5,0.1,135.0,3,28,--.--,--.--,,--.--,--.--,--.--,0,0,--.--,--.--,0,-0.6,-1.8,1.0,0.0,0.0,-0.0,--.--,--.--,--.--,--.--,--.--,--.--,--.--,--.--,--.--,--.--,--.--,--.--,44.49,41.78,--.--,0,0,1.3,1.5,1.7,0,0,0,180.0,0.0,0.0
2025-01-29 17:29:48.445,0.5,-0.2,340,0.0,0.0,0.0,0.0,0.1,0.128,0.1,0.1,528.6,-0.500,-0.513,0.007,0.0,00:00:08,0.0,0,--.--,--.--,7.8,11,0000:55:53,0,0,0,47.48,35.98,4,33,88,--.--,--:--:--,1,1708.37,17:29:48,29/01/2025,15.60,--.--,--.--,--.--,--.--,--.--,--.--,--.--,--.--,--.--,--.--,100.00,0,0.000,0.000,0.000,0.000,0.000,0.000,0.000,0.000,0.000,0.000,0.000,0.000,false,false,false,false,false,false,false,false,false,false,false,false,--.--,--.--,--.--,--.--,--.--,--.--,--.--,--.--,-16.6956189,-54.6694847,21KYB 48522 52663,0.5,0.1,226.3,3,28,--.--,--.--,,--.--,--.--,--.--,0,0,--.--,--.--,0,-0.6,-1.8,1.0,-0.0,-0.0,-0.1,--.--,--.--,--.--,--.--,--.--,--.--,--.--,--.--,--.--,--.--,--.--,--.--,44.41,41.79,--.--,0,0,1.4,3.0,4.0,0,0,0,180.0,0.0,0.0
2025-01-29 17:29:49.453,-0.1,-0.1,340,0.0,0.0,0.0,0.0,0.2,0.118,0.2,0.2,528.7,-0.390,-0.433,0.033,0.0,00:00:09,0.0,0,--.--,--.--,6.8,11,0000:55:53,0,0,0,47.32,36.98,16,33,88,--.--,--:--:--,1,1749.82,17:29:49,29/01/2025,15.21,--.--,--.--,--.--,--.--,--.--,--.--,--.--,--.--,--.--,--.--,100.00,0,0.000,0.000,0.000,0.000,0.000,0.000,0.000,0.000,0.000,0.000,0.000,0.000,false,false,false,false,false,false,false,false,false,false,false,false,--.--,--.--,--.--,--.--,--.--,--.--,--.--,--.--,-16.6956191,-54.6694848,21KYB 48522 52663,0.5,0.1,222.3,3,27,--.--,--.--,,--.--,--.--,--.--,0,0,--.--,--.--,0,-0.6,-1.8,0.8,0.0,0.1,-0.1,--.--,--.--,--.--,--.--,--.--,--.--,--.--,--.--,--.--,--.--,--.--,--.--,44.40,41.75,--.--,0,0,1.1,2.5,4.8,0,0,0,180.0,0.0,0.0
2025-01-29 17:29:50.450,0.1,0.0,340,0.0,0.0,0.0,0.1,0.3,0.211,0.3,0.4,528.9,-0.190,-0.300,0.055,0.0,00:00:10,0.0,0,--.--,--.--,6.7,12,0000:55:53,0,0,0,47.27,36.98,26,33,88,--.--,--:--:--,1,1748.08,17:29:50,29/01/2025,18.28,--.--,--.--,--.--,--.--,--.--,--.--,--.--,--.--,--.--,--.--,100.00,0,0.000,0.000,0.000,0.000,0.000,0.000,0.000,0.000,0.000,0.000,0.000,0.000,false,false,false,false,false,false,false,false,false,false,false,false,--.--,--.--,--.--,--.--,--.--,--.--,--.--,--.--,-16.6956192,-54.6694850,21KYB 48522 52663,0.5,0.1,261.5,3,28,--.--,--.--,,--.--,--.--,--.--,0,0,--.--,--.--,0,-0.6,-1.9,0.7,0.1,0.0,-0.2,--.--,--.--,--.--,--.--,--.--,--.--,--.--,--.--,--.--,--.--,--.--,--.--,44.40,41.77,--.--,0,0,1.3,3.2,4.1,0,0,0,180.0,0.0,0.0
2025-01-29 17:29:51.447,-0.3,0.7,340,0.0,0.0,0.0,0.1,0.2,0.331,0.2,0.7,529.2,0.100,-0.019,0.050,0.0,00:00:11,0.0,0,--.--,--.--,6.9,12,0000:55:53,0,0,0,47.23,38.98,37,33,87,--.--,--:--:--,1,1841.14,17:29:51,29/01/2025,42.47,--.--,--.--,--.--,--.--,--.--,--.--,--.--,--.--,--.--,--.--,100.00,0,0.000,0.000,0.000,0.000,0.000,0.000,0.000,0.000,0.000,0.000,0.000,0.000,false,false,false,false,false,false,false,false,false,false,false,false,--.--,--.--,--.--,--.--,--.--,--.--,--.--,--.--,-16.6956193,-54.6694851,21KYB 48522 52663,0.5,0.1,17.6,3,27,--.--,--.--,,--.--,--.--,--.--,0,0,--.--,--.--,0,-0.6,-1.9,0.4,0.1,0.1,-0.2,--.--,--.--,--.--,--.--,--.--,--.--,--.--,--.--,--.--,--.--,--.--,--.--,44.40,41.79,--.--,0,0,1.0,3.0,4.9,0,0,0,180.0,0.0,0.0
2025-01-29 17:29:52.443,-1.0,0.3,340,0.0,0.0,0.0,0.1,0.1,0.100,0.0,0.8,529.3,0.180,0.195,0.023,0.0,00:00:12,0.1,0,--.--,--.--,7.0,12,0000:55:53,0,0,0,47.22,36.98,49,33,87,--.--,--:--:--,1,1746.05,17:29:52,29/01/2025,47.06,--.--,--.--,--.--,--.--,--.--,--.--,--.--,--.--,--.--,--.--,100.00,0,0.000,0.000,0.000,0.000,0.000,0.000,0.000,0.000,0.000,0.000,0.000,0.000,false,false,false,false,false,false,false,false,false,false,false,false,--.--,--.--,--.--,--.--,--.--,--.--,--.--,--.--,-16.6956190,-54.6694844,21KYB 48522 52663,0.5,0.1,50.6,3,28,--.--,--.--,,--.--,--.--,--.--,0,0,--.--,--.--,0,-0.6,-1.8,0.3,0.0,0.1,0.0,--.--,--.--,--.--,--.--,--.--,--.--,--.--,--.--,--.--,--.--,--.--,--.--,44.40,41.82,--.--,0,0,2.1,3.5,3.7,0,0,0,180.0,0.0,0.0
2025-01-29 17:29:53.448,-1.4,0.0,340,0.0,0.0,0.0,0.0,0.5,0.410,0.5,1.0,529.5,0.500,0.269,0.024,0.0,00:00:13,0.1,0,--.--,--.--,7.1,12,0000:55:53,0,0,0,47.13,41.99,60,33,87,--.--,--:--:--,1,1979.03,17:29:53,29/01/2025,47.68,--.--,--.--,--.--,--.--,--.--,--.--,--.--,--.--,--.--,--.--,100.00,0,0.000,0.000,0.000,0.000,0.000,0.000,0.000,0.000,0.000,0.000,0.000,0.000,false,false,false,false,false,false,false,false,false,false,false,false,--.--,--.--,--.--,--.--,--.--,--.--,--.--,--.--,-16.6956194,-54.6694836,21KYB 48522 52663,0.5,0.1,154.4,3,28,--.--,--.--,,--.--,--.--,--.--,0,0,--.--,--.--,0,-0.6,-1.8,0.0,0.0,0.0,-0.4,--.--,--.--,--.--,--.--,--.--,--.--,--.--,--.--,--.--,--.--,--.--,--.--,44.40,41.75,--.--,0,0,1.3,4.6,6.2,0,0,0,180.0,0.0,0.0
2025-01-29 17:29:54.445,-1.2,0.4,340,0.0,0.0,0.0,0.0,0.4,0.485,0.4,1.6,530.1,1.020,0.835,0.015,0.0,00:00:14,0.0,0,--.--,--.--,7.2,12,0000:55:53,0,0,0,47.10,40.99,72,33,87,--.--,--:--:--,1,1930.47,17:29:54,29/01/2025,48.00,--.--,--.--,--.--,--.--,--.--,--.--,--.--,--.--,--.--,--.--,100.00,0,0.000,0.000,0.000,0.000,0.000,0.000,0.000,0.000,0.000,0.000,0.000,0.000,false,false,false,false,false,false,false,false,false,false,false,false,--.--,--.--,--.--,--.--,--.--,--.--,--.--,--.--,-16.6956199,-54.6694837,21KYB 48522 52663,0.5,0.1,274.2,3,28,--.--,--.--,,--.--,--.--,--.--,0,0,--.--,--.--,0,-0.6,-1.8,-0.5,0.0,0.0,-0.5,--.--,--.--,--.--,--.--,--.--,--.--,--.--,--.--,--.--,--.--,--.--,--.--,44.41,41.79,--.--,0,0,1.5,3.8,5.3,0,0,0,180.0,0.0,0.0
2025-01-29 17:29:55.450,-0.7,0.1,340,0.0,0.0,0.0,0.0,0.4,0.405,0.4,2.0,530.5,1.490,1.383,0.061,0.0,00:00:15,0.0,0,--.--,--.--,7.1,12,0000:55:53,0,0,0,47.08,39.98,78,33,87,--.--,--:--:--,1,1882.34,17:29:55,29/01/2025,46.10,--.--,--.--,--.--,--.--,--.--,--.--,--.--,--.--,--.--,--.--,100.00,0,0.000,0.000,0.000,0.000,0.000,0.000,0.000,0.000,0.000,0.000,0.000,0.000,false,false,false,false,false,false,false,false,false,false,false,false,--.--,--.--,--.--,--.--,--.--,--.--,--.--,--.--,-16.6956207,-54.6694849,21KYB 48522 52663,0.5,0.1,271.8,3,28,--.--,--.--,,--.--,--.--,--.--,0,0,--.--,--.--,0,-0.6,-1.9,-1.0,0.0,0.0,-0.4,--.--,--.--,--.--,--.--,--.--,--.--,--.--,--.--,--.--,--.--,--.--,--.--,44.34,41.75,--.--,0,0,2.4,3.5,4.4,0,0,0,180.0,0.0,0.0
2025-01-29 17:29:56.445,-0.7,-0.2,340,0.0,0.0,0.0,0.1,0.4,0.381,0.4,2.5,531.0,1.920,1.828,0.104,0.0,00:00:16,0.1,0,--.--,--.--,6.9,12,0000:55:53,0,0,0,47.04,40.99,90,33,87,--.--,--:--:--,1,1928.29,17:29:56,29/01/2025,52.45,--.--,--.--,--.--,--.--,--.--,--.--,--.--,--.--,--.--,--.--,100.00,0,0.000,0.000,0.000,0.000,0.000,0.000,0.000,0.000,0.000,0.000,0.000,0.000,false,false,false,false,false,false,false,false,false,false,false,false,--.--,--.--,--.--,--.--,--.--,--.--,--.--,--.--,-16.6956216,-54.6694855,21KYB 48522 52663,0.5,0.1,293.6,3,28,--.--,--.--,,--.--,--.--,--.--,0,0,--.--,--.--,0,-0.7,-1.9,-1.4,0.0,0.1,-0.4,--.--,--.--,--.--,--.--,--.--,--.--,--.--,--.--,--.--,--.--,--.--,--.--,44.44,41.75,--.--,0,0,1.4,3.5,5.5,0,0,0,180.0,0.0,0.0
2025-01-29 17:29:57.444,-1.7,-0.5,340,0.0,0.0,0.0,0.1,0.4,0.443,0.3,2.9,531.4,2.390,2.274,0.095,0.0,00:00:17,0.1,0,--.--,--.--,6.8,11,0000:55:53,0,0,0,47.02,41.99,101,33,87,--.--,--:--:--,1,1974.33,17:29:57,29/01/2025,52.48,--.--,--.--,--.--,--.--,--.--,--.--,--.--,--.--,--.--,--.--,100.00,0,0.000,0.000,0.000,0.000,0.000,0.000,0.000,0.000,0.000,0.000,0.000,0.000,false,false,false,false,false,false,false,false,false,false,false,false,--.--,--.--,--.--,--.--,--.--,--.--,--.--,--.--,-16.6956213,-54.6694852,21KYB 48522 52663,0.5,0.1,75.1,3,28,--.--,--.--,,--.--,--.--,--.--,0,0,--.--,--.--,0,-0.7,-1.9,-1.9,0.1,0.1,-0.4,--.--,--.--,--.--,--.--,--.--,--.--,--.--,--.--,--.--,--.--,--.--,--.--,44.41,41.77,--.--,0,0,2.4,4.0,5.1,0,0,0,180.0,0.0,0.0
2025-01-29 17:29:58.441,-1.6,-1.0,338,0.0,0.0,0.0,0.1,0.1,0.090,-0.1,3.0,531.5,2.430,2.526,0.087,0.0,00:00:18,0.1,0,--.--,--.--,7.0,13,0000:55:53,0,0,0,47.05,36.98,113,33,87,--.--,--:--:--,1,1739.76,17:29:58,29/01/2025,52.46,--.--,--.--,--.--,--.--,--.--,--.--,--.--,--.--,--.--,--.--,100.00,0,0.000,0.000,0.000,0.000,0.000,0.000,0.000,0.000,0.000,0.000,0.000,0.000,false,false,false,false,false,false,false,false,false,false,false,false,--.--,--.--,--.--,--.--,--.--,--.--,--.--,--.--,-16.6956210,-54.6694851,21KYB 48522 52663,0.5,0.1,27.9,3,28,--.--,--.--,,--.--,--.--,--.--,0,0,--.--,--.--,0,-0.7,-1.8,-2.0,0.1,0.1,0.1,--.--,--.--,--.--,--.--,--.--,--.--,--.--,--.--,--.--,--.--,--.--,--.--,44.43,41.83,--.--,0,0,1.8,3.6,6.9,0,0,0,180.0,0.0,0.0
2025-01-29 17:29:59.452,-1.2,-0.5,348,0.0,0.0,0.0,0.1,0.1,0.076,-0.0,3.0,531.5,2.410,2.442,0.090,0.0,00:00:19,0.1,0,--.--,--.--,7.2,12,0000:55:53,0,0,0,46.98,40.99,124,33,87,--.--,--:--:--,1,1925.59,17:29:59,29/01/2025,52.24,--.--,--.--,--.--,--.--,--.--,--.--,--.--,--.--,--.--,--.--,100.00,0,0.000,0.000,0.000,0.000,0.000,0.000,0.000,0.000,0.000,0.000,0.000,0.000,false,false,false,false,false,false,false,false,false,false,false,false,--.--,--.--,--.--,--.--,--.--,--.--,--.--,--.--,-16.6956203,-54.6694852,21KYB 48522 52663,0.5,0.1,302.5,3,28,--.--,--.--,,--.--,--.--,--.--,0,0,--.--,--.--,0,-0.7,-1.9,-2.0,0.0,0.0,0.0,--.--,--.--,--.--,--.--,--.--,--.--,--.--,--.--,--.--,--.--,--.--,--.--,44.45,41.81,--.--,0,0,1.7,2.6,5.4,0,0,0,180.0,0.0,0.0
2025-01-29 17:30:00.454,-0.1,0.1,12,0.0,0.0,0.0,0.1,0.1,0.066,-0.0,3.0,531.5,2.380,2.416,0.117,0.0,00:00:20,0.1,0,--.--,--.--,7.5,12,0000:55:53,0,0,0,46.94,41.99,136,33,87,--.--,--:--:--,1,1970.97,17:30:00,29/01/2025,55.67,--.--,--.--,--.--,--.--,--.--,--.--,--.--,--.--,--.--,--.--,100.00,0,0.000,0.000,0.000,0.000,0.000,0.000,0.000,0.000,0.000,0.000,0.000,0.000,false,false,false,false,false,false,false,false,false,false,false,false,--.--,--.--,--.--,--.--,--.--,--.--,--.--,--.--,-16.6956199,-54.6694856,21KYB 48522 52663,0.5,0.1,260.1,3,28,--.--,--.--,,--.--,--.--,--.--,0,0,--.--,--.--,0,-0.6,-1.9,-1.9,0.1,0.0,0.0,--.--,--.--,--.--,--.--,--.--,--.--,--.--,--.--,--.--,--.--,--.--,--.--,44.49,41.78,--.--,0,0,1.9,2.9,5.6,0,0,0,180.0,0.0,0.0
2025-01-29 17:30:01.437,-0.6,0.5,34,0.0,0.0,0.0,0.1,0.1,0.124,0.0,3.0,531.5,2.370,2.364,0.098,0.0,00:00:21,0.1,0,--.--,--.--,7.8,12,0000:55:53,0,0,0,46.93,41.99,148,33,87,--.--,--:--:--,1,1970.51,17:30:01,29/01/2025,30.78,--.--,--.--,--.--,--.--,--.--,--.--,--.--,--.--,--.--,--.--,100.00,0,0.000,0.000,0.000,0.000,0.000,0.000,0.000,0.000,0.000,0.000,0.000,0.000,false,false,false,false,false,false,false,false,false,false,false,false,--.--,--.--,--.--,--.--,--.--,--.--,--.--,--.--,-16.6956201,-54.6694858,21KYB 48522 52663,0.5,0.1,266.3,3,28,--.--,--.--,,--.--,--.--,--.--,0,0,--.--,--.--,0,-0.6,-1.9,-1.9,0.1,0.1,-0.0,--.--,--.--,--.--,--.--,--.--,--.--,--.--,--.--,--.--,--.--,--.--,--.--,44.45,41.77,--.--,0,0,1.1,2.9,4.8,0,0,0,180.0,0.0,0.0
2025-01-29 17:30:02.444,0.1,0.6,50,0.0,0.0,0.0,0.1,0.1,0.070,-0.0,3.0,531.5,2.380,2.364,0.076,0.0,00:00:22,0.1,0,--.--,--.--,8.0,12,0000:55:53,0,0,0,46.94,40.99,160,33,86,--.--,--:--:--,1,1923.95,17:30:02,29/01/2025,47.76,--.--,--.--,--.--,--.--,--.--,--.--,--.--,--.--,--.--,--.--,100.00,0,0.000,0.000,0.000,0.000,0.000,0.000,0.000,0.000,0.000,0.000,0.000,0.000,false,false,false,false,false,false,false,false,false,false,false,false,--.--,--.--,--.--,--.--,--.--,--.--,--.--,--.--,-16.6956209,-54.6694863,21KYB 48521 52663,0.5,0.1,298.4,3,28,--.--,--.--,,--.--,--.--,--.--,0,0,--.--,--.--,0,-0.6,-1.9,-1.9,0.0,0.1,0.0,--.--,--.--,--.--,--.--,--.--,--.--,--.--,--.--,--.--,--.--,--.--,--.--,44.44,41.75,--.--,0,0,1.7,2.3,6.5,0,0,0,180.0,0.0,0.0
2025-01-29 17:30:03.441,0.3,0.4,57,0.0,0.0,0.0,0.0,0.1,0.056,0.0,3.0,531.5,2.400,2.386,0.061,0.0,00:00:23,0.0,0,--.--,--.--,8.1,13,0000:55:53,0,0,0,46.94,39.98,171,33,86,--.--,--:--:--,1,1876.70,17:30:03,29/01/2025,40.82,--.--,--.--,--.--,--.--,--.--,--.--,--.--,--.--,--.--,--.--,100.00,0,0.000,0.000,0.000,0.000,0.000,0.000,0.000,0.000,0.000,0.000,0.000,0.000,false,false,false,false,false,false,false,false,false,false,false,false,--.--,--.--,--.--,--.--,--.--,--.--,--.--,--.--,-16.6956212,-54.6694868,21KYB 48521 52663,0.5,0.1,289.0,3,28,--.--,--.--,,--.--,--.--,--.--,0,0,--.--,--.--,0,-0.6,-1.9,-1.9,0.0,0.0,-0.0,--.--,--.--,--.--,--.--,--.--,--.--,--.--,--.--,--.--,--.--,--.--,--.--,44.38,41.78,--.--,0,0,2.4,3.1,6.7,0,0,0,180.0,0.0,0.0
2025-01-29 17:30:04.449,0.4,1.5,57,0.0,0.0,0.0,0.1,0.4,0.303,0.4,3.2,531.7,2.690,2.568,0.049,0.0,00:00:24,0.0,0,--.--,--.--,8.1,12,0000:55:53,0,0,0,46.91,39.98,183,33,86,--.--,--:--:--,1,1875.58,17:30:04,29/01/2025,40.70,--.--,--.--,--.--,--.--,--.--,--.--,--.--,--.--,--.--,--.--,100.00,0,0.000,0.000,0.000,0.000,0.000,0.000,0.000,0.000,0.000,0.000,0.000,0.000,false,false,false,false,false,false,false,false,false,false,false,false,--.--,--.--,--.--,--.--,--.--,--.--,--.--,--.--,-16.6956212,-54.6694866,21KYB 48521 52663,0.5,0.1,54.5,3,28,--.--,--.--,,--.--,--.--,--.--,0,0,--.--,--.--,0,-0.6,-1.9,-2.2,0.0,0.1,-0.3,--.--,--.--,--.--,--.--,--.--,--.--,--.--,--.--,--.--,--.--,--.--,--.--,44.43,41.77,--.--,0,0,2.8,4.0,6.9,0,0,0,180.0,0.0,0.0
2025-01-29 17:30:05.442,0.5,0.2,57,0.0,0.0,0.0,0.0,0.2,0.316,0.2,3.6,532.0,2.980,2.897,0.028,0.0,00:00:25,0.0,0,--.--,--.--,8.6,12,0000:55:53,0,0,0,46.89,40.99,194,33,86,--.--,--:--:--,1,1921.94,17:30:05,29/01/2025,40.54,--.--,--.--,--.--,--.--,--.--,--.--,--.--,--.--,--.--,--.--,100.00,0,0.000,0.000,0.000,0.000,0.000,0.000,0.000,0.000,0.000,0.000,0.000,0.000,false,false,false,false,false,false,false,false,false,false,false,false,--.--,--.--,--.--,--.--,--.--,--.--,--.--,--.--,-16.6956228,-54.6694853,21KYB 48522 52663,0.5,0.1,292.1,3,28,--.--,--.--,,--.--,--.--,--.--,0,0,--.--,--.--,0,-0.6,-1.9,-2.5,-0.0,-0.1,-0.3,--.--,--.--,--.--,--.--,--.--,--.--,--.--,--.--,--.--,--.--,--.--,--.--,44.44,41.79,--.--,0,0,2.1,2.4,8.1,0,0,0,180.0,0.0,0.0
2025-01-29 17:30:06.442,-0.4,0.1,58,0.0,0.0,0.0,0.0,0.4,0.372,0.4,3.8,532.3,3.290,3.127,0.046,0.0,00:00:26,0.0,0,--.--,--.--,9.2,13,0000:55:53,0,0,0,46.87,42.99,206,33,86,--.--,--:--:--,1,2014.86,17:30:06,29/01/2025,40.45,--.--,--.--,--.--,--.--,--.--,--.--,--.--,--.--,--.--,--.--,100.00,0,0.000,0.000,0.000,0.000,0.000,0.000,0.000,0.000,0.000,0.000,0.000,0.000,false,false,false,false,false,false,false,false,false,false,false,false,--.--,--.--,--.--,--.--,--.--,--.--,--.--,--.--,-16.6956236,-54.6694855,21KYB 48522 52663,0.5,0.1,273.6,3,28,--.--,--.--,,--.--,--.--,--.--,0,0,--.--,--.--,0,-0.6,-1.9,-2.8,-0.0,0.0,-0.4,--.--,--.--,--.--,--.--,--.--,--.--,--.--,--.--,--.--,--.--,--.--,--.--,44.42,41.78,--.--,0,0,2.9,1.8,6.4,0,0,0,180.0,0.0,0.0
2025-01-29 17:30:07.434,-0.7,-0.0,58,0.0,0.0,0.0,0.1,0.1,0.328,0.0,4.2,532.7,3.580,3.489,0.084,0.0,00:00:27,0.0,0,--.--,--.--,9.4,12,0000:55:53,0,0,0,46.88,40.99,219,33,86,--.--,--:--:--,1,1921.41,17:30:07,29/01/2025,40.14,--.--,--.--,--.--,--.--,--.--,--.--,--.--,--.--,--.--,--.--,100.00,0,0.000,0.000,0.000,0.000,0.000,0.000,0.000,0.000,0.000,0.000,0.000,0.000,false,false,false,false,false,false,false,false,false,false,false,false,--.--,--.--,--.--,--.--,--.--,--.--,--.--,--.--,-16.6956240,-54.6694859,21KYB 48522 52663,0.5,0.1,35.5,3,27,--.--,--.--,,--.--,--.--,--.--,0,0,--.--,--.--,0,-0.7,-1.8,-3.1,0.0,0.0,-0.1,--.--,--.--,--.--,--.--,--.--,--.--,--.--,--.--,--.--,--.--,--.--,--.--,44.43,41.79,--.--,0,0,2.1,4.1,7.8,0,0,0,180.0,0.0,0.0
2025-01-29 17:30:08.443,-0.0,-0.3,56,0.0,0.0,0.0,0.1,0.1,0.062,0.0,4.2,532.6,3.550,3.512,0.048,0.0,00:00:28,0.0,0,--.--,--.--,9.5,12,0000:55:53,0,0,0,46.83,41.99,230,33,86,--.--,--:--:--,1,1966.43,17:30:08,29/01/2025,40.54,--.--,--.--,--.--,--.--,--.--,--.--,--.--,--.--,--.--,--.--,100.00,0,0.000,0.000,0.000,0.000,0.000,0.000,0.000,0.000,0.000,0.000,0.000,0.000,false,false,false,false,false,false,false,false,false,false,false,false,--.--,--.--,--.--,--.--,--.--,--.--,--.--,--.--,-16.6956233,-54.6694862,21KYB 48521 52663,0.5,0.1,356.4,3,28,--.--,--.--,,--.--,--.--,--.--,0,0,--.--,--.--,0,-0.6,-1.8,-3.1,0.1,-0.0,-0.0,--.--,--.--,--.--,--.--,--.--,--.--,--.--,--.--,--.--,--.--,--.--,--.--,44.43,41.73,--.--,0,0,2.9,3.8,8.5,0,0,0,180.0,0.0,0.0
2025-01-29 17:30:09.441,-0.5,0.9,60,0.0,0.0,0.0,0.1,0.1,0.085,0.0,4.2,532.7,3.580,3.536,0.027,0.0,00:00:29,0.0,0,--.--,--.--,9.3,13,0000:55:53,0,0,0,46.84,41.99,237,33,86,--.--,--:--:--,1,1966.64,17:30:09,29/01/2025,39.41,--.--,--.--,--.--,--.--,--.--,--.--,--.--,--.--,--.--,--.--,100.00,0,0.000,0.000,0.000,0.000,0.000,0.000,0.000,0.000,0.000,0.000,0.000,0.000,false,false,false,false,false,false,false,false,false,false,false,false,--.--,--.--,--.--,--.--,--.--,--.--,--.--,--.--,-16.6956226,-54.6694866,21KYB 48521 52663,0.5,0.1,19.7,3,28,--.--,--.--,,--.--,--.--,--.--,0,0,--.--,--.--,0,-0.6,-1.8,-3.1,0.0,0.1,-0.0,--.--,--.--,--.--,--.--,--.--,--.--,--.--,--.--,--.--,--.--,--.--,--.--,44.43,41.75,--.--,0,0,3.7,2.6,9.6,0,0,0,180.0,0.0,0.0
2025-01-29 17:30:10.443,-0.6,-0.0,60,0.0,0.0,0.0,0.1,0.2,0.189,0.2,4.3,532.8,3.710,3.585,0.041,0.0,00:00:30,0.0,0,--.--,--.--,9.1,12,0000:55:53,0,0,0,46.82,41.99,248,33,86,--.--,--:--:--,1,1966.06,17:30:10,29/01/2025,39.08,--.--,--.--,--.--,--.--,--.--,--.--,--.--,--.--,--.--,--.--,100.00,0,0.000,0.000,0.000,0.000,0.000,0.000,0.000,0.000,0.000,0.000,0.000,0.000,false,false,false,false,false,false,false,false,false,false,false,false,--.--,--.--,--.--,--.--,--.--,--.--,--.--,--.--,-16.6956224,-54.6694862,21KYB 48521 52663,0.5,0.1,292.5,3,28,--.--,--.--,,--.--,--.--,--.--,0,0,--.--,--.--,0,-0.6,-1.8,-3.2,0.0,-0.1,-0.2,--.--,--.--,--.--,--.--,--.--,--.--,--.--,--.--,--.--,--.--,--.--,--.--,44.44,41.77,--.--,0,0,3.2,2.5,10.7,0,0,0,180.0,0.0,0.0
2025-01-29 17:30:11.442,-0.2,-0.2,60,0.0,0.0,0.0,0.1,0.1,0.101,0.1,4.4,532.9,3.810,3.770,0.069,0.0,00:00:31,0.0,0,--.--,--.--,9.0,12,0000:55:53,0,0,0,46.82,41.99,261,33,86,--.--,--:--:--,1,1966.10,17:30:11,29/01/2025,39.24,--.--,--.--,--.--,--.--,--.--,--.--,--.--,--.--,--.--,--.--,100.00,0,0.000,0.000,0.000,0.000,0.000,0.000,0.000,0.000,0.000,0.000,0.000,0.000,false,false,false,false,false,false,false,false,false,false,false,false,--.--,--.--,--.--,--.--,--.--,--.--,--.--,--.--,-16.6956222,-54.6694868,21KYB 48521 52663,0.5,0.1,322.1,3,28,--.--,--.--,,--.--,--.--,--.--,0,0,--.--,--.--,0,-0.6,-1.9,-3.4,0.1,0.0,-0.1,--.--,--.--,--.--,--.--,--.--,--.--,--.--,--.--,--.--,--.--,--.--,--.--,44.43,41.77,--.--,0,0,3.0,3.2,7.7,0,0,0,180.0,0.0,0.0
2025-01-29 17:30:12.442,0.1,0.5,60,0.0,0.0,0.0,0.1,0.1,0.058,-0.0,4.4,532.9,3.830,3.816,0.026,0.0,00:00:32,0.0,0,--.--,--.--,8.0,13,0000:55:53,0,0,0,46.80,41.99,273,33,85,--.--,--:--:--,1,1964.96,17:30:12,29/01/2025,39.18,--.--,--.--,--.--,--.--,--.--,--.--,--.--,--.--,--.--,--.--,100.00,0,0.000,0.000,0.000,0.000,0.000,0.000,0.000,0.000,0.000,0.000,0.000,0.000,false,false,false,false,false,false,false,false,false,false,false,false,--.--,--.--,--.--,--.--,--.--,--.--,--.--,--.--,-16.6956217,-54.6694866,21KYB 48521 52663,0.5,0.1,25.1,3,28,--.--,--.--,,--.--,--.--,--.--,0,0,--.--,--.--,0,-0.6,-1.8,-3.4,0.1,-0.0,-0.0,--.--,--.--,--.--,--.--,--.--,--.--,--.--,--.--,--.--,--.--,--.--,--.--,44.43,41.75,--.--,0,0,2.4,3.3,10.6,0,0,0,180.0,0.0,0.0
2025-01-29 17:30:13.437,-0.2,0.2,60,0.0,0.0,0.0,0.2,0.2,0.172,-0.0,4.4,532.9,3.840,3.823,0.033,0.0,00:00:33,0.2,0,--.--,--.--,7.1,13,0000:55:53,0,0,0,46.77,41.99,285,33,85,--.--,--:--:--,1,1963.75,17:30:13,29/01/2025,39.18,--.--,--.--,--.--,--.--,--.--,--.--,--.--,--.--,--.--,--.--,100.00,0,0.000,0.000,0.000,0.000,0.000,0.000,0.000,0.000,0.000,0.000,0.000,0.000,false,false,false,false,false,false,false,false,false,false,false,false,--.--,--.--,--.--,--.--,--.--,--.--,--.--,--.--,-16.6956215,-54.6694868,21KYB 48521 52663,0.5,0.1,331.7,3,28,--.--,--.--,,--.--,--.--,--.--,0,0,--.--,--.--,0,-0.5,-1.9,-3.4,0.2,-0.1,0.0,--.--,--.--,--.--,--.--,--.--,--.--,--.--,--.--,--.--,--.--,--.--,--.--,44.44,41.77,--.--,0,0,2.6,3.4,8.8,0,0,0,180.0,0.0,0.0
2025-01-29 17:30:14.449,-0.5,0.1,60,0.0,0.0,0.0,0.2,0.2,0.212,0.0,4.5,533.0,3.850,3.855,0.032,0.0,00:00:34,0.3,0,--.--,--.--,6.7,13,0000:55:53,0,0,0,46.76,41.99,297,33,85,--.--,--:--:--,1,1963.62,17:30:14,29/01/2025,39.30,--.--,--.--,--.--,--.--,--.--,--.--,--.--,--.--,--.--,--.--,100.00,0,0.000,0.000,0.000,0.000,0.000,0.000,0.000,0.000,0.000,0.000,0.000,0.000,false,false,false,false,false,false,false,false,false,false,false,false,--.--,--.--,--.--,--.--,--.--,--.--,--.--,--.--,-16.6956202,-54.6694875,21KYB 48521 52663,0.5,0.1,334.9,3,28,--.--,--.--,,--.--,--.--,--.--,0,0,--.--,--.--,0,-0.3,-2.0,-3.4,0.2,-0.1,-0.0,--.--,--.--,--.--,--.--,--.--,--.--,--.--,--.--,--.--,--.--,--.--,--.--,44.42,41.74,--.--,0,0,1.9,3.8,8.9,0,0,0,180.0,0.0,0.0
2025-01-29 17:30:15.448,0.1,-0.0,60,0.0,0.0,0.0,0.3,0.3,0.243,-0.0,4.4,532.9,3.840,3.857,0.037,0.0,00:00:35,0.6,0,--.--,--.--,6.5,13,0000:55:53,0,0,0,46.75,42.99,309,33,85,--.--,--:--:--,1,2009.74,17:30:15,29/01/2025,39.41,--.--,--.--,--.--,--.--,--.--,--.--,--.--,--.--,--.--,--.--,100.00,0,0.000,0.000,0.000,0.000,0.000,0.000,0.000,0.000,0.000,0.000,0.000,0.000,false,false,false,false,false,false,false,false,false,false,false,false,--.--,--.--,--.--,--.--,--.--,--.--,--.--,--.--,-16.6956186,-54.6694884,21KYB 48521 52664,0.5,0.1,334.3,3,28,--.--,--.--,,--.--,--.--,--.--,0,0,--.--,--.--,0,-0.1,-2.1,-3.4,0.2,-0.1,0.0,--.--,--.--,--.--,--.--,--.--,--.--,--.--,--.--,--.--,--.--,--.--,--.--,44.51,41.75,--.--,0,0,2.0,4.0,10.3,0,0,0,180.0,0.0,0.0
2025-01-29 17:30:16.443,-0.4,0.0,60,0.0,0.0,0.0,0.2,0.2,0.242,-0.0,4.4,532.9,3.840,3.837,0.026,0.0,00:00:36,0.8,0,--.--,--.--,6.3,13,0000:55:53,0,0,0,46.73,42.99,323,33,85,--.--,--:--:--,1,2009.14,17:30:16,29/01/2025,39.58,--.--,--.--,--.--,--.--,--.--,--.--,--.--,--.--,--.--,--.--,100.00,0,0.000,0.000,0.000,0.000,0.000,0.000,0.000,0.000,0.000,0.000,0.000,0.000,false,false,false,false,false,false,false,false,false,false,false,false,--.--,--.--,--.--,--.--,--.--,--.--,--.--,--.--,-16.6956170,-54.6694896,21KYB 48521 52664,0.5,0.1,336.7,3,28,--.--,--.--,,--.--,--.--,--.--,0,0,--.--,--.--,0,0.1,-2.2,-3.4,0.2,-0.1,-0.0,--.--,--.--,--.--,--.--,--.--,--.--,--.--,--.--,--.--,--.--,--.--,--.--,44.49,41.78,--.--,0,0,2.5,2.9,8.4,0,0,0,180.0,0.0,0.0
2025-01-29 17:30:17.444,-0.0,0.1,60,0.0,0.0,0.0,0.3,0.3,0.260,0.0,4.5,533.0,3.840,3.859,0.012,0.0,00:00:37,1.0,0,--.--,153,6.5,13,0000:55:53,0,0,0,46.73,42.99,335,33,85,--.--,--:--:--,1,2008.88,17:30:17,29/01/2025,39.73,--.--,--.--,--.--,--.--,--.--,--.--,--.--,--.--,--.--,--.--,100.00,0,0.000,0.000,0.000,0.000,0.000,0.000,0.000,0.000,0.000,0.000,0.000,0.000,false,false,false,false,false,false,false,false,false,false,false,false,--.--,--.--,--.--,--.--,--.--,--.--,--.--,--.--,-16.6956152,-54.6694911,21KYB 48521 52664,0.5,0.1,338.2,3,28,--.--,--.--,,--.--,--.--,--.--,0,0,--.--,--.--,0,0.3,-2.3,-3.4,0.3,-0.1,0.0,--.--,--.--,--.--,--.--,--.--,--.--,--.--,--.--,--.--,--.--,--.--,--.--,44.48,41.72,--.--,0,0,3.1,2.7,9.4,0,0,0,180.0,0.0,0.0
2025-01-29 17:30:18.449,-0.3,-0.6,59,0.0,0.0,0.0,0.2,0.3,0.256,0.0,4.4,532.9,3.810,3.799,0.027,0.0,00:00:38,1.3,0,--.--,151,6.7,13,0000:55:53,0,0,0,46.72,42.99,347,33,85,--.--,--:--:--,1,2008.62,17:30:18,29/01/2025,40.05,--.--,--.--,--.--,--.--,--.--,--.--,--.--,--.--,--.--,--.--,100.00,0,0.000,0.000,0.000,0.000,0.000,0.000,0.000,0.000,0.000,0.000,0.000,0.000,false,false,false,false,false,false,false,false,false,false,false,false,--.--,--.--,--.--,--.--,--.--,--.--,--.--,--.--,-16.6956130,-54.6694925,21KYB 48521 52664,0.5,0.1,331.9,3,28,--.--,--.--,,--.--,--.--,--.--,0,0,--.--,--.--,0,0.5,-2.5,-3.4,0.2,-0.1,-0.0,--.--,--.--,--.--,--.--,--.--,--.--,--.--,--.--,--.--,--.--,--.--,--.--,44.42,41.75,--.--,0,0,3.6,5.5,7.6,0,0,0,180.0,0.0,0.0
2025-01-29 17:30:19.451,-1.5,0.2,60,0.0,0.0,0.0,0.2,0.3,0.241,0.1,4.4,532.9,3.820,3.763,0.038,0.0,00:00:39,1.5,0,--.--,151,6.9,13,0000:55:53,0,0,0,46.70,42.99,354,33,85,--.--,--:--:--,1,2007.63,17:30:19,29/01/2025,40.38,--.--,--.--,--.--,--.--,--.--,--.--,--.--,--.--,--.--,--.--,100.00,0,0.000,0.000,0.000,0.000,0.000,0.000,0.000,0.000,0.000,0.000,0.000,0.000,false,false,false,false,false,false,false,false,false,false,false,false,--.--,--.--,--.--,--.--,--.--,--.--,--.--,--.--,-16.6956110,-54.6694939,21KYB 48521 52664,0.5,0.1,345.1,3,28,--.--,--.--,,--.--,--.--,--.--,0,0,--.--,--.--,0,0.7,-2.6,-3.4,0.2,-0.1,-0.0,--.--,--.--,--.--,--.--,--.--,--.--,--.--,--.--,--.--,--.--,--.--,--.--,44.47,41.75,--.--,0,0,2.0,3.1,8.0,0,0,0,180.0,0.0,0.0
2025-01-29 17:30:20.445,-0.7,-0.7,60,0.0,0.0,0.0,0.5,0.5,0.403,0.0,4.4,532.9,3.850,3.839,0.040,0.0,00:00:40,1.9,0,--.--,150,7.2,13,0000:55:53,0,0,0,46.70,42.99,366,33,85,--.--,--:--:--,1,2007.42,17:30:20,29/01/2025,40.20,--.--,--.--,--.--,--.--,--.--,--.--,--.--,--.--,--.--,--.--,100.00,0,0.000,0.000,0.000,0.000,0.000,0.000,0.000,0.000,0.000,0.000,0.000,0.000,false,false,false,false,false,false,false,false,false,false,false,false,--.--,--.--,--.--,--.--,--.--,--.--,--.--,--.--,-16.6956087,-54.6694952,21KYB 48521 52665,0.5,0.1,326.3,3,28,--.--,--.--,,--.--,--.--,--.--,0,0,--.--,--.--,0,1.0,-2.8,-3.4,0.4,-0.2,-0.0,--.--,--.--,--.--,--.--,--.--,--.--,--.--,--.--,--.--,--.--,--.--,--.--,44.41,41.73,--.--,0,0,2.5,4.2,8.5,0,0,0,180.0,0.0,0.0
2025-01-29 17:30:21.444,0.0,-0.1,59,0.0,0.0,0.0,0.4,0.4,0.455,-0.0,4.5,533.0,3.840,3.860,0.052,2.0,00:00:41,2.3,0,--.--,151,7.5,13,0000:55:53,0,0,0,46.69,42.99,379,33,85,--.--,--:--:--,1,2007.16,17:30:21,29/01/2025,40.68,--.--,--.--,--.--,--.--,--.--,--.--,--.--,--.--,--.--,--.--,100.00,0,0.000,0.000,0.000,0.000,0.000,0.000,0.000,0.000,0.000,0.000,0.000,0.000,false,false,false,false,false,false,false,false,false,false,false,false,--.--,--.--,--.--,--.--,--.--,--.--,--.--,--.--,-16.6956050,-54.6694975,21KYB 48520 52665,0.5,0.1,334.0,3,28,--.--,--.--,,--.--,--.--,--.--,0,0,--.--,--.--,0,1.4,-3.0,-3.4,0.4,-0.1,0.0,--.--,--.--,--.--,--.--,--.--,--.--,--.--,--.--,--.--,--.--,--.--,--.--,44.41,41.74,--.--,0,0,3.3,3.0,10.2,0,0,0,180.0,0.0,0.0
2025-01-29 17:30:22.451,0.4,0.1,60,0.0,0.0,0.0,0.3,0.3,0.327,0.0,4.4,532.9,3.840,3.819,0.023,2.0,00:00:42,2.7,0,--.--,151,7.7,13,0000:55:53,0,0,0,46.68,42.99,391,33,84,--.--,--:--:--,1,2006.95,17:30:22,29/01/2025,41.01,--.--,--.--,--.--,--.--,--.--,--.--,--.--,--.--,--.--,--.--,100.00,0,0.000,0.000,0.000,0.000,0.000,0.000,0.000,0.000,0.000,0.000,0.000,0.000,false,false,false,false,false,false,false,false,false,false,false,false,--.--,--.--,--.--,--.--,--.--,--.--,--.--,--.--,-16.6956014,-54.6694991,21KYB 48520 52665,0.5,0.1,339.5,3,28,--.--,--.--,,--.--,--.--,--.--,0,0,--.--,--.--,0,1.7,-3.2,-3.4,0.3,-0.1,-0.0,--.--,--.--,--.--,--.--,--.--,--.--,--.--,--.--,--.--,--.--,--.--,--.--,44.47,41.77,--.--,0,0,2.7,2.5,8.9,0,0,0,180.0,0.0,0.0
2025-01-29 17:30:23.443,1.0,-0.3,60,0.0,0.0,0.0,0.1,0.1,0.080,-0.0,4.5,533.0,3.860,3.874,0.021,2.0,00:00:43,2.9,0,--.--,151,7.7,12,0000:55:53,0,0,0,46.68,42.99,403,33,84,--.--,--:--:--,1,2006.60,17:30:23,29/01/2025,41.11,--.--,--.--,--.--,--.--,--.--,--.--,--.--,--.--,--.--,--.--,100.00,0,0.000,0.000,0.000,0.000,0.000,0.000,0.000,0.000,0.000,0.000,0.000,0.000,false,false,false,false,false,false,false,false,false,false,false,false,--.--,--.--,--.--,--.--,--.--,--.--,--.--,--.--,-16.6955987,-54.6695005,21KYB 48520 52666,0.5,0.1,321.7,3,28,--.--,--.--,,--.--,--.--,--.--,0,0,--.--,--.--,0,1.9,-3.3,-3.4,-0.0,0.0,-0.0,--.--,--.--,--.--,--.--,--.--,--.--,--.--,--.--,--.--,--.--,--.--,--.--,44.47,41.75,--.--,0,0,2.1,3.6,8.2,0,0,0,180.0,0.0,0.0
2025-01-29 17:30:24.444,-3.7,-0.7,59,0.0,0.0,0.0,0.3,0.3,0.064,-0.0,4.4,532.9,3.840,3.856,0.044,2.0,00:00:44,2.8,0,--.--,151,7.7,13,0000:55:53,0,0,0,46.67,41.99,415,33,84,--.--,--:--:--,1,1959.46,17:30:24,29/01/2025,41.19,--.--,--.--,--.--,--.--,--.--,--.--,--.--,--.--,--.--,--.--,100.00,0,0.000,0.000,0.000,0.000,0.000,0.000,0.000,0.000,0.000,0.000,0.000,0.000,false,false,false,false,false,false,false,false,false,false,false,false,--.--,--.--,--.--,--.--,--.--,--.--,--.--,--.--,-16.6955989,-54.6695012,21KYB 48520 52666,0.5,0.1,68.2,3,28,--.--,--.--,,--.--,--.--,--.--,0,0,--.--,--.--,0,1.9,-3.3,-3.4,0.2,-0.0,0.0,--.--,--.--,--.--,--.--,--.--,--.--,--.--,--.--,--.--,--.--,--.--,--.--,44.47,41.75,--.--,0,0,3.3,3.6,9.3,0,0,0,180.0,0.0,0.0
2025-01-29 17:30:25.441,-3.2,0.6,59,0.0,0.0,0.0,0.6,0.6,0.491,0.0,4.4,532.9,3.810,3.814,0.014,2.0,00:00:45,3.3,0,--.--,151,8.2,13,0000:55:53,0,0,0,46.67,41.99,428,33,84,--.--,--:--:--,1,1959.63,17:30:25,29/01/2025,41.52,--.--,--.--,--.--,--.--,--.--,--.--,--.--,--.--,--.--,--.--,100.00,0,0.000,0.000,0.000,0.000,0.000,0.000,0.000,0.000,0.000,0.000,0.000,0.000,false,false,false,false,false,false,false,false,false,false,false,false,--.--,--.--,--.--,--.--,--.--,--.--,--.--,--.--,-16.6955968,-54.6695032,21KYB 48520 52666,0.5,0.1,340.0,3,28,--.--,--.--,,--.--,--.--,--.--,0,0,--.--,--.--,0,2.3,-3.5,-3.4,0.5,-0.2,-0.0,--.--,--.--,--.--,--.--,--.--,--.--,--.--,--.--,--.--,--.--,--.--,--.--,44.47,41.73,--.--,0,0,1.2,3.6,8.7,0,0,0,180.0,0.0,0.0
2025-01-29 17:30:26.439,-0.1,-0.4,59,0.0,0.0,0.0,0.5,0.5,0.563,0.0,4.4,532.9,3.770,3.720,0.031,2.0,00:00:46,3.9,0,--.--,150,8.8,13,0000:55:53,0,0,0,46.64,43.99,440,33,84,--.--,--:--:--,1,2051.52,17:30:26,29/01/2025,41.63,--.--,--.--,--.--,--.--,--.--,--.--,--.--,--.--,--.--,--.--,100.00,0,0.000,0.000,0.000,0.000,0.000,0.000,0.000,0.000,0.000,0.000,0.000,0.000,false,false,false,false,false,false,false,false,false,false,false,false,--.--,--.--,--.--,--.--,--.--,--.--,--.--,--.--,-16.6955929,-54.6695063,21KYB 48519 52666,0.5,0.1,327.6,3,28,--.--,--.--,,--.--,--.--,--.--,0,0,--.--,--.--,0,2.7,-3.8,-3.3,0.4,-0.3,-0.1,--.--,--.--,--.--,--.--,--.--,--.--,--.--,--.--,--.--,--.--,--.--,--.--,44.48,41.72,--.--,0,0,2.9,3.0,8.9,0,0,0,180.0,0.0,0.0
2025-01-29 17:30:27.444,1.2,3.0,60,0.0,0.0,0.0,0.1,0.2,0.345,0.1,4.4,532.9,3.770,3.679,0.089,4.0,00:00:47,4.3,0,--.--,149,9.0,13,0000:55:53,0,0,0,46.62,43.99,453,33,84,--.--,--:--:--,1,2050.90,17:30:27,29/01/2025,42.02,--.--,--.--,--.--,--.--,--.--,--.--,--.--,--.--,--.--,--.--,100.00,0,0.000,0.000,0.000,0.000,0.000,0.000,0.000,0.000,0.000,0.000,0.000,0.000,false,false,false,false,false,false,false,false,false,false,false,false,--.--,--.--,--.--,--.--,--.--,--.--,--.--,--.--,-16.6955889,-54.6695087,21KYB 48519 52667,0.5,0.1,329.2,3,28,--.--,--.--,,--.--,--.--,--.--,0,0,--.--,--.--,0,3.1,-4.0,-3.3,0.2,-0.1,-0.0,--.--,--.--,--.--,--.--,--.--,--.--,--.--,--.--,--.--,--.--,--.--,--.--,44.50,41.69,--.--,0,0,2.7,3.5,6.7,0,0,0,180.0,0.0,0.0
2025-01-29 17:30:28.438,-1.3,2.1,59,0.0,0.0,0.0,0.6,0.6,0.451,0.0,4.4,532.9,3.780,3.715,0.081,4.0,00:00:48,4.2,0,--.--,145,9.2,13,0000:55:53,0,0,0,46.62,42.99,466,32,84,--.--,--:--:--,1,2004.24,17:30:28,29/01/2025,42.18,--.--,--.--,--.--,--.--,--.--,--.--,--.--,--.--,--.--,--.--,100.00,0,0.000,0.000,0.000,0.000,0.000,0.000,0.000,0.000,0.000,0.000,0.000,0.000,false,false,false,false,false,false,false,false,false,false,false,false,--.--,--.--,--.--,--.--,--.--,--.--,--.--,--.--,-16.6955884,-54.6695105,21KYB 48519 52667,0.5,0.1,229.8,3,28,--.--,--.--,,--.--,--.--,--.--,0,0,--.--,--.--,0,2.8,-4.3,-3.3,-0.4,-0.4,-0.0,--.--,--.--,--.--,--.--,--.--,--.--,--.--,--.--,--.--,--.--,--.--,--.--,44.47,41.69,--.--,0,0,1.7,3.5,10.1,0,0,0,180.0,0.0,0.0
2025-01-29 17:30:29.446,-2.7,-0.0,60,0.0,0.0,0.0,0.7,0.7,0.677,0.0,4.4,532.9,3.770,3.716,0.214,4.0,00:00:49,4.3,0,--.--,136,9.9,13,0000:55:53,0,0,0,46.61,42.99,478,32,84,--.--,--:--:--,1,2003.89,17:30:29,29/01/2025,42.43,--.--,--.--,--.--,--.--,--.--,--.--,--.--,--.--,--.--,--.--,100.00,0,0.000,0.000,0.000,0.000,0.000,0.000,0.000,0.000,0.000,0.000,0.000,0.000,false,false,false,false,false,false,false,false,false,false,false,false,--.--,--.--,--.--,--.--,--.--,--.--,--.--,--.--,-16.6955914,-54.6695142,21KYB 48519 52667,0.5,0.1,232.2,3,28,--.--,--.--,,--.--,--.--,--.--,0,0,--.--,--.--,0,2.4,-4.9,-3.3,-0.3,-0.6,-0.0,--.--,--.--,--.--,--.--,--.--,--.--,--.--,--.--,--.--,--.--,--.--,--.--,44.45,41.68,--.--,0,0,1.3,4.7,7.6,0,0,0,180.0,0.0,0.0
2025-01-29 17:30:30.450,-1.4,2.4,60,0.0,0.0,0.0,0.7,0.7,0.607,0.1,4.4,532.9,3.780,3.721,0.103,4.0,00:00:50,4.6,0,--.--,129,10.4,13,0000:55:53,0,0,0,46.61,42.99,490,33,84,--.--,--:--:--,1,2003.76,17:30:30,29/01/2025,41.80,--.--,--.--,--.--,--.--,--.--,--.--,--.--,--.--,--.--,--.--,100.00,0,0.000,0.000,0.000,0.000,0.000,0.000,0.000,0.000,0.000,0.000,0.000,0.000,false,false,false,false,false,false,false,false,false,false,false,false,--.--,--.--,--.--,--.--,--.--,--.--,--.--,--.--,-16.6955936,-54.6695193,21KYB 48518 52666,0.5,0.1,252.0,3,28,--.--,--.--,,--.--,--.--,--.--,0,0,--.--,--.--,0,2.3,-5.5,-3.3,-0.2,-0.6,-0.0,--.--,--.--,--.--,--.--,--.--,--.--,--.--,--.--,--.--,--.--,--.--,--.--,44.49,41.69,--.--,0,0,2.6,4.7,10.7,0,0,0,180.0,0.0,0.0
2025-01-29 17:30:31.443,-1.5,1.3,61,0.0,0.0,0.0,0.8,0.8,0.794,0.1,4.3,532.8,3.740,3.673,0.030,6.2,00:00:51,5.0,0,--.--,121,11.0,13,0000:55:53,0,0,0,46.58,44.99,503,32,83,--.--,--:--:--,1,2095.63,17:30:31,29/01/2025,43.43,--.--,--.--,--.--,--.--,--.--,--.--,--.--,--.--,--.--,--.--,100.00,0,0.000,0.000,0.000,0.000,0.000,0.000,0.000,0.000,0.000,0.000,0.000,0.000,false,false,false,false,false,false,false,false,false,false,false,false,--.--,--.--,--.--,--.--,--.--,--.--,--.--,--.--,-16.6955960,-54.6695247,21KYB 48517 52666,0.5,0.1,245.9,3,28,--.--,--.--,,--.--,--.--,--.--,0,0,--.--,--.--,0,1.9,-6.1,-3.3,-0.3,-0.7,-0.0,--.--,--.--,--.--,--.--,--.--,--.--,--.--,--.--,--.--,--.--,--.--,--.--,44.45,41.67,--.--,0,0,3.7,3.4,10.4,0,0,0,180.0,0.0,0.0
2025-01-29 17:30:32.445,-1.0,0.8,61,0.0,0.0,0.0,0.7,0.7,0.773,0.0,4.3,532.8,3.730,3.602,0.002,6.2,00:00:52,5.4,0,--.--,114,11.2,13,0000:55:53,0,0,0,46.54,45.99,516,33,83,--.--,--:--:--,1,2140.56,17:30:32,29/01/2025,44.20,--.--,--.--,--.--,--.--,--.--,--.--,--.--,--.--,--.--,--.--,100.00,0,0.000,0.000,0.000,0.000,0.000,0.000,0.000,0.000,0.000,0.000,0.000,0.000,false,false,false,false,false,false,false,false,false,false,false,false,--.--,--.--,--.--,--.--,--.--,--.--,--.--,--.--,-16.6955997,-54.6695309,21KYB 48517 52666,0.5,0.1,245.4,3,27,--.--,--.--,,--.--,--.--,--.--,0,0,--.--,--.--,0,1.6,-6.8,-3.3,-0.4,-0.7,-0.1,--.--,--.--,--.--,--.--,--.--,--.--,--.--,--.--,--.--,--.--,--.--,--.--,44.48,41.68,--.--,0,0,2.7,4.0,8.6,0,0,0,180.0,0.0,0.0
2025-01-29 17:30:33.459,-2.2,1.9,60,0.0,0.0,0.0,0.5,0.5,0.578,0.0,4.3,532.8,3.740,3.657,0.000,6.2,00:00:53,5.8,0,--.--,109,11.1,13,0000:55:53,0,0,0,46.55,45.99,529,33,83,--.--,--:--:--,1,2140.97,17:30:33,29/01/2025,44.99,--.--,--.--,--.--,--.--,--.--,--.--,--.--,--.--,--.--,--.--,100.00,0,0.000,0.000,0.000,0.000,0.000,0.000,0.000,0.000,0.000,0.000,0.000,0.000,false,false,false,false,false,false,false,false,false,false,false,false,--.--,--.--,--.--,--.--,--.--,--.--,--.--,--.--,-16.6956031,-54.6695364,21KYB 48516 52665,0.5,0.1,234.8,3,28,--.--,--.--,,--.--,--.--,--.--,0,0,--.--,--.--,0,1.2,-7.4,-3.3,-0.3,-0.4,-0.0,--.--,--.--,--.--,--.--,--.--,--.--,--.--,--.--,--.--,--.--,--.--,--.--,44.50,41.69,--.--,0,0,3.1,5.2,8.5,0,0,0,180.0,0.0,0.0
2025-01-29 17:30:34.448,-1.7,-2.8,61,0.0,0.0,0.0,0.2,0.6,0.494,0.6,4.4,532.9,3.850,3.604,0.061,8.2,00:00:54,6.1,0,--.--,105,10.9,15,0000:55:53,0,0,0,46.52,46.99,536,33,83,--.--,--:--:--,1,2185.97,17:30:34,29/01/2025,45.53,--.--,--.--,--.--,--.--,--.--,--.--,--.--,--.--,--.--,--.--,100.00,0,0.000,0.000,0.000,0.000,0.000,0.000,0.000,0.000,0.000,0.000,0.000,0.000,false,false,false,false,false,false,false,false,false,false,false,false,--.--,--.--,--.--,--.--,--.--,--.--,--.--,--.--,-16.6956056,-54.6695408,21KYB 48516 52665,0.5,0.1,242.6,3,27,--.--,--.--,,--.--,--.--,--.--,0,0,--.--,--.--,0,1.0,-7.8,-3.3,-0.1,-0.3,-0.4,--.--,--.--,--.--,--.--,--.--,--.--,--.--,--.--,--.--,--.--,--.--,--.--,44.49,41.70,--.--,0,0,2.7,3.9,10.8,0,0,0,180.0,0.0,0.0
2025-01-29 17:30:35.451,-1.4,2.6,60,0.0,0.0,0.0,0.1,0.6,0.778,0.6,5.1,533.6,4.670,4.253,0.021,8.2,00:00:55,6.1,0,--.--,106,10.2,12,0000:55:53,0,0,0,46.41,51.99,550,33,83,--.--,--:--:--,1,2412.65,17:30:35,29/01/2025,45.77,--.--,--.--,--.--,--.--,--.--,--.--,--.--,--.--,--.--,--.--,100.00,0,0.000,0.000,0.000,0.000,0.000,0.000,0.000,0.000,0.000,0.000,0.000,0.000,false,false,false,false,false,false,false,false,false,false,false,false,--.--,--.--,--.--,--.--,--.--,--.--,--.--,--.--,-16.6956061,-54.6695432,21KYB 48515 52665,0.5,0.1,72.2,3,28,--.--,--.--,,--.--,--.--,--.--,0,0,--.--,--.--,0,1.0,-7.8,-4.1,0.1,0.1,-0.7,--.--,--.--,--.--,--.--,--.--,--.--,--.--,--.--,--.--,--.--,--.--,--.--,44.48,41.71,--.--,0,0,2.5,4.2,8.5,0,0,0,180.0,0.0,0.0
2025-01-29 17:30:36.441,-0.9,1.4,60,0.0,0.0,0.0,0.1,0.4,0.571,0.3,5.7,534.2,5.140,4.920,0.014,8.2,00:00:56,6.2,0,--.--,105,9.8,12,0000:55:53,0,0,0,46.51,46.99,565,32,83,--.--,--:--:--,1,2185.36,17:30:36,29/01/2025,45.86,--.--,--.--,--.--,--.--,--.--,--.--,--.--,--.--,--.--,--.--,100.00,0,0.000,0.000,0.000,0.000,0.000,0.000,0.000,0.000,0.000,0.000,0.000,0.000,false,false,false,false,false,false,false,false,false,false,false,false,--.--,--.--,--.--,--.--,--.--,--.--,--.--,--.--,-16.6956060,-54.6695426,21KYB 48515 52665,0.5,0.1,279.3,3,28,--.--,--.--,,--.--,--.--,--.--,0,0,--.--,--.--,0,1.0,-7.8,-4.6,0.0,-0.1,-0.5,--.--,--.--,--.--,--.--,--.--,--.--,--.--,--.--,--.--,--.--,--.--,--.--,44.45,41.66,--.--,0,0,3.2,3.2,9.9,0,0,0,180.0,0.0,0.0
2025-01-29 17:30:37.452,-1.2,1.1,60,0.0,0.0,0.0,0.1,0.1,0.079,-0.0,5.7,534.2,5.150,5.081,0.005,8.2,00:00:57,6.3,0,--.--,105,9.5,13,0000:55:53,0,0,0,46.51,44.99,579,33,83,--.--,--:--:--,1,2092.44,17:30:37,29/01/2025,46.16,--.--,--.--,--.--,--.--,--.--,--.--,--.--,--.--,--.--,--.--,100.00,0,0.000,0.000,0.000,0.000,0.000,0.000,0.000,0.000,0.000,0.000,0.000,0.000,false,false,false,false,false,false,false,false,false,false,false,false,--.--,--.--,--.--,--.--,--.--,--.--,--.--,--.--,-16.6956062,-54.6695433,21KYB 48515 52665,0.5,0.1,235.4,3,28,--.--,--.--,,--.--,--.--,--.--,0,0,--.--,--.--,0,1.0,-7.9,-4.7,-0.0,-0.1,-0.0,--.--,--.--,--.--,--.--,--.--,--.--,--.--,--.--,--.--,--.--,--.--,--.--,44.48,41.67,--.--,0,0,2.5,4.3,7.8,0,0,0,180.0,0.0,0.0
2025-01-29 17:30:38.449,-1.1,1.1,60,0.0,0.0,0.0,0.0,0.0,0.069,0.0,5.8,534.3,5.160,5.079,0.001,8.2,00:00:58,6.3,0,--.--,104,9.4,13,0000:55:53,0,0,0,46.46,47.99,592,32,83,--.--,--:--:--,1,2229.52,17:30:38,29/01/2025,46.13,--.--,--.--,--.--,--.--,--.--,--.--,--.--,--.--,--.--,--.--,100.00,0,0.000,0.000,0.000,0.000,0.000,0.000,0.000,0.000,0.000,0.000,0.000,0.000,false,false,false,false,false,false,false,false,false,false,false,false,--.--,--.--,--.--,--.--,--.--,--.--,--.--,--.--,-16.6956066,-54.6695438,21KYB 48515 52665,0.5,0.1,243.7,3,28,--.--,--.--,,--.--,--.--,--.--,0,0,--.--,--.--,0,0.9,-8.0,-4.7,-0.0,-0.0,-0.0,--.--,--.--,--.--,--.--,--.--,--.--,--.--,--.--,--.--,--.--,--.--,--.--,44.45,41.68,--.--,0,0,2.7,4.6,8.5,0,0,0,180.0,0.0,0.0
2025-01-29 17:30:39.438,-1.1,1.4,60,0.0,0.0,0.0,0.0,0.0,0.022,0.0,5.8,534.3,5.190,5.124,0.006,8.2,00:00:59,6.3,0,--.--,104,9.5,13,0000:55:53,0,0,0,46.44,47.99,606,32,83,--.--,--:--:--,1,2228.85,17:30:39,29/01/2025,46.19,--.--,--.--,--.--,--.--,--.--,--.--,--.--,--.--,--.--,--.--,100.00,0,0.000,0.000,0.000,0.000,0.000,0.000,0.000,0.000,0.000,0.000,0.000,0.000,false,false,false,false,false,false,false,false,false,false,false,false,--.--,--.--,--.--,--.--,--.--,--.--,--.--,--.--,-16.6956067,-54.6695438,21KYB 48515 52665,0.5,0.1,45.0,3,28,--.--,--.--,,--.--,--.--,--.--,0,0,--.--,--.--,0,0.9,-8.0,-4.7,0.0,-0.0,-0.0,--.--,--.--,--.--,--.--,--.--,--.--,--.--,--.--,--.--,--.--,--.--,--.--,44.49,41.64,--.--,0,0,2.8,4.8,10.5,0,0,0,180.0,0.0,0.0
2025-01-29 17:30:40.449,0.1,0.5,60,0.0,0.0,0.0,0.1,0.1,0.079,0.0,5.8,534.3,5.210,5.177,0.056,8.2,00:01:00,6.3,0,--.--,104,9.6,13,0000:55:53,0,0,0,46.44,47.99,620,32,82,--.--,--:--:--,1,2228.85,17:30:40,29/01/2025,46.17,--.--,--.--,--.--,--.--,--.--,--.--,--.--,--.--,--.--,--.--,100.00,0,0.000,0.000,0.000,0.000,0.000,0.000,0.000,0.000,0.000,0.000,0.000,0.000,false,false,false,false,false,false,false,false,false,false,false,false,--.--,--.--,--.--,--.--,--.--,--.--,--.--,--.--,-16.6956068,-54.6695439,21KYB 48515 52665,0.5,0.1,268.3,3,27,--.--,--.--,,--.--,--.--,--.--,0,0,--.--,--.--,0,0.9,-8.0,-4.8,0.0,-0.1,-0.0,--.--,--.--,--.--,--.--,--.--,--.--,--.--,--.--,--.--,--.--,--.--,--.--,44.43,41.64,--.--,0,0,3.0,3.7,11.2,0,0,0,180.0,0.0,0.0
2025-01-29 17:30:41.441,2.0,-0.4,59,0.0,0.0,0.0,0.1,0.1,0.111,0.0,5.8,534.3,5.230,5.221,0.091,8.2,00:01:01,6.5,0,--.--,104,9.6,13,0000:55:53,0,0,0,46.47,44.99,633,33,82,--.--,--:--:--,1,2090.64,17:30:41,29/01/2025,46.67,--.--,--.--,--.--,--.--,--.--,--.--,--.--,--.--,--.--,--.--,100.00,0,0.000,0.000,0.000,0.000,0.000,0.000,0.000,0.000,0.000,0.000,0.000,0.000,false,false,false,false,false,false,false,false,false,false,false,false,--.--,--.--,--.--,--.--,--.--,--.--,--.--,--.--,-16.6956066,-54.6695451,21KYB 48515 52665,0.5,0.1,283.9,3,28,--.--,--.--,,--.--,--.--,--.--,0,0,--.--,--.--,0,1.0,-8.2,-4.8,0.0,-0.1,-0.0,--.--,--.--,--.--,--.--,--.--,--.--,--.--,--.--,--.--,--.--,--.--,--.--,44.45,41.66,--.--,0,0,1.7,3.9,10.2,0,0,0,180.0,0.0,0.0
2025-01-29 17:30:42.452,1.4,0.4,59,0.0,0.0,0.0,0.1,0.1,0.069,0.0,5.8,534.3,5.220,5.225,0.160,8.2,00:01:02,6.5,0,--.--,104,9.9,12,0000:55:53,0,0,0,46.49,45.99,646,33,82,--.--,--:--:--,1,2137.89,17:30:42,29/01/2025,47.06,--.--,--.--,--.--,--.--,--.--,--.--,--.--,--.--,--.--,--.--,100.00,0,0.000,0.000,0.000,0.000,0.000,0.000,0.000,0.000,0.000,0.000,0.000,0.000,false,false,false,false,false,false,false,false,false,false,false,false,--.--,--.--,--.--,--.--,--.--,--.--,--.--,--.--,-16.6956058,-54.6695469,21KYB 48515 52665,0.5,0.1,61.5,3,28,--.--,--.--,,--.--,--.--,--.--,0,0,--.--,--.--,0,1.0,-8.2,-4.8,-0.0,0.1,0.0,--.--,--.--,--.--,--.--,--.--,--.--,--.--,--.--,--.--,--.--,--.--,--.--,44.45,41.64,--.--,0,0,2.3,5.1,8.6,0,0,0,180.0,0.0,0.0
2025-01-29 17:30:43.444,1.6,0.3,59,0.0,0.0,0.0,0.0,0.0,0.065,-0.0,5.8,534.3,5.220,5.223,0.079,8.2,00:01:03,6.4,0,--.--,104,9.9,13,0000:55:53,0,0,0,46.47,44.99,659,33,82,--.--,--:--:--,1,2090.60,17:30:43,29/01/2025,47.00,--.--,--.--,--.--,--.--,--.--,--.--,--.--,--.--,--.--,--.--,100.00,0,0.000,0.000,0.000,0.000,0.000,0.000,0.000,0.000,0.000,0.000,0.000,0.000,false,false,false,false,false,false,false,false,false,false,false,false,--.--,--.--,--.--,--.--,--.--,--.--,--.--,--.--,-16.6956056,-54.6695457,21KYB 48515 52665,0.5,0.1,114.3,3,28,--.--,--.--,,--.--,--.--,--.--,0,0,--.--,--.--,0,1.0,-8.1,-4.8,-0.0,0.0,-0.0,--.--,--.--,--.--,--.--,--.--,--.--,--.--,--.--,--.--,--.--,--.--,--.--,44.44,41.62,--.--,0,0,2.6,3.1,8.8,0,0,0,180.0,0.0,0.0
2025-01-29 17:30:44.455,2.0,-0.4,59,0.0,0.0,0.0,0.0,0.0,0.029,-0.0,5.8,534.3,5.210,5.216,0.072,8.2,00:01:04,6.4,0,--.--,104,10.0,13,0000:55:53,0,0,0,46.46,44.99,666,33,82,--.--,--:--:--,1,2090.28,17:30:44,29/01/2025,47.05,--.--,--.--,--.--,--.--,--.--,--.--,--.--,--.--,--.--,--.--,100.00,0,0.000,0.000,0.000,0.000,0.000,0.000,0.000,0.000,0.000,0.000,0.000,0.000,false,false,false,false,false,false,false,false,false,false,false,false,--.--,--.--,--.--,--.--,--.--,--.--,--.--,--.--,-16.6956058,-54.6695459,21KYB 48515 52665,0.5,0.1,191.9,3,26,--.--,--.--,,--.--,--.--,--.--,0,0,--.--,--.--,0,0.9,-8.1,-4.8,-0.0,-0.0,0.0,--.--,--.--,--.--,--.--,--.--,--.--,--.--,--.--,--.--,--.--,--.--,--.--,44.44,41.60,--.--,0,0,2.2,4.4,9.9,0,0,0,180.0,0.0,0.0
2025-01-29 17:30:45.444,1.5,-0.3,59,0.0,0.0,0.0,0.1,0.1,0.049,0.0,5.8,534.3,5.200,5.197,0.078,8.2,00:01:05,6.5,0,--.--,104,9.9,13,0000:55:53,0,0,0,46.46,44.99,679,33,82,--.--,--:--:--,1,2090.19,17:30:45,29/01/2025,47.15,--.--,--.--,--.--,--.--,--.--,--.--,--.--,--.--,--.--,--.--,100.00,0,0.000,0.000,0.000,0.000,0.000,0.000,0.000,0.000,0.000,0.000,0.000,0.000,false,false,false,false,false,false,false,false,false,false,false,false,--.--,--.--,--.--,--.--,--.--,--.--,--.--,--.--,-16.6956063,-54.6695477,21KYB 48515 52665,0.5,0.1,211.0,3,27,--.--,--.--,,--.--,--.--,--.--,0,0,--.--,--.--,0,0.9,-8.1,-4.8,-0.0,0.0,-0.0,--.--,--.--,--.--,--.--,--.--,--.--,--.--,--.--,--.--,--.--,--.--,--.--,44.44,41.62,--.--,0,0,3.6,3.5,10.3,0,0,0,180.0,0.0,0.0
2025-01-29 17:30:46.443,-0.5,-0.6,59,0.0,0.0,0.0,0.0,0.1,0.075,0.0,5.8,534.3,5.160,5.136,0.087,8.2,00:01:06,6.5,0,--.--,104,9.4,13,0000:55:53,0,0,0,46.45,43.99,692,33,82,--.--,--:--:--,1,2043.38,17:30:46,29/01/2025,47.03,--.--,--.--,--.--,--.--,--.--,--.--,--.--,--.--,--.--,--.--,100.00,0,0.000,0.000,0.000,0.000,0.000,0.000,0.000,0.000,0.000,0.000,0.000,0.000,false,false,false,false,false,false,false,false,false,false,false,false,--.--,--.--,--.--,--.--,--.--,--.--,--.--,--.--,-16.6956071,-54.6695481,21KYB 48515 52665,0.5,0.1,144.5,3,27,--.--,--.--,,--.--,--.--,--.--,0,0,--.--,--.--,0,0.9,-8.2,-4.7,0.0,0.1,-0.0,--.--,--.--,--.--,--.--,--.--,--.--,--.--,--.--,--.--,--.--,--.--,--.--,44.44,41.59,--.--,0,0,2.6,6.2,10.9,0,0,0,180.0,0.0,0.0
2025-01-29 17:30:47.449,1.3,-0.1,59,0.0,0.0,0.0,0.2,0.2,0.157,0.0,5.7,534.2,5.130,5.041,0.067,8.2,00:01:07,6.5,0,--.--,104,9.0,13,0000:55:53,0,0,0,46.44,44.99,705,33,82,--.--,--:--:--,1,2089.34,17:30:47,29/01/2025,46.96,--.--,--.--,--.--,--.--,--.--,--.--,--.--,--.--,--.--,--.--,100.00,0,0.000,0.000,0.000,0.000,0.000,0.000,0.000,0.000,0.000,0.000,0.000,0.000,false,false,false,false,false,false,false,false,false,false,false,false,--.--,--.--,--.--,--.--,--.--,--.--,--.--,--.--,-16.6956067,-54.6695476,21KYB 48515 52665,0.5,0.1,7.3,3,27,--.--,--.--,,--.--,--.--,--.--,0,0,--.--,--.--,0,1.0,-8.2,-4.7,0.2,-0.0,-0.0,--.--,--.--,--.--,--.--,--.--,--.--,--.--,--.--,--.--,--.--,--.--,--.--,44.42,41.58,--.--,0,0,2.8,3.1,10.1,0,0,0,180.0,0.0,0.0
2025-01-29 17:30:48.464,0.9,-0.2,59,0.0,0.0,0.0,0.3,0.3,0.213,0.1,5.7,534.2,5.100,5.019,0.024,8.2,00:01:08,6.6,0,--.--,106,8.5,13,0000:55:53,0,0,0,46.43,44.99,718,33,82,--.--,--:--:--,1,2088.93,17:30:48,29/01/2025,46.97,--.--,--.--,--.--,--.--,--.--,--.--,--.--,--.--,--.--,--.--,100.00,0,0.000,0.000,0.000,0.000,0.000,0.000,0.000,0.000,0.000,0.000,0.000,0.000,false,false,false,false,false,false,false,false,false,false,false,false,--.--,--.--,--.--,--.--,--.--,--.--,--.--,--.--,-16.6956055,-54.6695481,21KYB 48515 52665,0.5,0.1,342.7,3,27,--.--,--.--,,--.--,--.--,--.--,0,0,--.--,--.--,0,1.2,-8.3,-4.7,0.2,-0.1,-0.0,--.--,--.--,--.--,--.--,--.--,--.--,--.--,--.--,--.--,--.--,--.--,--.--,44.38,41.58,--.--,0,0,2.1,3.3,9.2,0,0,0,180.0,0.0,0.0
2025-01-29 17:30:49.446,-1.0,0.0,59,0.0,0.0,0.0,0.3,0.4,0.256,0.1,5.7,534.2,5.060,4.936,0.007,8.2,00:01:10,6.8,0,--.--,107,8.0,13,0000:55:53,0,0,0,46.40,45.99,731,33,81,--.--,--:--:--,1,2134.12,17:30:49,29/01/2025,47.05,--.--,--.--,--.--,--.--,--.--,--.--,--.--,--.--,--.--,--.--,100.00,0,0.000,0.000,0.000,0.000,0.000,0.000,0.000,0.000,0.000,0.000,0.000,0.000,false,false,false,false,false,false,false,false,false,false,false,false,--.--,--.--,--.--,--.--,--.--,--.--,--.--,--.--,-16.6956041,-54.6695492,21KYB 48515 52665,0.5,0.1,336.6,3,26,--.--,--.--,,--.--,--.--,--.--,0,0,--.--,--.--,0,1.4,-8.4,-4.6,0.3,-0.1,-0.1,--.--,--.--,--.--,--.--,--.--,--.--,--.--,--.--,--.--,--.--,--.--,--.--,44.48,41.57,--.--,0,0,2.4,3.5,9.2,0,0,0,180.0,0.0,0.0
2025-01-29 17:30:50.441,1.3,-0.3,59,0.0,0.0,0.0,0.6,0.6,0.522,0.1,5.6,534.1,5.010,4.841,0.026,8.2,00:01:10,7.2,0,--.--,110,7.5,13,0000:55:53,0,0,0,46.39,45.99,745,33,81,--.--,--:--:--,1,2133.71,17:30:50,29/01/2025,47.15,--.--,--.--,--.--,--.--,--.--,--.--,--.--,--.--,--.--,--.--,100.00,0,0.000,0.000,0.000,0.000,0.000,0.000,0.000,0.000,0.000,0.000,0.000,0.000,false,false,false,false,false,false,false,false,false,false,false,false,--.--,--.--,--.--,--.--,--.--,--.--,--.--,--.--,-16.6956015,-54.6695515,21KYB 48515 52666,0.5,0.1,331.6,3,26,--.--,--.--,,--.--,--.--,--.--,0,0,--.--,--.--,0,1.8,-8.6,-4.6,0.5,-0.3,-0.1,--.--,--.--,--.--,--.--,--.--,--.--,--.--,--.--,--.--,--.--,--.--,--.--,44.49,41.56,--.--,0,0,2.7,3.2,7.9,0,0,0,180.0,0.0,0.0
2025-01-29 17:30:51.440,1.9,-0.3,59,0.0,0.0,0.0,0.4,0.4,0.459,0.1,5.6,534.1,4.970,4.757,0.038,8.2,00:01:11,7.5,0,--.--,112,7.0,13,0000:55:53,0,0,0,46.39,45.99,758,33,81,--.--,--:--:--,1,2133.34,17:30:51,29/01/2025,47.41,--.--,--.--,--.--,--.--,--.--,--.--,--.--,--.--,--.--,--.--,100.00,0,0.000,0.000,0.000,0.000,0.000,0.000,0.000,0.000,0.000,0.000,0.000,0.000,false,false,false,false,false,false,false,false,false,false,false,false,--.--,--.--,--.--,--.--,--.--,--.--,--.--,--.--,-16.6955977,-54.6695544,21KYB 48514 52666,0.5,0.1,333.4,3,26,--.--,--.--,,--.--,--.--,--.--,0,0,--.--,--.--,0,2.2,-8.9,-4.5,0.4,-0.2,-0.1,--.--,--.--,--.--,--.--,--.--,--.--,--.--,--.--,--.--,--.--,--.--,--.--,44.45,41.58,--.--,0,0,2.3,5.1,11.1,0,0,0,180.0,0.0,0.0
2025-01-29 17:30:52.453,4.0,-0.1,59,0.0,0.0,0.0,0.1,0.2,0.258,0.2,5.6,534.1,4.980,4.703,0.016,8.2,00:01:12,7.8,0,--.--,113,6.8,13,0000:55:53,0,0,0,46.38,45.99,771,33,81,--.--,--:--:--,1,2133.06,17:30:52,29/01/2025,47.64,--.--,--.--,--.--,--.--,--.--,--.--,--.--,--.--,--.--,--.--,100.00,0,0.000,0.000,0.000,0.000,0.000,0.000,0.000,0.000,0.000,0.000,0.000,0.000,false,false,false,false,false,false,false,false,false,false,false,false,--.--,--.--,--.--,--.--,--.--,--.--,--.--,--.--,-16.6955943,-54.6695566,21KYB 48514 52666,0.5,0.1,339.2,3,26,--.--,--.--,,--.--,--.--,--.--,0,0,--.--,--.--,0,2.4,-9.0,-4.5,0.1,0.0,-0.2,--.--,--.--,--.--,--.--,--.--,--.--,--.--,--.--,--.--,--.--,--.--,--.--,44.49,41.52,--.--,0,0,1.5,5.1,10.1,0,0,0,180.0,0.0,0.0
2025-01-29 17:30:53.444,0.0,-0.6,59,0.0,0.0,0.0,0.1,0.2,0.248,0.1,5.6,534.1,4.970,4.735,0.044,8.2,00:01:13,7.7,0,--.--,112,6.5,13,0000:55:53,0,0,0,46.38,45.99,784,33,81,--.--,--:--:--,1,2132.97,17:30:53,29/01/2025,47.59,--.--,--.--,--.--,--.--,--.--,--.--,--.--,--.--,--.--,--.--,100.00,0,0.000,0.000,0.000,0.000,0.000,0.000,0.000,0.000,0.000,0.000,0.000,0.000,false,false,false,false,false,false,false,false,false,false,false,false,--.--,--.--,--.--,--.--,--.--,--.--,--.--,--.--,-16.6955939,-54.6695570,21KYB 48514 52666,0.5,0.1,150.1,3,26,--.--,--.--,,--.--,--.--,--.--,0,0,--.--,--.--,0,2.3,-9.0,-4.5,-0.1,0.1,-0.1,--.--,--.--,--.--,--.--,--.--,--.--,--.--,--.--,--.--,--.--,--.--,--.--,44.45,41.56,--.--,0,0,2.3,2.9,9.9,0,0,0,180.0,0.0,0.0
2025-01-29 17:30:54.440,1.5,-0.8,59,0.0,0.0,0.0,0.1,0.2,0.152,0.2,5.6,534.1,5.000,4.741,0.084,8.2,00:01:14,7.7,0,--.--,112,6.6,13,0000:55:53,0,0,0,46.35,46.99,797,33,81,--.--,--:--:--,1,2178.08,17:30:54,29/01/2025,47.59,--.--,--.--,--.--,--.--,--.--,--.--,--.--,--.--,--.--,--.--,100.00,0,0.000,0.000,0.000,0.000,0.000,0.000,0.000,0.000,0.000,0.000,0.000,0.000,false,false,false,false,false,false,false,false,false,false,false,false,--.--,--.--,--.--,--.--,--.--,--.--,--.--,--.--,-16.6955937,-54.6695571,21KYB 48514 52666,0.5,0.1,355.7,3,26,--.--,--.--,,--.--,--.--,--.--,0,0,--.--,--.--,0,2.3,-9.0,-4.5,0.1,-0.0,-0.1,--.--,--.--,--.--,--.--,--.--,--.--,--.--,--.--,--.--,--.--,--.--,--.--,44.45,41.57,--.--,0,0,2.3,3.4,9.8,0,0,0,180.0,0.0,0.0
