Timestamp,roll,pitch,heading,rollRate,pitchRate,yawRate,groundSpeed,airSpeed,airSpeedSetpoint,climbRate,altitudeRelative,altitudeAMSL,altitudeTuning,altitudeTuningSetpoint,xTrackError,flightDistance,flightTime,distanceToHome,missionItemIndex,headingToNextWP,headingToHome,distanceToGCS,throttlePct,hobbs,battery0.id,battery0.batteryFunction,battery0.batteryType,battery0.voltage,battery0.current,battery0.mahConsumed,battery0.temperature,battery0.percentRemaining,battery0.timeRemaining,battery0.timeRemainingStr,battery0.chargeState,battery0.instantPower,clock.currentTime,clock.currentDate,distanceSensor.rotationNone,distanceSensor.rotationYaw45,distanceSensor.rotationYaw90,distanceSensor.rotationYaw135,distanceSensor.rotationYaw180,distanceSensor.rotationYaw225,distanceSensor.rotationYaw270,distanceSensor.rotationYaw315,distanceSensor.rotationPitch90,distanceSensor.rotationPitch270,distanceSensor.minDistance,distanceSensor.maxDistance,escStatus.index,escStatus.rpm1,escStatus.rpm2,escStatus.rpm3,escStatus.rpm4,escStatus.current1,escStatus.current2,escStatus.current3,escStatus.current4,escStatus.voltage1,escStatus.voltage2,escStatus.voltage3,escStatus.voltage4,estimatorStatus.goodAttitudeEsimate,estimatorStatus.goodHorizVelEstimate,estimatorStatus.goodVertVelEstimate,estimatorStatus.goodHorizPosRelEstimate,estimatorStatus.goodHorizPosAbsEstimate,estimatorStatus.goodVertPosAbsEstimate,estimatorStatus.goodVertPosAGLEstimate,estimatorStatus.goodConstPosModeEstimate,estimatorStatus.goodPredHorizPosRelEstimate,estimatorStatus.goodPredHorizPosAbsEstimate,estimatorStatus.gpsGlitch,estimatorStatus.accelError,estimatorStatus.velRatio,estimatorStatus.horizPosRatio,estimatorStatus.vertPosRatio,estimatorStatus.magRatio,estimatorStatus.haglRatio,estimatorStatus.tasRatio,estimatorStatus.horizPosAccuracy,estimatorStatus.vertPosAccuracy,gps.lat,gps.lon,gps.mgrs,gps.hdop,gps.vdop,gps.courseOverGround,gps.lock,gps.count,gps2.lat,gps2.lon,gps2.mgrs,gps2.hdop,gps2.vdop,gps2.courseOverGround,gps2.lock,gps2.count,hygrometer.temperature,hygrometer.humidity,hygrometer.hygrometerid,localPosition.x,localPosition.y,localPosition.z,localPosition.vx,localPosition.vy,localPosition.vz,localPositionSetpoint.x,localPositionSetpoint.y,localPositionSetpoint.z,localPositionSetpoint.vx,localPositionSetpoint.vy,localPositionSetpoint.vz,setpoint.roll,setpoint.pitch,setpoint.yaw,setpoint.rollRate,setpoint.pitchRate,setpoint.yawRate,temperature.temperature1,temperature.temperature2,temperature.temperature3,terrain.blocksPending,terrain.blocksLoaded,vibration.xAxis,vibration.yAxis,vibration.zAxis,vibration.clipCount1,vibration.clipCount2,vibration.clipCount3,wind.direction,wind.speed,wind.verticalSpeed
2025-01-29 16:35:11.509,-0.5,-0.7,271,0.0,0.0,0.0,0.0,0.0,0.007,-0.0,-0.0,532.8,-0.600,-0.600,0.000,0.0,00:00:00,0.0,0,--.--,--.--,--.--,0,0000:44:07,0,0,0,50.19,0.00,0,35,98,--.--,--:--:--,1,0.00,16:35:11,29/01/2025,1.71,--.--,--.--,--.--,--.--,--.--,--.--,--.--,--.--,--.--,--.--,100.00,0,0.000,0.000,0.000,0.000,0.000,0.000,0.000,0.000,0.000,0.000,0.000,0.000,false,false,false,false,false,false,false,false,false,false,false,false,--.--,--.--,--.--,--.--,--.--,--.--,--.--,--.--,-16.6954752,-54.6693349,21KYB 48538 52679,0.5,0.1,333.4,3,28,--.--,--.--,,--.--,--.--,--.--,0,0,--.--,--.--,0,1.5,0.9,-7.8,0.0,-0.0,0.0,--.--,--.--,--.--,--.--,--.--,--.--,--.--,--.--,--.--,--.--,--.--,--.--,41.92,39.76,--.--,0,0,0.0,0.0,0.0,0,0,0,180.0,0.0,0.0
2025-01-29 16:35:12.358,-0.5,-0.7,271,0.0,0.0,0.0,0.0,0.0,0.007,-0.0,-0.0,532.8,-0.620,-0.620,0.000,0.0,00:00:01,0.0,0,--.--,--.--,--.--,0,0000:44:07,0,0,0,50.19,0.00,0,35,98,--.--,--:--:--,1,0.00,16:35:12,29/01/2025,9.67,--.--,--.--,--.--,--.--,--.--,--.--,--.--,--.--,--.--,--.--,100.00,0,0.000,0.000,0.000,0.000,0.000,0.000,0.000,0.000,0.000,0.000,0.000,0.000,false,false,false,false,false,false,false,false,false,false,false,false,--.--,--.--,--.--,--.--,--.--,--.--,--.--,--.--,-16.6954752,-54.6693350,21KYB 48538 52679,0.5,0.1,0.0,3,28,--.--,--.--,,--.--,--.--,--.--,0,0,--.--,--.--,0,1.5,0.9,-7.8,0.0,0.0,0.0,--.--,--.--,--.--,--.--,--.--,--.--,--.--,--.--,--.--,--.--,--.--,--.--,41.92,39.78,--.--,0,0,0.0,0.0,0.0,0,0,0,180.0,0.0,0.0
2025-01-29 16:35:13.357,-0.5,-0.7,271,0.0,0.0,0.0,0.0,0.0,0.007,-0.0,-0.0,532.8,-0.630,-0.630,0.000,0.0,00:00:02,0.0,0,--.--,--.--,--.--,0,0000:44:07,0,0,0,50.19,0.00,0,35,98,--.--,--:--:--,1,0.00,16:35:13,29/01/2025,9.77,--.--,--.--,--.--,--.--,--.--,--.--,--.--,--.--,--.--,--.--,100.00,0,0.000,0.000,0.000,0.000,0.000,0.000,0.000,0.000,0.000,0.000,0.000,0.000,false,false,false,false,false,false,false,false,false,false,false,false,--.--,--.--,--.--,--.--,--.--,--.--,--.--,--.--,-16.6954752,-54.6693350,21KYB 48538 52679,0.5,0.1,315.0,3,28,--.--,--.--,,--.--,--.--,--.--,0,0,--.--,--.--,0,1.5,0.9,-7.8,0.0,-0.0,0.0,--.--,--.--,--.--,--.--,--.--,--.--,--.--,--.--,--.--,--.--,--.--,--.--,41.87,39.84,--.--,0,0,0.0,0.0,0.0,0,0,0,180.0,0.0,0.0
2025-01-29 16:35:14.356,-0.5,-0.7,271,0.0,0.0,0.0,0.0,0.0,0.006,-0.0,-0.1,532.8,-0.650,-0.650,0.000,0.0,00:00:02,0.0,0,--.--,--.--,--.--,0,0000:44:07,0,0,0,50.19,0.00,0,35,98,--.--,--:--:--,1,0.00,16:35:14,29/01/2025,9.77,--.--,--.--,--.--,--.--,--.--,--.--,--.--,--.--,--.--,--.--,100.00,0,0.000,0.000,0.000,0.000,0.000,0.000,0.000,0.000,0.000,0.000,0.000,0.000,false,false,false,false,false,false,false,false,false,false,false,false,--.--,--.--,--.--,--.--,--.--,--.--,--.--,--.--,-16.6954752,-54.6693350,21KYB 48538 52679,0.5,0.1,333.4,3,28,--.--,--.--,,--.--,--.--,--.--,0,0,--.--,--.--,0,1.5,0.9,-7.7,0.0,-0.0,0.0,--.--,--.--,--.--,--.--,--.--,--.--,--.--,--.--,--.--,--.--,--.--,--.--,41.91,39.82,--.--,0,0,0.1,0.1,0.1,0,0,0,180.0,0.0,0.0
2025-01-29 16:35:15.357,-0.5,-0.7,272,0.0,0.0,0.0,0.0,0.0,0.026,-0.0,-0.1,532.8,-0.670,-0.670,0.000,0.0,00:00:03,0.0,0,--.--,--.--,--.--,0,0000:44:07,0,0,0,50.16,1.99,0,35,98,--.--,--:--:--,1,99.82,16:35:15,29/01/2025,1.89,--.--,--.--,--.--,--.--,--.--,--.--,--.--,--.--,--.--,--.--,100.00,0,0.000,0.000,0.000,0.000,0.000,0.000,0.000,0.000,0.000,0.000,0.000,0.000,false,false,false,false,false,false,false,false,false,false,false,false,--.--,--.--,--.--,--.--,--.--,--.--,--.--,--.--,-16.6954752,-54.6693351,21KYB 48538 52679,0.5,0.1,333.4,3,28,--.--,--.--,,--.--,--.--,--.--,0,0,--.--,--.--,0,1.5,0.9,-7.7,0.0,0.0,-0.0,--.--,--.--,--.--,--.--,--.--,--.--,--.--,--.--,--.--,--.--,--.--,--.--,41.91,39.82,--.--,0,0,1.7,2.4,1.6,0,0,0,180.0,0.0,0.0
2025-01-29 16:35:16.360,-0.3,-0.6,271,0.0,0.0,0.0,0.0,0.0,0.031,0.0,-0.1,532.8,-0.680,-0.680,0.001,0.0,00:00:04,0.0,0,--.--,--.--,--.--,3,0000:44:07,0,0,0,50.12,4.98,1,35,98,--.--,--:--:--,1,249.62,16:35:16,29/01/2025,1.44,--.--,--.--,--.--,--.--,--.--,--.--,--.--,--.--,--.--,--.--,100.00,0,0.000,0.000,0.000,0.000,0.000,0.000,0.000,0.000,0.000,0.000,0.000,0.000,false,false,false,false,false,false,false,false,false,false,false,false,--.--,--.--,--.--,--.--,--.--,--.--,--.--,--.--,-16.6954753,-54.6693352,21KYB 48538 52679,0.5,0.1,0.0,3,28,--.--,--.--,,--.--,--.--,--.--,0,0,--.--,--.--,0,1.5,0.9,-7.7,-0.0,0.0,0.0,--.--,--.--,--.--,--.--,--.--,--.--,--.--,--.--,--.--,--.--,--.--,--.--,41.97,39.83,--.--,0,0,1.4,1.5,1.2,0,0,0,180.0,0.0,0.0
2025-01-29 16:35:17.370,-0.2,-0.6,272,0.0,0.0,0.0,0.0,0.0,0.021,-0.0,-0.1,532.7,-0.700,-0.731,0.000,0.0,00:00:05,0.0,0,--.--,--.--,--.--,8,0000:44:07,0,0,0,50.07,12.99,2,35,98,--.--,--:--:--,1,650.44,16:35:17,29/01/2025,1.29,--.--,--.--,--.--,--.--,--.--,--.--,--.--,--.--,--.--,--.--,100.00,0,0.000,0.000,0.000,0.000,0.000,0.000,0.000,0.000,0.000,0.000,0.000,0.000,false,false,false,false,false,false,false,false,false,false,false,false,--.--,--.--,--.--,--.--,--.--,--.--,--.--,--.--,-16.6954753,-54.6693352,21KYB 48538 52679,0.5,0.1,341.6,3,28,--.--,--.--,,--.--,--.--,--.--,0,0,--.--,--.--,0,1.5,0.9,-7.7,0.0,-0.0,0.0,--.--,--.--,--.--,--.--,--.--,--.--,--.--,--.--,--.--,--.--,--.--,--.--,41.90,39.83,--.--,0,0,1.5,2.0,4.4,0,0,0,180.0,0.0,0.0
2025-01-29 16:35:18.369,-0.1,0.6,272,0.0,0.0,0.0,0.1,0.1,0.053,0.0,-0.1,532.7,-0.710,-0.753,0.002,0.0,00:00:07,0.0,0,--.--,--.--,--.--,8,0000:44:07,0,0,0,49.87,22.99,7,35,98,--.--,--:--:--,1,1146.56,16:35:18,29/01/2025,0.90,--.--,--.--,--.--,--.--,--.--,--.--,--.--,--.--,--.--,--.--,100.00,0,0.000,0.000,0.000,0.000,0.000,0.000,0.000,0.000,0.000,0.000,0.000,0.000,false,false,false,false,false,false,false,false,false,false,false,false,--.--,--.--,--.--,--.--,--.--,--.--,--.--,--.--,-16.6954753,-54.6693354,21KYB 48538 52679,0.5,0.1,71.6,3,28,--.--,--.--,,--.--,--.--,--.--,0,0,--.--,--.--,0,1.5,0.9,-7.7,0.0,0.0,-0.0,--.--,--.--,--.--,--.--,--.--,--.--,--.--,--.--,--.--,--.--,--.--,--.--,41.98,39.83,--.--,0,0,1.6,1.5,3.0,0,0,0,180.0,0.0,0.0
2025-01-29 16:35:19.365,-0.3,4.5,272,0.0,0.0,0.0,0.1,0.1,0.080,-0.0,-0.1,532.7,-0.720,-0.777,0.012,0.0,00:00:08,0.0,0,--.--,--.--,--.--,9,0000:44:07,0,0,0,49.83,23.99,14,35,98,--.--,--:--:--,1,1195.40,16:35:19,29/01/2025,1.12,--.--,--.--,--.--,--.--,--.--,--.--,--.--,--.--,--.--,--.--,100.00,0,0.000,0.000,0.000,0.000,0.000,0.000,0.000,0.000,0.000,0.000,0.000,0.000,false,false,false,false,false,false,false,false,false,false,false,false,--.--,--.--,--.--,--.--,--.--,--.--,--.--,--.--,-16.6954753,-54.6693354,21KYB 48538 52679,0.5,0.1,87.3,3,28,--.--,--.--,,--.--,--.--,--.--,0,0,--.--,--.--,0,1.5,0.9,-7.7,0.1,0.0,0.0,--.--,--.--,--.--,--.--,--.--,--.--,--.--,--.--,--.--,--.--,--.--,--.--,41.99,39.86,--.--,0,0,1.6,1.5,3.9,0,0,0,180.0,0.0,0.0
2025-01-29 16:35:20.358,-1.5,-1.0,272,0.0,0.0,0.0,0.4,0.4,0.376,-0.0,-0.2,532.7,-0.750,-0.835,0.012,0.0,00:00:08,0.1,0,--.--,--.--,--.--,11,0000:44:07,0,0,0,49.75,26.99,21,35,98,--.--,--:--:--,1,1342.75,16:35:20,29/01/2025,1.24,--.--,--.--,--.--,--.--,--.--,--.--,--.--,--.--,--.--,--.--,100.00,0,0.000,0.000,0.000,0.000,0.000,0.000,0.000,0.000,0.000,0.000,0.000,0.000,false,false,false,false,false,false,false,false,false,false,false,false,--.--,--.--,--.--,--.--,--.--,--.--,--.--,--.--,-16.6954757,-54.6693343,21KYB 48538 52679,0.5,0.1,107.2,3,28,--.--,--.--,,--.--,--.--,--.--,0,0,--.--,--.--,0,1.5,1.0,-7.6,-0.0,0.4,0.0,--.--,--.--,--.--,--.--,--.--,--.--,--.--,--.--,--.--,--.--,--.--,--.--,41.99,39.84,--.--,0,0,2.1,1.6,3.8,0,0,0,180.0,0.0,0.0
2025-01-29 16:35:21.358,-0.3,-2.1,271,0.0,0.0,0.0,0.2,0.2,0.196,0.1,-0.2,532.7,-0.760,-0.859,0.111,0.0,00:00:09,0.5,0,--.--,--.--,--.--,11,0000:44:07,0,0,0,49.68,32.98,29,35,98,--.--,--:--:--,1,1638.51,16:35:21,29/01/2025,0.75,--.--,--.--,--.--,--.--,--.--,--.--,--.--,--.--,--.--,--.--,100.00,0,0.000,0.000,0.000,0.000,0.000,0.000,0.000,0.000,0.000,0.000,0.000,0.000,false,false,false,false,false,false,false,false,false,false,false,false,--.--,--.--,--.--,--.--,--.--,--.--,--.--,--.--,-16.6954767,-54.6693328,21KYB 48538 52679,0.5,0.1,101.5,3,28,--.--,--.--,,--.--,--.--,--.--,0,0,--.--,--.--,0,1.4,1.4,-7.6,0.1,0.2,-0.0,--.--,--.--,--.--,--.--,--.--,--.--,--.--,--.--,--.--,--.--,--.--,--.--,42.01,39.87,--.--,0,0,2.5,1.4,5.4,0,0,0,180.0,0.0,0.0
2025-01-29 16:35:22.360,-1.1,-1.9,271,0.0,0.0,0.0,0.2,0.3,0.306,0.3,-0.2,532.7,-0.730,-0.899,0.061,0.0,00:00:10,0.6,0,--.--,--.--,--.--,11,0000:44:07,0,0,0,49.64,32.98,38,35,98,--.--,--:--:--,1,1637.26,16:35:22,29/01/2025,0.60,--.--,--.--,--.--,--.--,--.--,--.--,--.--,--.--,--.--,--.--,100.00,0,0.000,0.000,0.000,0.000,0.000,0.000,0.000,0.000,0.000,0.000,0.000,0.000,false,false,false,false,false,false,false,false,false,false,false,false,--.--,--.--,--.--,--.--,--.--,--.--,--.--,--.--,-16.6954768,-54.6693314,21KYB 48538 52679,0.5,0.1,84.5,3,28,--.--,--.--,,--.--,--.--,--.--,0,0,--.--,--.--,0,1.4,1.4,-7.6,0.2,0.1,-0.2,--.--,--.--,--.--,--.--,--.--,--.--,--.--,--.--,--.--,--.--,--.--,--.--,42.05,39.87,--.--,0,0,1.9,2.0,5.0,0,0,0,180.0,0.0,0.0
2025-01-29 16:35:23.361,-1.8,-1.4,271,0.0,0.0,0.0,0.1,0.4,0.437,0.4,-0.0,532.8,-0.590,-0.859,0.024,0.0,00:00:11,0.6,0,--.--,--.--,--.--,12,0000:44:07,0,0,0,49.60,32.98,47,35,98,--.--,--:--:--,1,1635.94,16:35:23,29/01/2025,0.82,--.--,--.--,--.--,--.--,--.--,--.--,--.--,--.--,--.--,--.--,100.00,0,0.000,0.000,0.000,0.000,0.000,0.000,0.000,0.000,0.000,0.000,0.000,0.000,false,false,false,false,false,false,false,false,false,false,false,false,--.--,--.--,--.--,--.--,--.--,--.--,--.--,--.--,-16.6954762,-54.6693306,21KYB 48538 52679,0.5,0.1,12.6,3,28,--.--,--.--,,--.--,--.--,--.--,0,0,--.--,--.--,0,1.4,1.5,-7.8,0.1,0.1,-0.4,--.--,--.--,--.--,--.--,--.--,--.--,--.--,--.--,--.--,--.--,--.--,--.--,42.01,39.86,--.--,0,0,1.2,2.5,7.8,0,0,0,180.0,0.0,0.0
2025-01-29 16:35:24.359,-1.5,-2.9,271,0.0,0.0,0.0,0.1,0.6,0.524,0.5,0.2,533.1,-0.300,-0.638,0.042,0.0,00:00:12,0.7,0,--.--,--.--,--.--,12,0000:44:07,0,0,0,49.56,34.98,57,35,98,--.--,--:--:--,1,1733.54,16:35:24,29/01/2025,12.00,--.--,--.--,--.--,--.--,--.--,--.--,--.--,--.--,--.--,--.--,100.00,0,0.000,0.000,0.000,0.000,0.000,0.000,0.000,0.000,0.000,0.000,0.000,0.000,false,false,false,false,false,false,false,false,false,false,false,false,--.--,--.--,--.--,--.--,--.--,--.--,--.--,--.--,-16.6954761,-54.6693294,21KYB 48538 52679,0.5,0.1,94.9,3,28,--.--,--.--,,--.--,--.--,--.--,0,0,--.--,--.--,0,1.4,1.6,-8.0,0.1,0.1,-0.5,--.--,--.--,--.--,--.--,--.--,--.--,--.--,--.--,--.--,--.--,--.--,--.--,42.05,39.84,--.--,0,0,1.7,2.9,7.4,0,0,0,180.0,0.0,0.0
2025-01-29 16:35:25.358,-2.6,-2.4,271,0.0,0.0,0.0,0.1,0.6,0.574,0.6,0.6,533.5,0.120,-0.209,0.015,0.0,00:00:13,0.7,0,--.--,--.--,--.--,12,0000:44:07,0,0,0,49.53,33.98,67,35,98,--.--,--:--:--,1,1683.17,16:35:25,29/01/2025,20.92,--.--,--.--,--.--,--.--,--.--,--.--,--.--,--.--,--.--,--.--,100.00,0,0.000,0.000,0.000,0.000,0.000,0.000,0.000,0.000,0.000,0.000,0.000,0.000,false,false,false,false,false,false,false,false,false,false,false,false,--.--,--.--,--.--,--.--,--.--,--.--,--.--,--.--,-16.6954757,-54.6693290,21KYB 48538 52679,0.5,0.1,54.9,3,28,--.--,--.--,,--.--,--.--,--.--,0,0,--.--,--.--,0,1.4,1.6,-8.4,0.1,-0.0,-0.6,--.--,--.--,--.--,--.--,--.--,--.--,--.--,--.--,--.--,--.--,--.--,--.--,42.06,39.83,--.--,0,0,1.6,3.4,6.8,0,0,0,180.0,0.0,0.0
2025-01-29 16:35:26.361,-1.5,-2.2,271,0.0,0.0,0.0,0.1,0.6,0.601,0.6,1.1,534.0,0.570,0.337,0.062,0.0,00:00:14,0.7,0,--.--,--.--,--.--,12,0000:44:07,0,0,0,49.51,34.98,77,35,98,--.--,--:--:--,1,1731.86,16:35:26,29/01/2025,30.71,--.--,--.--,--.--,--.--,--.--,--.--,--.--,--.--,--.--,--.--,100.00,0,0.000,0.000,0.000,0.000,0.000,0.000,0.000,0.000,0.000,0.000,0.000,0.000,false,false,false,false,false,false,false,false,false,false,false,false,--.--,--.--,--.--,--.--,--.--,--.--,--.--,--.--,-16.6954759,-54.6693295,21KYB 48538 52679,0.5,0.1,201.6,3,28,--.--,--.--,,--.--,--.--,--.--,0,0,--.--,--.--,0,1.4,1.6,-8.9,0.0,-0.1,-0.6,--.--,--.--,--.--,--.--,--.--,--.--,--.--,--.--,--.--,--.--,--.--,--.--,42.09,39.86,--.--,0,0,1.8,2.8,6.4,0,0,0,180.0,0.0,0.0
2025-01-29 16:35:27.365,-1.3,-1.6,271,0.0,0.0,0.0,0.1,0.5,0.566,0.5,1.6,534.4,1.090,0.850,0.092,0.0,00:00:15,0.6,0,--.--,--.--,--.--,11,0000:44:07,0,0,0,49.50,34.98,87,35,98,--.--,--:--:--,1,1731.44,16:35:27,29/01/2025,34.41,--.--,--.--,--.--,--.--,--.--,--.--,--.--,--.--,--.--,--.--,100.00,0,0.000,0.000,0.000,0.000,0.000,0.000,0.000,0.000,0.000,0.000,0.000,0.000,false,false,false,false,false,false,false,false,false,false,false,false,--.--,--.--,--.--,--.--,--.--,--.--,--.--,--.--,-16.6954761,-54.6693299,21KYB 48538 52679,0.5,0.1,116.6,3,28,--.--,--.--,,--.--,--.--,--.--,0,0,--.--,--.--,0,1.4,1.5,-9.4,0.1,-0.0,-0.6,--.--,--.--,--.--,--.--,--.--,--.--,--.--,--.--,--.--,--.--,--.--,--.--,42.04,39.89,--.--,0,0,1.3,3.6,6.1,0,0,0,180.0,0.0,0.0
2025-01-29 16:35:28.360,-1.5,-1.9,271,0.0,0.0,0.0,0.1,0.4,0.409,0.4,2.0,534.9,1.500,1.320,0.088,0.0,00:00:16,0.7,0,--.--,--.--,--.--,12,0000:44:07,0,0,0,49.48,34.98,93,35,98,--.--,--:--:--,1,1730.92,16:35:28,29/01/2025,34.20,--.--,--.--,--.--,--.--,--.--,--.--,--.--,--.--,--.--,--.--,100.00,0,0.000,0.000,0.000,0.000,0.000,0.000,0.000,0.000,0.000,0.000,0.000,0.000,false,false,false,false,false,false,false,false,false,false,false,false,--.--,--.--,--.--,--.--,--.--,--.--,--.--,--.--,-16.6954760,-54.6693299,21KYB 48538 52679,0.5,0.1,30.6,3,28,--.--,--.--,,--.--,--.--,--.--,0,0,--.--,--.--,0,1.4,1.5,-9.8,0.1,-0.0,-0.4,--.--,--.--,--.--,--.--,--.--,--.--,--.--,--.--,--.--,--.--,--.--,--.--,42.07,39.84,--.--,0,0,1.6,1.8,5.6,0,0,0,180.0,0.0,0.0
2025-01-29 16:35:29.366,-2.3,-1.6,271,0.0,0.0,0.0,0.1,0.1,0.096,0.0,2.2,535.1,1.620,1.522,0.019,0.0,00:00:17,0.6,0,--.--,--.--,--.--,12,0000:44:07,0,0,0,49.47,32.98,103,35,98,--.--,--:--:--,1,1631.39,16:35:29,29/01/2025,34.14,--.--,--.--,--.--,--.--,--.--,--.--,--.--,--.--,--.--,--.--,100.00,0,0.000,0.000,0.000,0.000,0.000,0.000,0.000,0.000,0.000,0.000,0.000,0.000,false,false,false,false,false,false,false,false,false,false,false,false,--.--,--.--,--.--,--.--,--.--,--.--,--.--,--.--,-16.6954762,-54.6693298,21KYB 48538 52679,0.5,0.1,165.7,3,28,--.--,--.--,,--.--,--.--,--.--,0,0,--.--,--.--,0,1.4,1.5,-10.0,-0.1,0.0,-0.1,--.--,--.--,--.--,--.--,--.--,--.--,--.--,--.--,--.--,--.--,--.--,--.--,42.05,39.88,--.--,0,0,1.0,2.7,5.0,0,0,0,180.0,0.0,0.0
2025-01-29 16:35:30.358,-1.0,-5.0,271,0.0,0.0,0.0,0.2,0.2,0.154,0.1,2.2,535.1,1.650,1.560,0.109,0.0,00:00:19,0.7,0,--.--,--.--,--.--,12,0000:44:07,0,0,0,49.45,34.98,112,35,98,--.--,--:--:--,1,1729.83,16:35:30,29/01/2025,34.49,--.--,--.--,--.--,--.--,--.--,--.--,--.--,--.--,--.--,--.--,100.00,0,0.000,0.000,0.000,0.000,0.000,0.000,0.000,0.000,0.000,0.000,0.000,0.000,false,false,false,false,false,false,false,false,false,false,false,false,--.--,--.--,--.--,--.--,--.--,--.--,--.--,--.--,-16.6954774,-54.6693295,21KYB 48538 52679,0.5,0.1,215.2,3,28,--.--,--.--,,--.--,--.--,--.--,0,0,--.--,--.--,0,1.2,1.5,-10.0,0.0,-0.1,-0.0,--.--,--.--,--.--,--.--,--.--,--.--,--.--,--.--,--.--,--.--,--.--,--.--,42.05,39.87,--.--,0,0,1.6,3.1,6.4,0,0,0,180.0,0.0,0.0
2025-01-29 16:35:31.367,-1.4,-3.6,271,0.0,0.0,0.0,0.7,0.7,0.627,0.0,2.3,535.1,1.680,1.639,0.084,0.0,00:00:19,0.4,0,--.--,--.--,--.--,12,0000:44:07,0,0,0,49.43,34.98,122,35,98,--.--,--:--:--,1,1728.99,16:35:31,29/01/2025,34.50,--.--,--.--,--.--,--.--,--.--,--.--,--.--,--.--,--.--,--.--,100.00,0,0.000,0.000,0.000,0.000,0.000,0.000,0.000,0.000,0.000,0.000,0.000,0.000,false,false,false,false,false,false,false,false,false,false,false,false,--.--,--.--,--.--,--.--,--.--,--.--,--.--,--.--,-16.6954775,-54.6693327,21KYB 48538 52679,0.5,0.1,273.8,3,28,--.--,--.--,,--.--,--.--,--.--,0,0,--.--,--.--,0,1.2,1.1,-10.1,0.1,-0.6,-0.0,--.--,--.--,--.--,--.--,--.--,--.--,--.--,--.--,--.--,--.--,--.--,--.--,42.11,39.89,--.--,0,0,1.9,3.5,6.4,0,0,0,180.0,0.0,0.0
2025-01-29 16:35:32.359,-1.6,-1.7,271,0.0,0.0,0.0,0.7,0.7,0.693,0.0,2.3,535.1,1.710,1.700,0.044,0.0,00:00:21,0.5,0,--.--,--.--,--.--,12,0000:44:07,0,0,0,49.42,33.98,132,35,98,--.--,--:--:--,1,1679.43,16:35:32,29/01/2025,33.95,--.--,--.--,--.--,--.--,--.--,--.--,--.--,--.--,--.--,--.--,100.00,0,0.000,0.000,0.000,0.000,0.000,0.000,0.000,0.000,0.000,0.000,0.000,0.000,false,false,false,false,false,false,false,false,false,false,false,false,--.--,--.--,--.--,--.--,--.--,--.--,--.--,--.--,-16.6954770,-54.6693387,21KYB 48537 52679,0.5,0.1,275.5,3,28,--.--,--.--,,--.--,--.--,--.--,0,0,--.--,--.--,0,1.3,0.4,-10.1,0.1,-0.7,-0.0,--.--,--.--,--.--,--.--,--.--,--.--,--.--,--.--,--.--,--.--,--.--,--.--,42.09,39.91,--.--,0,0,1.6,3.3,6.1,0,0,0,180.0,0.0,0.0
2025-01-29 16:35:33.365,-1.7,-1.6,271,0.0,0.0,0.0,0.6,0.6,0.637,0.0,2.3,535.2,1.740,1.759,0.026,0.0,00:00:21,1.1,0,--.--,81,--.--,11,0000:44:07,0,0,0,49.41,33.98,142,35,97,--.--,--:--:--,1,1678.88,16:35:33,29/01/2025,33.49,--.--,--.--,--.--,--.--,--.--,--.--,--.--,--.--,--.--,--.--,100.00,0,0.000,0.000,0.000,0.000,0.000,0.000,0.000,0.000,0.000,0.000,0.000,0.000,false,false,false,false,false,false,false,false,false,false,false,false,--.--,--.--,--.--,--.--,--.--,--.--,--.--,--.--,-16.6954764,-54.6693449,21KYB 48537 52679,0.5,0.1,271.3,3,28,--.--,--.--,,--.--,--.--,--.--,0,0,--.--,--.--,0,1.3,-0.2,-10.1,0.0,-0.6,0.0,--.--,--.--,--.--,--.--,--.--,--.--,--.--,--.--,--.--,--.--,--.--,--.--,42.07,39.92,--.--,0,0,2.2,3.7,5.2,0,0,0,180.0,0.0,0.0
2025-01-29 16:35:34.360,-2.0,-3.0,271,0.0,0.0,0.0,0.6,0.6,0.591,-0.0,2.3,535.2,1.750,1.775,0.028,0.0,00:00:22,1.6,0,--.--,84,--.--,12,0000:44:07,0,0,0,49.40,32.98,151,35,97,--.--,--:--:--,1,1629.24,16:35:34,29/01/2025,23.68,--.--,--.--,--.--,--.--,--.--,--.--,--.--,--.--,--.--,--.--,100.00,0,0.000,0.000,0.000,0.000,0.000,0.000,0.000,0.000,0.000,0.000,0.000,0.000,false,false,false,false,false,false,false,false,false,false,false,false,--.--,--.--,--.--,--.--,--.--,--.--,--.--,--.--,-16.6954762,-54.6693500,21KYB 48536 52679,0.5,0.1,273.5,3,28,--.--,--.--,,--.--,--.--,--.--,0,0,--.--,--.--,0,1.3,-0.8,-10.1,0.1,-0.6,0.0,--.--,--.--,--.--,--.--,--.--,--.--,--.--,--.--,--.--,--.--,--.--,--.--,42.09,39.89,--.--,0,0,2.5,3.7,6.8,0,0,0,180.0,0.0,0.0
2025-01-29 16:35:35.357,-2.3,-2.7,271,0.0,0.0,0.0,0.7,0.7,0.720,-0.0,2.4,535.2,1.770,1.818,0.005,2.0,00:00:23,2.3,0,--.--,87,--.--,12,0000:44:07,0,0,0,49.38,33.98,161,35,97,--.--,--:--:--,1,1677.86,16:35:35,29/01/2025,32.05,--.--,--.--,--.--,--.--,--.--,--.--,--.--,--.--,--.--,--.--,100.00,0,0.000,0.000,0.000,0.000,0.000,0.000,0.000,0.000,0.000,0.000,0.000,0.000,false,false,false,false,false,false,false,false,false,false,false,false,--.--,--.--,--.--,--.--,--.--,--.--,--.--,--.--,-16.6954759,-54.6693557,21KYB 48536 52679,0.5,0.1,271.3,3,28,--.--,--.--,,--.--,--.--,--.--,0,0,--.--,--.--,0,1.4,-1.4,-10.2,0.1,-0.7,0.0,--.--,--.--,--.--,--.--,--.--,--.--,--.--,--.--,--.--,--.--,--.--,--.--,42.18,39.92,--.--,0,0,2.2,2.9,6.5,0,0,0,180.0,0.0,0.0
2025-01-29 16:35:36.360,-2.0,-2.2,271,0.0,0.0,0.0,0.7,0.7,0.721,-0.0,2.4,535.2,1.770,1.835,0.039,2.0,00:00:24,3.0,0,--.--,88,--.--,12,0000:44:07,0,0,0,49.36,34.98,171,35,97,--.--,--:--:--,1,1726.54,16:35:36,29/01/2025,31.44,--.--,--.--,--.--,--.--,--.--,--.--,--.--,--.--,--.--,--.--,100.00,0,0.000,0.000,0.000,0.000,0.000,0.000,0.000,0.000,0.000,0.000,0.000,0.000,false,false,false,false,false,false,false,false,false,false,false,false,--.--,--.--,--.--,--.--,--.--,--.--,--.--,--.--,-16.6954761,-54.6693621,21KYB 48535 52679,0.5,0.1,269.0,3,28,--.--,--.--,,--.--,--.--,--.--,0,0,--.--,--.--,0,1.4,-2.1,-10.2,0.0,-0.7,0.0,--.--,--.--,--.--,--.--,--.--,--.--,--.--,--.--,--.--,--.--,--.--,--.--,42.13,39.92,--.--,0,0,1.9,2.7,6.1,0,0,0,180.0,0.0,0.0
2025-01-29 16:35:37.359,-0.7,-3.1,271,0.0,0.0,0.0,0.8,0.8,0.776,-0.0,2.3,535.2,1.760,1.800,0.091,2.0,00:00:25,3.7,0,--.--,88,--.--,12,0000:44:07,0,0,0,49.36,33.98,181,35,97,--.--,--:--:--,1,1677.18,16:35:37,29/01/2025,6.63,--.--,--.--,--.--,--.--,--.--,--.--,--.--,--.--,--.--,--.--,100.00,0,0.000,0.000,0.000,0.000,0.000,0.000,0.000,0.000,0.000,0.000,0.000,0.000,false,false,false,false,false,false,false,false,false,false,false,false,--.--,--.--,--.--,--.--,--.--,--.--,--.--,--.--,-16.6954765,-54.6693683,21KYB 48534 52679,0.5,0.1,269.5,3,28,--.--,--.--,,--.--,--.--,--.--,0,0,--.--,--.--,0,1.3,-2.8,-10.1,0.0,-0.8,0.1,--.--,--.--,--.--,--.--,--.--,--.--,--.--,--.--,--.--,--.--,--.--,--.--,42.14,39.92,--.--,0,0,2.2,3.2,7.0,0,0,0,180.0,0.0,0.0
2025-01-29 16:35:38.357,-2.5,-1.7,271,0.0,0.0,0.0,0.8,0.9,0.855,-0.0,2.3,535.2,1.740,1.759,0.007,4.2,00:00:26,4.5,0,--.--,89,--.--,12,0000:44:07,0,0,0,49.33,33.98,191,35,97,--.--,--:--:--,1,1676.40,16:35:38,29/01/2025,1.83,--.--,--.--,--.--,--.--,--.--,--.--,--.--,--.--,--.--,--.--,100.00,0,0.000,0.000,0.000,0.000,0.000,0.000,0.000,0.000,0.000,0.000,0.000,0.000,false,false,false,false,false,false,false,false,false,false,false,false,--.--,--.--,--.--,--.--,--.--,--.--,--.--,--.--,-16.6954756,-54.6693753,21KYB 48534 52679,0.5,0.1,277.8,3,28,--.--,--.--,,--.--,--.--,--.--,0,0,--.--,--.--,0,1.4,-3.6,-10.1,0.1,-0.9,0.0,--.--,--.--,--.--,--.--,--.--,--.--,--.--,--.--,--.--,--.--,--.--,--.--,42.13,39.94,--.--,0,0,1.7,3.9,6.5,0,0,0,180.0,0.0,0.0
2025-01-29 16:35:39.366,-2.7,-2.1,271,0.0,0.0,0.0,0.7,0.7,0.751,-0.0,2.3,535.2,1.750,1.777,0.017,4.2,00:00:27,5.3,0,--.--,90,--.--,12,0000:44:07,0,0,0,49.32,34.98,201,35,97,--.--,--:--:--,1,1725.35,16:35:39,29/01/2025,2.22,--.--,--.--,--.--,--.--,--.--,--.--,--.--,--.--,--.--,--.--,100.00,0,0.000,0.000,0.000,0.000,0.000,0.000,0.000,0.000,0.000,0.000,0.000,0.000,false,false,false,false,false,false,false,false,false,false,false,false,--.--,--.--,--.--,--.--,--.--,--.--,--.--,--.--,-16.6954750,-54.6693823,21KYB 48533 52679,0.5,0.1,273.4,3,28,--.--,--.--,,--.--,--.--,--.--,0,0,--.--,--.--,0,1.5,-4.4,-10.1,0.1,-0.7,0.0,--.--,--.--,--.--,--.--,--.--,--.--,--.--,--.--,--.--,--.--,--.--,--.--,42.13,39.94,--.--,0,0,2.9,3.7,6.6,0,0,0,180.0,0.0,0.0
2025-01-29 16:35:40.359,-1.7,-2.5,271,0.0,0.0,0.0,0.8,0.8,0.757,-0.0,2.3,535.2,1.750,1.781,0.024,4.2,00:00:29,6.0,0,--.--,90,--.--,12,0000:44:07,0,0,0,49.31,34.98,210,35,96,--.--,--:--:--,1,1724.79,16:35:40,29/01/2025,2.18,--.--,--.--,--.--,--.--,--.--,--.--,--.--,--.--,--.--,--.--,100.00,0,0.000,0.000,0.000,0.000,0.000,0.000,0.000,0.000,0.000,0.000,0.000,0.000,false,false,false,false,false,false,false,false,false,false,false,false,--.--,--.--,--.--,--.--,--.--,--.--,--.--,--.--,-16.6954751,-54.6693888,21KYB 48532 52679,0.5,0.1,267.1,3,28,--.--,--.--,,--.--,--.--,--.--,0,0,--.--,--.--,0,1.5,-5.1,-10.1,-0.0,-0.8,0.0,--.--,--.--,--.--,--.--,--.--,--.--,--.--,--.--,--.--,--.--,--.--,--.--,42.18,39.97,--.--,0,0,1.8,3.1,4.8,0,0,0,180.0,0.0,0.0
2025-01-29 16:35:41.358,-2.0,-1.0,272,0.0,0.0,0.0,0.8,0.8,0.797,-0.0,2.3,535.2,1.760,1.797,0.046,6.2,00:00:29,6.7,0,--.--,90,--.--,12,0000:44:07,0,0,0,49.30,34.98,221,35,96,--.--,--:--:--,1,1724.65,16:35:41,29/01/2025,1.93,--.--,--.--,--.--,--.--,--.--,--.--,--.--,--.--,--.--,--.--,100.00,0,0.000,0.000,0.000,0.000,0.000,0.000,0.000,0.000,0.000,0.000,0.000,0.000,false,false,false,false,false,false,false,false,false,false,false,false,--.--,--.--,--.--,--.--,--.--,--.--,--.--,--.--,-16.6954750,-54.6693958,21KYB 48531 52679,0.5,0.1,273.4,3,28,--.--,--.--,,--.--,--.--,--.--,0,0,--.--,--.--,0,1.5,-5.8,-10.1,0.1,-0.8,-0.0,--.--,--.--,--.--,--.--,--.--,--.--,--.--,--.--,--.--,--.--,--.--,--.--,42.17,39.94,--.--,0,0,2.1,2.1,8.2,0,0,0,180.0,0.0,0.0
2025-01-29 16:35:42.358,-2.9,-2.9,271,0.0,0.0,0.0,0.8,0.8,0.738,-0.0,2.4,535.2,1.760,1.815,0.001,6.2,00:00:30,7.4,0,--.--,90,--.--,12,0000:44:07,0,0,0,49.30,33.98,230,35,96,--.--,--:--:--,1,1675.28,16:35:42,29/01/2025,26.63,--.--,--.--,--.--,--.--,--.--,--.--,--.--,--.--,--.--,--.--,100.00,0,0.000,0.000,0.000,0.000,0.000,0.000,0.000,0.000,0.000,0.000,0.000,0.000,false,false,false,false,false,false,false,false,false,false,false,false,--.--,--.--,--.--,--.--,--.--,--.--,--.--,--.--,-16.6954746,-54.6694025,21KYB 48531 52679,0.5,0.1,274.6,3,28,--.--,--.--,,--.--,--.--,--.--,0,0,--.--,--.--,0,1.5,-6.6,-10.2,0.1,-0.7,0.0,--.--,--.--,--.--,--.--,--.--,--.--,--.--,--.--,--.--,--.--,--.--,--.--,42.21,39.91,--.--,0,0,1.8,3.5,6.5,0,0,0,180.0,0.0,0.0
2025-01-29 16:35:43.360,-1.3,-2.8,271,0.0,0.0,0.0,0.9,0.9,0.873,0.0,2.3,535.2,1.770,1.784,0.043,8.2,00:00:31,8.2,0,--.--,90,--.--,12,0000:44:07,0,0,0,49.30,32.98,235,35,96,--.--,--:--:--,1,1625.95,16:35:43,29/01/2025,26.27,--.--,--.--,--.--,--.--,--.--,--.--,--.--,--.--,--.--,--.--,100.00,0,0.000,0.000,0.000,0.000,0.000,0.000,0.000,0.000,0.000,0.000,0.000,0.000,false,false,false,false,false,false,false,false,false,false,false,false,--.--,--.--,--.--,--.--,--.--,--.--,--.--,--.--,-16.6954743,-54.6694105,21KYB 48530 52679,0.5,0.1,267.0,3,28,--.--,--.--,,--.--,--.--,--.--,0,0,--.--,--.--,0,1.5,-7.3,-10.1,-0.0,-0.9,-0.0,--.--,--.--,--.--,--.--,--.--,--.--,--.--,--.--,--.--,--.--,--.--,--.--,42.22,39.92,--.--,0,0,1.6,2.8,7.2,0,0,0,180.0,0.0,0.0
2025-01-29 16:35:44.359,-1.6,-1.7,271,0.0,0.0,0.0,1.0,1.0,0.997,0.2,2.5,535.3,1.940,1.960,0.047,8.2,00:00:32,9.1,0,--.--,90,--.--,12,0000:44:07,0,0,0,49.27,34.98,244,35,96,--.--,--:--:--,1,1723.64,16:35:44,29/01/2025,25.74,--.--,--.--,--.--,--.--,--.--,--.--,--.--,--.--,--.--,--.--,100.00,0,0.000,0.000,0.000,0.000,0.000,0.000,0.000,0.000,0.000,0.000,0.000,0.000,false,false,false,false,false,false,false,false,false,false,false,false,--.--,--.--,--.--,--.--,--.--,--.--,--.--,--.--,-16.6954741,-54.6694199,21KYB 48529 52679,0.5,0.1,274.9,3,28,--.--,--.--,,--.--,--.--,--.--,0,0,--.--,--.--,0,1.5,-8.3,-10.3,0.1,-1.0,-0.2,--.--,--.--,--.--,--.--,--.--,--.--,--.--,--.--,--.--,--.--,--.--,--.--,42.22,39.94,--.--,0,0,1.6,2.7,6.6,0,0,0,180.0,0.0,0.0
2025-01-29 16:35:45.363,-2.9,-0.2,271,0.0,0.0,0.0,0.9,1.0,0.977,0.2,2.7,535.5,2.130,2.157,0.030,8.2,00:00:33,10.1,0,--.--,91,--.--,12,0000:44:07,0,0,0,49.28,33.98,254,35,96,--.--,--:--:--,1,1674.53,16:35:45,29/01/2025,24.69,--.--,--.--,--.--,--.--,--.--,--.--,--.--,--.--,--.--,--.--,100.00,0,0.000,0.000,0.000,0.000,0.000,0.000,0.000,0.000,0.000,0.000,0.000,0.000,false,false,false,false,false,false,false,false,false,false,false,false,--.--,--.--,--.--,--.--,--.--,--.--,--.--,--.--,-16.6954734,-54.6694296,21KYB 48528 52680,0.5,0.1,272.4,3,28,--.--,--.--,,--.--,--.--,--.--,0,0,--.--,--.--,0,1.7,-9.2,-10.5,0.0,-1.0,-0.2,--.--,--.--,--.--,--.--,--.--,--.--,--.--,--.--,--.--,--.--,--.--,--.--,42.20,39.98,--.--,0,0,2.5,3.8,6.5,0,0,0,180.0,0.0,0.0
2025-01-29 16:35:46.358,-1.8,-1.6,271,0.0,0.0,0.0,0.8,0.8,0.817,0.1,2.9,535.7,2.320,2.364,0.022,10.4,00:00:34,11.0,0,--.--,91,--.--,12,0000:44:07,0,0,0,49.28,32.98,265,35,96,--.--,--:--:--,1,1625.25,16:35:46,29/01/2025,23.79,--.--,--.--,--.--,--.--,--.--,--.--,--.--,--.--,--.--,--.--,100.00,0,0.000,0.000,0.000,0.000,0.000,0.000,0.000,0.000,0.000,0.000,0.000,0.000,false,false,false,false,false,false,false,false,false,false,false,false,--.--,--.--,--.--,--.--,--.--,--.--,--.--,--.--,-16.6954736,-54.6694382,21KYB 48527 52680,0.5,0.1,270.3,3,28,--.--,--.--,,--.--,--.--,--.--,0,0,--.--,--.--,0,1.6,-10.1,-10.7,0.0,-0.8,-0.1,--.--,--.--,--.--,--.--,--.--,--.--,--.--,--.--,--.--,--.--,--.--,--.--,42.21,39.93,--.--,0,0,2.1,3.3,7.6,0,0,0,180.0,0.0,0.0
2025-01-29 16:35:47.357,-4.2,-3.4,272,0.0,0.0,0.0,0.8,0.8,0.807,0.0,3.1,536.0,2.540,2.590,0.064,10.4,00:00:35,11.8,0,--.--,91,--.--,12,0000:44:07,0,0,0,49.25,33.98,274,35,96,--.--,--:--:--,1,1673.58,16:35:47,29/01/2025,22.82,--.--,--.--,--.--,--.--,--.--,--.--,--.--,--.--,--.--,--.--,100.00,0,0.000,0.000,0.000,0.000,0.000,0.000,0.000,0.000,0.000,0.000,0.000,0.000,false,false,false,false,false,false,false,false,false,false,false,false,--.--,--.--,--.--,--.--,--.--,--.--,--.--,--.--,-16.6954728,-54.6694458,21KYB 48526 52680,0.5,0.1,280.5,3,28,--.--,--.--,,--.--,--.--,--.--,0,0,--.--,--.--,0,1.7,-10.9,-10.9,0.1,-0.8,-0.2,--.--,--.--,--.--,--.--,--.--,--.--,--.--,--.--,--.--,--.--,--.--,--.--,42.29,39.93,--.--,0,0,2.4,3.0,7.4,0,0,0,180.0,0.0,0.0
2025-01-29 16:35:48.359,-4.1,-2.9,272,0.0,0.0,0.0,1.0,1.0,1.023,-0.1,3.1,536.0,2.520,2.549,0.103,12.7,00:00:36,12.7,0,--.--,91,--.--,12,0000:44:07,0,0,0,49.23,33.98,284,35,96,--.--,--:--:--,1,1673.01,16:35:48,29/01/2025,21.58,--.--,--.--,--.--,--.--,--.--,--.--,--.--,--.--,--.--,--.--,100.00,0,0.000,0.000,0.000,0.000,0.000,0.000,0.000,0.000,0.000,0.000,0.000,0.000,false,false,false,false,false,false,false,false,false,false,false,false,--.--,--.--,--.--,--.--,--.--,--.--,--.--,--.--,-16.6954722,-54.6694542,21KYB 48525 52680,0.5,0.1,271.8,3,28,--.--,--.--,,--.--,--.--,--.--,0,0,--.--,--.--,0,1.8,-11.8,-10.9,0.0,-1.0,0.0,--.--,--.--,--.--,--.--,--.--,--.--,--.--,--.--,--.--,--.--,--.--,--.--,42.27,39.93,--.--,0,0,2.9,2.9,8.1,0,0,0,180.0,0.0,0.0
2025-01-29 16:35:49.366,-2.7,-1.5,271,0.0,0.0,0.0,1.0,1.0,1.016,0.0,3.1,536.0,2.500,2.516,0.034,12.7,00:00:37,13.8,0,--.--,91,--.--,12,0000:44:07,0,0,0,49.19,36.98,294,35,96,--.--,--:--:--,1,1819.16,16:35:49,29/01/2025,19.61,--.--,--.--,--.--,--.--,--.--,--.--,--.--,--.--,--.--,--.--,100.00,0,0.000,0.000,0.000,0.000,0.000,0.000,0.000,0.000,0.000,0.000,0.000,0.000,false,false,false,false,false,false,false,false,false,false,false,false,--.--,--.--,--.--,--.--,--.--,--.--,--.--,--.--,-16.6954723,-54.6694639,21KYB 48524 52680,0.5,0.1,268.1,3,28,--.--,--.--,,--.--,--.--,--.--,0,0,--.--,--.--,0,1.8,-12.9,-10.9,-0.0,-1.0,0.0,--.--,--.--,--.--,--.--,--.--,--.--,--.--,--.--,--.--,--.--,--.--,--.--,42.29,39.97,--.--,0,0,2.5,2.8,9.2,0,0,0,180.0,0.0,0.0
2025-01-29 16:35:50.358,-4.5,-2.5,259,0.0,0.0,0.0,0.9,0.9,0.930,-0.0,3.1,535.9,2.490,2.496,0.018,14.7,00:00:39,14.7,0,--.--,91,--.--,12,0000:44:07,0,0,0,49.19,34.98,304,35,96,--.--,--:--:--,1,1720.56,16:35:50,29/01/2025,21.45,--.--,--.--,--.--,--.--,--.--,--.--,--.--,--.--,--.--,--.--,100.00,0,0.000,0.000,0.000,0.000,0.000,0.000,0.000,0.000,0.000,0.000,0.000,0.000,false,false,false,false,false,false,false,false,false,false,false,false,--.--,--.--,--.--,--.--,--.--,--.--,--.--,--.--,-16.6954725,-54.6694730,21KYB 48523 52680,0.5,0.1,265.8,3,28,--.--,--.--,,--.--,--.--,--.--,0,0,--.--,--.--,0,1.8,-13.8,-10.9,-0.0,-0.9,0.0,--.--,--.--,--.--,--.--,--.--,--.--,--.--,--.--,--.--,--.--,--.--,--.--,42.30,39.97,--.--,0,0,1.9,2.6,7.9,0,0,0,180.0,0.0,0.0
2025-01-29 16:35:51.363,-3.9,-3.0,251,0.0,0.0,0.0,1.0,1.0,0.969,-0.0,3.1,535.9,2.480,2.478,0.055,14.7,00:00:39,15.6,0,--.--,90,--.--,12,0000:44:07,0,0,0,49.19,34.98,314,35,96,--.--,--:--:--,1,1720.74,16:35:51,29/01/2025,21.58,--.--,--.--,--.--,--.--,--.--,--.--,--.--,--.--,--.--,--.--,100.00,0,0.000,0.000,0.000,0.000,0.000,0.000,0.000,0.000,0.000,0.000,0.000,0.000,false,false,false,false,false,false,false,false,false,false,false,false,--.--,--.--,--.--,--.--,--.--,--.--,--.--,--.--,-16.6954742,-54.6694822,21KYB 48522 52680,0.5,0.1,255.7,3,28,--.--,--.--,,--.--,--.--,--.--,0,0,--.--,--.--,0,1.6,-14.8,-10.9,-0.2,-0.9,0.0,--.--,--.--,--.--,--.--,--.--,--.--,--.--,--.--,--.--,--.--,--.--,--.--,42.32,39.97,--.--,0,0,3.0,3.1,7.2,0,0,0,180.0,0.0,0.0
2025-01-29 16:35:52.357,-3.5,-3.3,252,0.0,0.0,0.0,1.0,1.0,0.978,-0.0,3.1,535.9,2.490,2.492,0.088,14.7,00:00:40,16.6,0,--.--,89,--.--,11,0000:44:07,0,0,0,49.19,34.98,324,35,96,--.--,--:--:--,1,1720.56,16:35:52,29/01/2025,20.51,--.--,--.--,--.--,--.--,--.--,--.--,--.--,--.--,--.--,--.--,100.00,0,0.000,0.000,0.000,0.000,0.000,0.000,0.000,0.000,0.000,0.000,0.000,0.000,false,false,false,false,false,false,false,false,false,false,false,false,--.--,--.--,--.--,--.--,--.--,--.--,--.--,--.--,-16.6954770,-54.6694917,21KYB 48521 52679,0.5,0.1,252.0,3,28,--.--,--.--,,--.--,--.--,--.--,0,0,--.--,--.--,0,1.3,-15.7,-10.9,-0.3,-0.9,-0.0,--.--,--.--,--.--,--.--,--.--,--.--,--.--,--.--,--.--,--.--,--.--,--.--,42.34,40.00,--.--,0,0,2.3,3.7,10.8,0,0,0,180.0,0.0,0.0
2025-01-29 16:35:53.359,-2.6,-3.0,252,0.0,0.0,0.0,1.2,1.2,1.155,-0.0,3.1,535.9,2.470,2.452,0.112,17.0,00:00:41,17.6,0,--.--,88,--.--,11,0000:44:07,0,0,0,49.21,31.99,334,35,96,--.--,--:--:--,1,1574.20,16:35:53,29/01/2025,19.59,--.--,--.--,--.--,--.--,--.--,--.--,--.--,--.--,--.--,--.--,100.00,0,0.000,0.000,0.000,0.000,0.000,0.000,0.000,0.000,0.000,0.000,0.000,0.000,false,false,false,false,false,false,false,false,false,false,false,false,--.--,--.--,--.--,--.--,--.--,--.--,--.--,--.--,-16.6954782,-54.6694957,21KYB 48521 52679,0.5,0.1,251.0,3,28,--.--,--.--,,--.--,--.--,--.--,0,0,--.--,--.--,0,1.0,-16.7,-10.9,-0.4,-1.1,-0.0,--.--,--.--,--.--,--.--,--.--,--.--,--.--,--.--,--.--,--.--,--.--,--.--,42.29,40.03,--.--,0,0,2.3,2.9,8.7,0,0,0,180.0,0.0,0.0
2025-01-29 16:35:54.359,-2.8,-1.6,252,0.0,0.0,0.0,1.1,1.1,1.161,0.0,3.0,535.9,2.410,2.337,0.076,17.0,00:00:42,18.7,0,--.--,87,--.--,12,0000:44:07,0,0,0,49.16,35.98,343,35,96,--.--,--:--:--,1,1768.88,16:35:54,29/01/2025,18.44,--.--,--.--,--.--,--.--,--.--,--.--,--.--,--.--,--.--,--.--,100.00,0,0.000,0.000,0.000,0.000,0.000,0.000,0.000,0.000,0.000,0.000,0.000,0.000,false,false,false,false,false,false,false,false,false,false,false,false,--.--,--.--,--.--,--.--,--.--,--.--,--.--,--.--,-16.6954832,-54.6695119,21KYB 48519 52679,0.5,0.1,255.9,3,28,--.--,--.--,,--.--,--.--,--.--,0,0,--.--,--.--,0,0.6,-17.8,-10.8,-0.3,-1.1,-0.0,--.--,--.--,--.--,--.--,--.--,--.--,--.--,--.--,--.--,--.--,--.--,--.--,42.32,39.98,--.--,0,0,2.5,3.5,7.1,0,0,0,180.0,0.0,0.0
2025-01-29 16:35:55.358,-0.8,-1.4,252,0.0,0.0,0.0,1.2,1.2,1.185,0.0,3.0,535.9,2.420,2.355,0.136,19.3,00:00:43,19.8,0,--.--,86,--.--,12,0000:44:07,0,0,0,49.13,38.98,353,35,96,--.--,--:--:--,1,1915.05,16:35:55,29/01/2025,17.31,--.--,--.--,--.--,--.--,--.--,--.--,--.--,--.--,--.--,--.--,100.00,0,0.000,0.000,0.000,0.000,0.000,0.000,0.000,0.000,0.000,0.000,0.000,0.000,false,false,false,false,false,false,false,false,false,false,false,false,--.--,--.--,--.--,--.--,--.--,--.--,--.--,--.--,-16.6954871,-54.6695210,21KYB 48518 52678,0.5,0.1,248.0,3,28,--.--,--.--,,--.--,--.--,--.--,0,0,--.--,--.--,0,0.3,-18.9,-10.8,-0.4,-1.1,-0.0,--.--,--.--,--.--,--.--,--.--,--.--,--.--,--.--,--.--,--.--,--.--,--.--,42.29,39.98,--.--,0,0,0.9,3.4,4.9,0,0,0,180.0,0.0,0.0
2025-01-29 16:35:56.357,0.5,-1.2,252,0.0,0.0,0.0,1.1,1.1,1.090,0.0,3.0,535.8,2.390,2.297,0.221,19.3,00:00:44,20.9,0,--.--,85,--.--,12,0000:44:07,0,0,0,49.13,35.98,365,35,96,--.--,--:--:--,1,1767.88,16:35:56,29/01/2025,16.12,--.--,--.--,--.--,--.--,--.--,--.--,--.--,--.--,--.--,--.--,100.00,0,0.000,0.000,0.000,0.000,0.000,0.000,0.000,0.000,0.000,0.000,0.000,0.000,false,false,false,false,false,false,false,false,false,false,false,false,--.--,--.--,--.--,--.--,--.--,--.--,--.--,--.--,-16.6954916,-54.6695315,21KYB 48517 52678,0.5,0.1,249.6,3,28,--.--,--.--,,--.--,--.--,--.--,0,0,--.--,--.--,0,-0.2,-20.0,-10.8,-0.3,-1.0,-0.0,--.--,--.--,--.--,--.--,--.--,--.--,--.--,--.--,--.--,--.--,--.--,--.--,42.36,40.01,--.--,0,0,1.7,2.1,5.7,0,0,0,180.0,0.0,0.0
2025-01-29 16:35:57.363,-2.4,-2.3,252,0.0,0.0,0.0,1.1,1.1,1.122,0.1,2.9,535.8,2.310,2.137,0.070,21.5,00:00:45,22.0,0,--.--,85,--.--,13,0000:44:07,0,0,0,49.12,34.98,375,35,96,--.--,--:--:--,1,1718.29,16:35:57,29/01/2025,15.07,--.--,--.--,--.--,--.--,--.--,--.--,--.--,--.--,--.--,--.--,100.00,0,0.000,0.000,0.000,0.000,0.000,0.000,0.000,0.000,0.000,0.000,0.000,0.000,false,false,false,false,false,false,false,false,false,false,false,false,--.--,--.--,--.--,--.--,--.--,--.--,--.--,--.--,-16.6954939,-54.6695407,21KYB 48516 52677,0.5,0.1,263.6,3,28,--.--,--.--,,--.--,--.--,--.--,0,0,--.--,--.--,0,-0.4,-21.0,-10.7,-0.1,-1.1,-0.1,--.--,--.--,--.--,--.--,--.--,--.--,--.--,--.--,--.--,--.--,--.--,--.--,42.31,40.01,--.--,0,0,1.4,2.8,4.5,0,0,0,180.0,0.0,0.0
2025-01-29 16:35:58.357,-3.6,0.3,252,0.0,0.0,0.0,1.1,1.1,1.122,0.1,2.9,535.7,2.270,2.057,0.069,21.5,00:00:46,23.1,0,--.--,85,--.--,12,0000:44:07,0,0,0,49.08,38.98,385,35,96,--.--,--:--:--,1,1913.22,16:35:58,29/01/2025,14.04,--.--,--.--,--.--,--.--,--.--,--.--,--.--,--.--,--.--,--.--,100.00,0,0.000,0.000,0.000,0.000,0.000,0.000,0.000,0.000,0.000,0.000,0.000,0.000,false,false,false,false,false,false,false,false,false,false,false,false,--.--,--.--,--.--,--.--,--.--,--.--,--.--,--.--,-16.6954958,-54.6695509,21KYB 48515 52677,0.5,0.1,258.6,3,28,--.--,--.--,,--.--,--.--,--.--,0,0,--.--,--.--,0,-0.6,-22.2,-10.7,-0.2,-1.1,-0.1,--.--,--.--,--.--,--.--,--.--,--.--,--.--,--.--,--.--,--.--,--.--,--.--,42.36,40.01,--.--,0,0,1.5,2.1,4.5,0,0,0,180.0,0.0,0.0
2025-01-29 16:35:59.358,-1.8,7.0,252,0.0,0.0,0.0,0.1,0.2,0.222,0.1,2.8,535.7,2.250,2.017,0.014,23.8,00:00:47,23.9,0,--.--,84,--.--,12,0000:44:07,0,0,0,49.12,36.98,391,35,96,--.--,--:--:--,1,1816.35,16:35:59,29/01/2025,12.92,--.--,--.--,--.--,--.--,--.--,--.--,--.--,--.--,--.--,--.--,100.00,0,0.000,0.000,0.000,0.000,0.000,0.000,0.000,0.000,0.000,0.000,0.000,0.000,false,false,false,false,false,false,false,false,false,false,false,false,--.--,--.--,--.--,--.--,--.--,--.--,--.--,--.--,-16.6954981,-54.6695574,21KYB 48514 52677,0.5,0.1,243.2,3,27,--.--,--.--,,--.--,--.--,--.--,0,0,--.--,--.--,0,-0.9,-23.0,-10.6,-0.2,-0.3,-0.1,--.--,--.--,--.--,--.--,--.--,--.--,--.--,--.--,--.--,--.--,--.--,--.--,42.36,40.01,--.--,0,0,1.6,2.2,7.0,0,0,0,180.0,0.0,0.0
2025-01-29 16:36:00.358,0.0,-4.2,252,0.0,0.0,0.0,0.2,0.3,0.315,-0.3,2.8,535.7,2.200,2.051,0.158,23.8,00:00:48,23.6,0,--.--,84,--.--,10,0000:44:07,0,0,0,49.09,35.98,401,35,96,--.--,--:--:--,1,1766.29,16:36:00,29/01/2025,12.61,--.--,--.--,--.--,--.--,--.--,--.--,--.--,--.--,--.--,--.--,100.00,0,0.000,0.000,0.000,0.000,0.000,0.000,0.000,0.000,0.000,0.000,0.000,0.000,false,false,false,false,false,false,false,false,false,false,false,false,--.--,--.--,--.--,--.--,--.--,--.--,--.--,--.--,-16.6954987,-54.6695563,21KYB 48514 52677,0.5,0.1,95.2,3,27,--.--,--.--,,--.--,--.--,--.--,0,0,--.--,--.--,0,-0.9,-22.6,-10.6,0.0,0.3,0.0,--.--,--.--,--.--,--.--,--.--,--.--,--.--,--.--,--.--,--.--,--.--,--.--,42.37,39.99,--.--,0,0,2.8,1.4,4.2,0,0,0,180.0,0.0,0.0
2025-01-29 16:36:01.360,-1.0,-1.0,251,0.0,0.0,0.0,0.3,0.7,0.675,-0.6,2.3,535.1,1.520,1.382,0.130,23.8,00:00:49,23.7,0,--.--,84,--.--,11,0000:44:07,0,0,0,49.17,29.99,411,35,96,--.--,--:--:--,1,1474.52,16:36:01,29/01/2025,12.83,--.--,--.--,--.--,--.--,--.--,--.--,--.--,--.--,--.--,--.--,100.00,0,0.000,0.000,0.000,0.000,0.000,0.000,0.000,0.000,0.000,0.000,0.000,0.000,false,false,false,false,false,false,false,false,false,false,false,false,--.--,--.--,--.--,--.--,--.--,--.--,--.--,--.--,-16.6954987,-54.6695573,21KYB 48514 52677,0.5,0.1,274.3,3,28,--.--,--.--,,--.--,--.--,--.--,0,0,--.--,--.--,0,-0.9,-22.7,-10.1,0.1,-0.2,0.7,--.--,--.--,--.--,--.--,--.--,--.--,--.--,--.--,--.--,--.--,--.--,--.--,42.43,40.04,--.--,0,0,2.8,2.5,7.4,0,0,0,180.0,0.0,0.0
2025-01-29 16:36:02.359,-2.8,-0.1,251,0.0,0.0,0.0,0.1,0.6,0.632,-0.6,1.6,534.5,0.870,0.757,0.005,23.8,00:00:50,24.0,0,--.--,84,--.--,11,0000:44:07,0,0,0,49.13,32.98,420,35,96,--.--,--:--:--,1,1620.18,16:36:02,29/01/2025,12.59,--.--,--.--,--.--,--.--,--.--,--.--,--.--,--.--,--.--,--.--,100.00,0,0.000,0.000,0.000,0.000,0.000,0.000,0.000,0.000,0.000,0.000,0.000,0.000,false,false,false,false,false,false,false,false,false,false,false,false,--.--,--.--,--.--,--.--,--.--,--.--,--.--,--.--,-16.6954979,-54.6695599,21KYB 48514 52677,0.5,0.1,278.9,3,28,--.--,--.--,,--.--,--.--,--.--,0,0,--.--,--.--,0,-0.9,-23.0,-9.4,0.1,-0.2,0.6,--.--,--.--,--.--,--.--,--.--,--.--,--.--,--.--,--.--,--.--,--.--,--.--,42.34,40.03,--.--,0,0,3.9,3.4,7.3,0,0,0,180.0,0.0,0.0
2025-01-29 16:36:03.359,-2.0,-0.8,252,0.0,0.0,0.0,0.1,0.8,0.731,-0.7,0.9,533.7,0.130,0.072,0.024,23.8,00:00:51,24.1,0,--.--,84,--.--,12,0000:44:07,0,0,0,49.12,32.98,429,35,96,--.--,--:--:--,1,1620.14,16:36:03,29/01/2025,12.51,--.--,--.--,--.--,--.--,--.--,--.--,--.--,--.--,--.--,--.--,100.00,0,0.000,0.000,0.000,0.000,0.000,0.000,0.000,0.000,0.000,0.000,0.000,0.000,false,false,false,false,false,false,false,false,false,false,false,false,--.--,--.--,--.--,--.--,--.--,--.--,--.--,--.--,-16.6954976,-54.6695608,21KYB 48514 52677,0.5,0.1,318.9,3,28,--.--,--.--,,--.--,--.--,--.--,0,0,--.--,--.--,0,-0.9,-23.1,-8.7,0.0,-0.0,0.7,--.--,--.--,--.--,--.--,--.--,--.--,--.--,--.--,--.--,--.--,--.--,--.--,42.38,40.05,--.--,0,0,2.8,2.3,6.0,0,0,0,180.0,0.0,0.0
2025-01-29 16:36:04.362,-2.0,-0.5,252,0.0,0.0,0.0,0.1,0.7,0.723,-0.7,0.1,533.0,-0.590,-0.600,0.048,23.8,00:00:52,24.1,0,--.--,84,--.--,12,0000:44:07,0,0,0,49.10,33.98,439,35,96,--.--,--:--:--,1,1668.28,16:36:04,29/01/2025,12.48,--.--,--.--,--.--,--.--,--.--,--.--,--.--,--.--,--.--,--.--,100.00,0,0.000,0.000,0.000,0.000,0.000,0.000,0.000,0.000,0.000,0.000,0.000,0.000,false,false,false,false,false,false,false,false,false,false,false,false,--.--,--.--,--.--,--.--,--.--,--.--,--.--,--.--,-16.6954974,-54.6695624,21KYB 48514 52677,0.5,0.1,278.2,3,27,--.--,--.--,,--.--,--.--,--.--,0,0,--.--,--.--,0,-0.9,-23.1,-7.9,0.0,-0.1,0.7,--.--,--.--,--.--,--.--,--.--,--.--,--.--,--.--,--.--,--.--,--.--,--.--,42.34,40.06,--.--,0,0,2.0,1.7,8.3,0,0,0,180.0,0.0,0.0
2025-01-29 16:36:05.366,-4.2,-0.3,251,0.0,0.0,0.0,0.0,0.7,0.679,-0.7,-0.6,532.3,-1.290,-1.262,0.120,23.8,00:00:54,24.2,0,--.--,84,--.--,12,0000:44:07,0,0,0,49.09,34.98,448,35,96,--.--,--:--:--,1,1717.17,16:36:05,29/01/2025,1.52,--.--,--.--,--.--,--.--,--.--,--.--,--.--,--.--,--.--,--.--,100.00,0,0.000,0.000,0.000,0.000,0.000,0.000,0.000,0.000,0.000,0.000,0.000,0.000,false,false,false,false,false,false,false,false,false,false,false,false,--.--,--.--,--.--,--.--,--.--,--.--,--.--,--.--,-16.6954968,-54.6695637,21KYB 48513 52677,0.5,0.1,318.2,3,27,--.--,--.--,,--.--,--.--,--.--,0,0,--.--,--.--,0,-0.8,-23.2,-7.2,0.0,-0.0,0.7,--.--,--.--,--.--,--.--,--.--,--.--,--.--,--.--,--.--,--.--,--.--,--.--,42.45,40.04,--.--,0,0,2.2,2.7,8.2,0,0,0,180.0,0.0,0.0
2025-01-29 16:36:06.357,-2.6,1.3,251,0.0,0.0,0.0,0.1,0.7,0.721,-0.7,-1.3,531.6,-1.990,-1.929,0.094,23.8,00:00:54,24.3,0,--.--,84,--.--,12,0000:44:07,0,0,0,49.09,32.98,458,35,96,--.--,--:--:--,1,1618.96,16:36:06,29/01/2025,10.76,--.--,--.--,--.--,--.--,--.--,--.--,--.--,--.--,--.--,--.--,100.00,0,0.000,0.000,0.000,0.000,0.000,0.000,0.000,0.000,0.000,0.000,0.000,0.000,false,false,false,false,false,false,false,false,false,false,false,false,--.--,--.--,--.--,--.--,--.--,--.--,--.--,--.--,-16.6954976,-54.6695647,21KYB 48513 52677,0.6,0.1,196.6,3,26,--.--,--.--,,--.--,--.--,--.--,0,0,--.--,--.--,0,-0.9,-23.3,-6.5,-0.1,-0.0,0.7,--.--,--.--,--.--,--.--,--.--,--.--,--.--,--.--,--.--,--.--,--.--,--.--,42.41,40.04,--.--,0,0,3.3,2.4,8.7,0,0,0,180.0,0.0,0.0
2025-01-29 16:36:07.359,-2.8,-0.1,252,0.0,0.0,0.0,0.1,0.5,0.591,-0.5,-1.9,531.0,-2.610,-2.534,0.076,23.8,00:00:55,24.3,0,--.--,84,--.--,13,0000:44:07,0,0,0,49.06,35.98,468,35,96,--.--,--:--:--,1,1765.29,16:36:07,29/01/2025,12.30,--.--,--.--,--.--,--.--,--.--,--.--,--.--,--.--,--.--,--.--,100.00,0,0.000,0.000,0.000,0.000,0.000,0.000,0.000,0.000,0.000,0.000,0.000,0.000,false,false,false,false,false,false,false,false,false,false,false,false,--.--,--.--,--.--,--.--,--.--,--.--,--.--,--.--,-16.6954980,-54.6695644,21KYB 48513 52677,0.6,0.1,86.9,3,26,--.--,--.--,,--.--,--.--,--.--,0,0,--.--,--.--,0,-1.0,-23.3,-5.9,0.0,0.1,0.6,--.--,--.--,--.--,--.--,--.--,--.--,--.--,--.--,--.--,--.--,--.--,--.--,42.48,40.01,--.--,0,0,1.8,2.0,8.5,0,0,0,180.0,0.0,0.0
2025-01-29 16:36:08.358,-3.0,0.4,252,0.0,0.0,0.0,0.1,0.3,0.209,-0.3,-2.1,530.7,-2.760,-2.673,0.068,23.8,00:00:56,24.2,0,--.--,84,--.--,11,0000:44:07,0,0,0,49.03,36.98,478,35,96,--.--,--:--:--,1,1813.31,16:36:08,29/01/2025,7.72,--.--,--.--,--.--,--.--,--.--,--.--,--.--,--.--,--.--,--.--,100.00,0,0.000,0.000,0.000,0.000,0.000,0.000,0.000,0.000,0.000,0.000,0.000,0.000,false,false,false,false,false,false,false,false,false,false,false,false,--.--,--.--,--.--,--.--,--.--,--.--,--.--,--.--,-16.6954981,-54.6695641,21KYB 48513 52677,0.6,0.1,72.1,3,26,--.--,--.--,,--.--,--.--,--.--,0,0,--.--,--.--,0,-1.0,-23.2,-5.7,0.0,0.1,0.1,--.--,--.--,--.--,--.--,--.--,--.--,--.--,--.--,--.--,--.--,--.--,--.--,42.41,40.01,--.--,0,0,2.2,2.4,8.2,0,0,0,180.0,0.0,0.0
2025-01-29 16:36:09.362,-2.3,0.1,251,0.0,0.0,0.0,0.1,0.4,0.421,-0.4,-2.5,530.4,-3.160,-3.075,0.035,23.8,00:00:57,24.2,0,--.--,84,--.--,12,0000:44:07,0,0,0,49.10,30.99,489,35,96,--.--,--:--:--,1,1521.61,16:36:09,29/01/2025,4.21,--.--,--.--,--.--,--.--,--.--,--.--,--.--,--.--,--.--,--.--,100.00,0,0.000,0.000,0.000,0.000,0.000,0.000,0.000,0.000,0.000,0.000,0.000,0.000,false,false,false,false,false,false,false,false,false,false,false,false,--.--,--.--,--.--,--.--,--.--,--.--,--.--,--.--,-16.6954981,-54.6695638,21KYB 48513 52677,0.6,0.1,100.4,3,26,--.--,--.--,,--.--,--.--,--.--,0,0,--.--,--.--,0,-1.0,-23.2,-5.3,-0.0,0.1,0.5,--.--,--.--,--.--,--.--,--.--,--.--,--.--,--.--,--.--,--.--,--.--,--.--,42.44,40.00,--.--,0,0,1.9,2.1,7.5,0,0,0,180.0,0.0,0.0
2025-01-29 16:36:10.359,-2.6,-0.3,251,0.0,0.0,0.0,0.0,0.4,0.405,-0.4,-2.9,530.0,-3.560,-3.477,0.033,23.8,00:00:58,24.2,0,--.--,84,--.--,12,0000:44:07,0,0,0,49.06,32.98,498,35,96,--.--,--:--:--,1,1618.13,16:36:10,29/01/2025,2.78,--.--,--.--,--.--,--.--,--.--,--.--,--.--,--.--,--.--,--.--,100.00,0,0.000,0.000,0.000,0.000,0.000,0.000,0.000,0.000,0.000,0.000,0.000,0.000,false,false,false,false,false,false,false,false,false,false,false,false,--.--,--.--,--.--,--.--,--.--,--.--,--.--,--.--,-16.6954982,-54.6695635,21KYB 48513 52677,0.6,0.1,73.0,3,26,--.--,--.--,,--.--,--.--,--.--,0,0,--.--,--.--,0,-1.0,-23.2,-4.9,0.0,0.0,0.4,--.--,--.--,--.--,--.--,--.--,--.--,--.--,--.--,--.--,--.--,--.--,--.--,42.51,40.04,--.--,0,0,1.9,1.7,7.7,0,0,0,180.0,0.0,0.0
2025-01-29 16:36:11.356,-2.8,0.2,251,0.0,0.0,0.0,0.1,0.2,0.189,-0.2,-3.1,529.8,-3.690,-3.597,0.016,23.8,00:00:59,24.2,0,--.--,84,--.--,11,0000:44:07,0,0,0,49.07,32.98,507,35,96,--.--,--:--:--,1,1618.26,16:36:11,29/01/2025,2.06,--.--,--.--,--.--,--.--,--.--,--.--,--.--,--.--,--.--,--.--,100.00,0,0.000,0.000,0.000,0.000,0.000,0.000,0.000,0.000,0.000,0.000,0.000,0.000,false,false,false,false,false,false,false,false,false,false,false,false,--.--,--.--,--.--,--.--,--.--,--.--,--.--,--.--,-16.6954979,-54.6695632,21KYB 48513 52677,0.6,0.1,39.6,3,26,--.--,--.--,,--.--,--.--,--.--,0,0,--.--,--.--,0,-1.0,-23.2,-4.7,0.0,0.0,0.2,--.--,--.--,--.--,--.--,--.--,--.--,--.--,--.--,--.--,--.--,--.--,--.--,42.45,40.03,--.--,0,0,2.7,1.9,6.8,0,0,0,180.0,0.0,0.0
2025-01-29 16:36:12.357,-3.8,-0.9,251,0.0,0.0,0.0,0.0,0.2,0.263,-0.2,-3.3,529.5,-3.970,-3.896,0.046,23.8,00:01:00,24.1,0,--.--,84,--.--,12,0000:44:07,0,0,0,49.08,28.99,516,35,96,--.--,--:--:--,1,1422.77,16:36:12,29/01/2025,1.86,--.--,--.--,--.--,--.--,--.--,--.--,--.--,--.--,--.--,--.--,100.00,0,0.000,0.000,0.000,0.000,0.000,0.000,0.000,0.000,0.000,0.000,0.000,0.000,false,false,false,false,false,false,false,false,false,false,false,false,--.--,--.--,--.--,--.--,--.--,--.--,--.--,--.--,-16.6954976,-54.6695625,21KYB 48514 52677,0.6,0.1,78.2,3,26,--.--,--.--,,--.--,--.--,--.--,0,0,--.--,--.--,0,-0.9,-23.2,-4.5,0.0,0.0,0.3,--.--,--.--,--.--,--.--,--.--,--.--,--.--,--.--,--.--,--.--,--.--,--.--,42.50,40.03,--.--,0,0,3.7,2.3,10.0,0,0,0,180.0,0.0,0.0
2025-01-29 16:36:13.357,-1.8,-0.5,251,0.0,0.0,0.0,0.1,0.2,0.094,-0.2,-3.4,529.4,-4.030,-3.985,0.000,23.8,00:01:01,24.1,0,--.--,84,--.--,9,0000:44:07,0,0,0,49.06,32.98,525,35,96,--.--,--:--:--,1,1617.87,16:36:13,29/01/2025,1.61,--.--,--.--,--.--,--.--,--.--,--.--,--.--,--.--,--.--,--.--,100.00,0,0.000,0.000,0.000,0.000,0.000,0.000,0.000,0.000,0.000,0.000,0.000,0.000,false,false,false,false,false,false,false,false,false,false,false,false,--.--,--.--,--.--,--.--,--.--,--.--,--.--,--.--,-16.6954981,-54.6695626,21KYB 48513 52677,0.6,0.1,164.1,3,26,--.--,--.--,,--.--,--.--,--.--,0,0,--.--,--.--,0,-1.0,-23.2,-4.4,-0.1,0.0,-0.0,--.--,--.--,--.--,--.--,--.--,--.--,--.--,--.--,--.--,--.--,--.--,--.--,42.50,40.03,--.--,0,0,2.0,2.0,4.6,0,0,0,180.0,0.0,0.0
2025-01-29 16:36:14.357,-0.8,1.0,250,0.0,0.0,0.0,0.0,0.0,0.034,0.0,-3.5,529.3,-4.100,-3.670,0.000,23.8,00:01:02,24.1,0,--.--,84,--.--,0,0000:44:07,0,0,0,49.15,22.99,534,35,96,--.--,--:--:--,1,1129.89,16:36:14,29/01/2025,1.54,--.--,--.--,--.--,--.--,--.--,--.--,--.--,--.--,--.--,--.--,100.00,0,0.000,0.000,0.000,0.000,0.000,0.000,0.000,0.000,0.000,0.000,0.000,0.000,false,false,false,false,false,false,false,false,false,false,false,false,--.--,--.--,--.--,--.--,--.--,--.--,--.--,--.--,-16.6954984,-54.6695624,21KYB 48514 52677,0.6,0.1,272.4,3,26,--.--,--.--,,--.--,--.--,--.--,0,0,--.--,--.--,0,-1.0,-23.2,-4.3,0.0,0.0,-0.0,--.--,--.--,--.--,--.--,--.--,--.--,--.--,--.--,--.--,--.--,--.--,--.--,42.52,40.01,--.--,0,0,2.6,4.7,9.0,0,0,0,180.0,0.0,0.0
2025-01-29 16:36:15.357,-0.8,0.9,249,0.0,0.0,0.0,0.0,0.0,0.025,0.0,-3.5,529.3,-4.110,-4.110,0.000,23.8,00:01:03,24.1,0,--.--,84,--.--,0,0000:44:07,0,0,0,49.44,6.99,538,35,96,--.--,--:--:--,1,345.57,16:36:15,29/01/2025,1.50,--.--,--.--,--.--,--.--,--.--,--.--,--.--,--.--,--.--,--.--,100.00,0,0.000,0.000,0.000,0.000,0.000,0.000,0.000,0.000,0.000,0.000,0.000,0.000,false,false,false,false,false,false,false,false,false,false,false,false,--.--,--.--,--.--,--.--,--.--,--.--,--.--,--.--,-16.6954985,-54.6695621,21KYB 48514 52677,0.6,0.1,270.0,3,26,--.--,--.--,,--.--,--.--,--.--,0,0,--.--,--.--,0,-1.0,-23.1,-4.3,0.0,0.0,0.0,--.--,--.--,--.--,--.--,--.--,--.--,--.--,--.--,--.--,--.--,--.--,--.--,42.51,40.03,--.--,0,0,1.6,1.3,1.8,0,0,0,180.0,0.0,0.0
2025-01-29 16:36:16.372,-0.8,0.9,250,0.0,0.0,0.0,0.0,0.0,0.021,0.0,-3.5,529.3,-4.130,-4.120,0.000,23.8,00:01:04,24.1,0,--.--,84,--.--,0,0000:44:07,0,0,0,49.43,3.99,539,35,96,--.--,--:--:--,1,197.24,16:36:16,29/01/2025,1.70,--.--,--.--,--.--,--.--,--.--,--.--,--.--,--.--,--.--,--.--,100.00,0,0.000,0.000,0.000,0.000,0.000,0.000,0.000,0.000,0.000,0.000,0.000,0.000,false,false,false,false,false,false,false,false,false,false,false,false,--.--,--.--,--.--,--.--,--.--,--.--,--.--,--.--,-16.6954985,-54.6695616,21KYB 48514 52677,0.6,0.1,315.0,3,26,--.--,--.--,,--.--,--.--,--.--,0,0,--.--,--.--,0,-1.0,-23.2,-4.3,0.0,0.0,0.0,--.--,--.--,--.--,--.--,--.--,--.--,--.--,--.--,--.--,--.--,--.--,--.--,42.53,40.04,--.--,0,0,1.1,1.1,1.1,0,0,0,180.0,0.0,0.0
2025-01-29 16:36:17.364,-0.8,1.0,250,0.0,0.0,0.0,0.0,0.0,0.019,0.0,-3.6,529.3,-4.140,-4.140,0.000,23.8,00:01:04,24.2,0,--.--,84,--.--,0,0000:44:07,0,0,0,49.50,0.98,539,35,96,--.--,--:--:--,1,48.51,16:36:17,29/01/2025,1.79,--.--,--.--,--.--,--.--,--.--,--.--,--.--,--.--,--.--,--.--,100.00,0,0.000,0.000,0.000,0.000,0.000,0.000,0.000,0.000,0.000,0.000,0.000,0.000,false,false,false,false,false,false,false,false,false,false,false,false,--.--,--.--,--.--,--.--,--.--,--.--,--.--,--.--,-16.6954981,-54.6695608,21KYB 48514 52677,0.6,0.1,0.0,3,26,--.--,--.--,,--.--,--.--,--.--,0,0,--.--,--.--,0,-1.0,-23.2,-4.2,0.0,0.0,-0.0,--.--,--.--,--.--,--.--,--.--,--.--,--.--,--.--,--.--,--.--,--.--,--.--,42.51,40.00,--.--,0,0,0.2,0.3,0.2,0,0,0,180.0,0.0,0.0
2025-01-29 16:36:18.356,-0.9,1.0,250,0.0,0.0,0.0,0.0,0.0,0.015,0.0,-3.6,529.3,-4.160,-4.160,0.000,23.8,00:01:04,24.2,0,--.--,84,--.--,0,0000:44:07,0,0,0,49.53,0.00,540,35,96,--.--,--:--:--,1,0.00,16:36:18,29/01/2025,1.93,--.--,--.--,--.--,--.--,--.--,--.--,--.--,--.--,--.--,--.--,100.00,0,0.000,0.000,0.000,0.000,0.000,0.000,0.000,0.000,0.000,0.000,0.000,0.000,false,false,false,false,false,false,false,false,false,false,false,false,--.--,--.--,--.--,--.--,--.--,--.--,--.--,--.--,-16.6954976,-54.6695603,21KYB 48514 52677,0.6,0.1,0.0,3,26,--.--,--.--,,--.--,--.--,--.--,0,0,--.--,--.--,0,-1.0,-23.2,-4.2,0.0,0.0,-0.0,--.--,--.--,--.--,--.--,--.--,--.--,--.--,--.--,--.--,--.--,--.--,--.--,42.52,40.04,--.--,0,0,0.1,0.2,0.1,0,0,0,180.0,0.0,0.0
2025-01-29 16:36:19.358,-0.9,1.0,250,0.0,0.0,0.0,0.0,0.0,0.017,0.0,-3.6,529.3,-4.180,-4.180,0.000,23.8,00:01:04,24.2,0,--.--,84,--.--,0,0000:44:07,0,0,0,49.56,0.00,540,35,96,--.--,--:--:--,1,0.00,16:36:19,29/01/2025,2.00,--.--,--.--,--.--,--.--,--.--,--.--,--.--,--.--,--.--,--.--,100.00,0,0.000,0.000,0.000,0.000,0.000,0.000,0.000,0.000,0.000,0.000,0.000,0.000,false,false,false,false,false,false,false,false,false,false,false,false,--.--,--.--,--.--,--.--,--.--,--.--,--.--,--.--,-16.6954975,-54.6695603,21KYB 48514 52677,0.6,0.1,0.0,3,26,--.--,--.--,,--.--,--.--,--.--,0,0,--.--,--.--,0,-1.0,-23.2,-4.2,0.0,0.0,-0.0,--.--,--.--,--.--,--.--,--.--,--.--,--.--,--.--,--.--,--.--,--.--,--.--,42.57,39.99,--.--,0,0,0.1,0.1,0.0,0,0,0,180.0,0.0,0.0
2025-01-29 16:36:20.360,-0.9,1.0,250,0.0,0.0,0.0,0.0,0.0,0.023,0.0,-3.6,529.3,-4.190,-4.190,0.000,23.8,00:01:04,24.2,0,--.--,84,--.--,0,0000:44:07,0,0,0,49.58,0.00,540,35,96,--.--,--:--:--,1,0.00,16:36:20,29/01/2025,1.91,--.--,--.--,--.--,--.--,--.--,--.--,--.--,--.--,--.--,--.--,100.00,0,0.000,0.000,0.000,0.000,0.000,0.000,0.000,0.000,0.000,0.000,0.000,0.000,false,false,false,false,false,false,false,false,false,false,false,false,--.--,--.--,--.--,--.--,--.--,--.--,--.--,--.--,-16.6954974,-54.6695606,21KYB 48514 52677,0.6,0.1,45.0,3,26,--.--,--.--,,--.--,--.--,--.--,0,0,--.--,--.--,0,-1.0,-23.2,-4.2,-0.0,0.0,-0.0,--.--,--.--,--.--,--.--,--.--,--.--,--.--,--.--,--.--,--.--,--.--,--.--,42.53,40.03,--.--,0,0,0.0,0.0,0.0,0,0,0,180.0,0.0,0.0
2025-01-29 16:36:21.362,-1.0,1.0,250,0.0,0.0,0.0,0.0,0.0,0.030,0.0,-3.6,529.2,-4.200,-4.200,0.000,23.8,00:01:04,24.2,0,--.--,84,--.--,0,0000:44:07,0,0,0,49.59,0.00,540,35,96,--.--,--:--:--,1,0.00,16:36:21,29/01/2025,1.86,--.--,--.--,--.--,--.--,--.--,--.--,--.--,--.--,--.--,--.--,100.00,0,0.000,0.000,0.000,0.000,0.000,0.000,0.000,0.000,0.000,0.000,0.000,0.000,false,false,false,false,false,false,false,false,false,false,false,false,--.--,--.--,--.--,--.--,--.--,--.--,--.--,--.--,-16.6954970,-54.6695605,21KYB 48514 52677,0.6,0.1,90.0,3,26,--.--,--.--,,--.--,--.--,--.--,0,0,--.--,--.--,0,-1.0,-23.2,-4.2,-0.0,0.0,-0.0,--.--,--.--,--.--,--.--,--.--,--.--,--.--,--.--,--.--,--.--,--.--,--.--,42.56,40.04,--.--,0,0,0.0,0.0,0.0,0,0,0,180.0,0.0,0.0
2025-01-29 16:36:22.364,-1.0,1.0,250,0.0,0.0,0.0,0.0,0.0,0.037,0.0,-3.6,529.2,-4.200,-4.200,0.000,23.8,00:01:04,24.1,0,--.--,84,--.--,0,0000:44:07,0,0,0,49.61,0.00,540,35,96,--.--,--:--:--,1,0.00,16:36:22,29/01/2025,1.95,--.--,--.--,--.--,--.--,--.--,--.--,--.--,--.--,--.--,--.--,100.00,0,0.000,0.000,0.000,0.000,0.000,0.000,0.000,0.000,0.000,0.000,0.000,0.000,false,false,false,false,false,false,false,false,false,false,false,false,--.--,--.--,--.--,--.--,--.--,--.--,--.--,--.--,-16.6954963,-54.6695599,21KYB 48514 52677,0.5,0.1,270.0,3,27,--.--,--.--,,--.--,--.--,--.--,0,0,--.--,--.--,0,-1.0,-23.1,-4.2,-0.0,0.0,-0.0,--.--,--.--,--.--,--.--,--.--,--.--,--.--,--.--,--.--,--.--,--.--,--.--,42.53,40.08,--.--,0,0,0.0,0.0,0.0,0,0,0,180.0,0.0,0.0
2025-01-29 16:36:23.357,-1.0,1.0,250,0.0,0.0,0.0,0.0,0.0,0.044,0.0,-3.6,529.3,-4.190,-4.190,0.000,23.8,00:01:04,24.1,0,--.--,84,--.--,0,0000:44:07,0,0,0,49.62,0.00,540,35,96,--.--,--:--:--,1,0.00,16:36:23,29/01/2025,1.91,--.--,--.--,--.--,--.--,--.--,--.--,--.--,--.--,--.--,--.--,100.00,0,0.000,0.000,0.000,0.000,0.000,0.000,0.000,0.000,0.000,0.000,0.000,0.000,false,false,false,false,false,false,false,false,false,false,false,false,--.--,--.--,--.--,--.--,--.--,--.--,--.--,--.--,-16.6954954,-54.6695587,21KYB 48514 52677,0.5,0.1,0.0,3,27,--.--,--.--,,--.--,--.--,--.--,0,0,--.--,--.--,0,-1.0,-23.1,-4.2,-0.0,0.0,-0.0,--.--,--.--,--.--,--.--,--.--,--.--,--.--,--.--,--.--,--.--,--.--,--.--,42.52,40.08,--.--,0,0,0.0,0.0,0.0,0,0,0,180.0,0.0,0.0
2025-01-29 16:36:24.358,-1.0,1.0,250,0.0,0.0,0.0,0.1,0.1,0.053,0.0,-3.6,529.3,-4.160,-4.160,0.000,23.8,00:01:04,24.1,0,--.--,84,--.--,0,0000:44:07,0,0,0,49.63,0.00,540,35,96,--.--,--:--:--,1,0.00,16:36:24,29/01/2025,2.03,--.--,--.--,--.--,--.--,--.--,--.--,--.--,--.--,--.--,--.--,100.00,0,0.000,0.000,0.000,0.000,0.000,0.000,0.000,0.000,0.000,0.000,0.000,0.000,false,false,false,false,false,false,false,false,false,false,false,false,--.--,--.--,--.--,--.--,--.--,--.--,--.--,--.--,-16.6954946,-54.6695576,21KYB 48514 52677,0.5,0.1,315.0,3,27,--.--,--.--,,--.--,--.--,--.--,0,0,--.--,--.--,0,-1.0,-23.1,-4.2,-0.0,0.0,-0.0,--.--,--.--,--.--,--.--,--.--,--.--,--.--,--.--,--.--,--.--,--.--,--.--,42.52,40.04,--.--,0,0,0.0,0.0,0.0,0,0,0,180.0,0.0,0.0
2025-01-29 16:36:25.360,-1.0,1.0,250,0.0,0.0,0.0,0.1,0.1,0.059,0.0,-3.5,529.3,-4.120,-4.120,0.000,23.8,00:01:04,24.0,0,--.--,84,--.--,0,0000:44:07,0,0,0,49.64,0.00,540,35,96,--.--,--:--:--,1,0.00,16:36:25,29/01/2025,1.98,--.--,--.--,--.--,--.--,--.--,--.--,--.--,--.--,--.--,--.--,100.00,0,0.000,0.000,0.000,0.000,0.000,0.000,0.000,0.000,0.000,0.000,0.000,0.000,false,false,false,false,false,false,false,false,false,false,false,false,--.--,--.--,--.--,--.--,--.--,--.--,--.--,--.--,-16.6954940,-54.6695575,21KYB 48514 52677,0.5,0.1,0.0,3,27,--.--,--.--,,--.--,--.--,--.--,0,0,--.--,--.--,0,-1.0,-23.1,-4.3,-0.0,0.0,-0.0,--.--,--.--,--.--,--.--,--.--,--.--,--.--,--.--,--.--,--.--,--.--,--.--,42.57,40.06,--.--,0,0,0.0,0.0,0.0,0,0,0,180.0,0.0,0.0
2025-01-29 16:36:26.357,-1.1,1.0,250,0.0,0.0,0.0,0.1,0.1,0.064,0.0,-3.5,529.4,-4.050,-4.060,0.000,23.8,00:01:04,24.0,0,--.--,84,--.--,0,0000:44:07,0,0,0,49.65,0.00,540,35,96,--.--,--:--:--,1,0.00,16:36:26,29/01/2025,1.89,--.--,--.--,--.--,--.--,--.--,--.--,--.--,--.--,--.--,--.--,100.00,0,0.000,0.000,0.000,0.000,0.000,0.000,0.000,0.000,0.000,0.000,0.000,0.000,false,false,false,false,false,false,false,false,false,false,false,false,--.--,--.--,--.--,--.--,--.--,--.--,--.--,--.--,-16.6954937,-54.6695587,21KYB 48514 52677,0.5,0.1,315.0,3,27,--.--,--.--,,--.--,--.--,--.--,0,0,--.--,--.--,0,-0.9,-23.0,-4.3,-0.0,0.0,-0.0,--.--,--.--,--.--,--.--,--.--,--.--,--.--,--.--,--.--,--.--,--.--,--.--,42.62,40.06,--.--,0,0,0.0,0.0,0.0,0,0,0,180.0,0.0,0.0
