Timestamp,roll,pitch,heading,rollRate,pitchRate,yawRate,groundSpeed,airSpeed,airSpeedSetpoint,climbRate,altitudeRelative,altitudeAMSL,altitudeTuning,altitudeTuningSetpoint,xTrackError,flightDistance,flightTime,distanceToHome,missionItemIndex,headingToNextWP,headingToHome,distanceToGCS,throttlePct,hobbs,battery0.id,battery0.batteryFunction,battery0.batteryType,battery0.voltage,battery0.current,battery0.mahConsumed,battery0.temperature,battery0.percentRemaining,battery0.timeRemaining,battery0.timeRemainingStr,battery0.chargeState,battery0.instantPower,clock.currentTime,clock.currentDate,distanceSensor.rotationNone,distanceSensor.rotationYaw45,distanceSensor.rotationYaw90,distanceSensor.rotationYaw135,distanceSensor.rotationYaw180,distanceSensor.rotationYaw225,distanceSensor.rotationYaw270,distanceSensor.rotationYaw315,distanceSensor.rotationPitch90,distanceSensor.rotationPitch270,distanceSensor.minDistance,distanceSensor.maxDistance,escStatus.index,escStatus.rpm1,escStatus.rpm2,escStatus.rpm3,escStatus.rpm4,escStatus.current1,escStatus.current2,escStatus.current3,escStatus.current4,escStatus.voltage1,escStatus.voltage2,escStatus.voltage3,escStatus.voltage4,estimatorStatus.goodAttitudeEsimate,estimatorStatus.goodHorizVelEstimate,estimatorStatus.goodVertVelEstimate,estimatorStatus.goodHorizPosRelEstimate,estimatorStatus.goodHorizPosAbsEstimate,estimatorStatus.goodVertPosAbsEstimate,estimatorStatus.goodVertPosAGLEstimate,estimatorStatus.goodConstPosModeEstimate,estimatorStatus.goodPredHorizPosRelEstimate,estimatorStatus.goodPredHorizPosAbsEstimate,estimatorStatus.gpsGlitch,estimatorStatus.accelError,estimatorStatus.velRatio,estimatorStatus.horizPosRatio,estimatorStatus.vertPosRatio,estimatorStatus.magRatio,estimatorStatus.haglRatio,estimatorStatus.tasRatio,estimatorStatus.horizPosAccuracy,estimatorStatus.vertPosAccuracy,gps.lat,gps.lon,gps.mgrs,gps.hdop,gps.vdop,gps.courseOverGround,gps.lock,gps.count,gps2.lat,gps2.lon,gps2.mgrs,gps2.hdop,gps2.vdop,gps2.courseOverGround,gps2.lock,gps2.count,hygrometer.temperature,hygrometer.humidity,hygrometer.hygrometerid,localPosition.x,localPosition.y,localPosition.z,localPosition.vx,localPosition.vy,localPosition.vz,localPositionSetpoint.x,localPositionSetpoint.y,localPositionSetpoint.z,localPositionSetpoint.vx,localPositionSetpoint.vy,localPositionSetpoint.vz,setpoint.roll,setpoint.pitch,setpoint.yaw,setpoint.rollRate,setpoint.pitchRate,setpoint.yawRate,temperature.temperature1,temperature.temperature2,temperature.temperature3,terrain.blocksPending,terrain.blocksLoaded,vibration.xAxis,vibration.yAxis,vibration.zAxis,vibration.clipCount1,vibration.clipCount2,vibration.clipCount3,wind.direction,wind.speed,wind.verticalSpeed
2025-01-29 17:06:06.930,-0.4,-1.4,81,0.0,0.0,0.0,0.0,0.0,0.014,0.0,3.8,533.4,0.520,0.450,0.000,0.0,00:00:00,0.0,0,--.--,--.--,6.1,0,0000:00:00,0,0,0,47.43,0.00,4197,36,71,--.--,--:--:--,1,0.00,17:06:06,29/01/2025,11.63,--.--,--.--,--.--,--.--,--.--,--.--,--.--,--.--,--.--,--.--,100.00,0,0.000,0.000,0.000,0.000,0.000,0.000,0.000,0.000,0.000,0.000,0.000,0.000,false,false,false,false,false,false,false,false,false,false,false,false,--.--,--.--,--.--,--.--,--.--,--.--,--.--,--.--,-16.6956118,-54.6695850,21KYB 48511 52664,0.5,0.1,45.0,3,25,--.--,--.--,,--.--,--.--,--.--,0,0,--.--,--.--,0,-13.4,-25.5,-8.4,0.0,-0.0,-0.0,--.--,--.--,--.--,--.--,--.--,--.--,--.--,--.--,--.--,--.--,--.--,--.--,45.18,42.36,--.--,0,0,0.0,0.0,0.0,0,0,0,180.0,0.0,0.0
2025-01-29 17:06:07.769,-0.4,-1.4,81,0.0,0.0,0.0,0.0,0.0,0.014,0.0,0.0,533.5,0.540,0.520,0.000,0.0,00:00:01,0.0,0,--.--,--.--,4.8,0,0000:00:00,0,0,0,47.43,0.00,4197,36,71,--.--,--:--:--,1,0.00,17:06:07,29/01/2025,11.62,--.--,--.--,--.--,--.--,--.--,--.--,--.--,--.--,--.--,--.--,100.00,0,0.000,0.000,0.000,0.000,0.000,0.000,0.000,0.000,0.000,0.000,0.000,0.000,false,false,false,false,false,false,false,false,false,false,false,false,--.--,--.--,--.--,--.--,--.--,--.--,--.--,--.--,-16.6956118,-54.6695851,21KYB 48511 52664,0.5,0.1,0.0,3,25,--.--,--.--,,--.--,--.--,--.--,0,0,--.--,--.--,0,-13.4,-25.5,-8.4,0.0,0.0,-0.0,--.--,--.--,--.--,--.--,--.--,--.--,--.--,--.--,--.--,--.--,--.--,--.--,45.18,42.38,--.--,0,0,0.0,0.0,0.0,0,0,0,180.0,0.0,0.0
2025-01-29 17:06:08.782,-0.4,-1.4,81,0.0,0.0,0.0,0.0,0.0,0.014,0.0,0.1,533.5,0.580,0.520,0.000,0.0,00:00:02,0.0,0,--.--,--.--,4.3,0,0000:00:00,0,0,0,47.42,0.00,4197,36,71,--.--,--:--:--,1,0.00,17:06:08,29/01/2025,11.63,--.--,--.--,--.--,--.--,--.--,--.--,--.--,--.--,--.--,--.--,100.00,0,0.000,0.000,0.000,0.000,0.000,0.000,0.000,0.000,0.000,0.000,0.000,0.000,false,false,false,false,false,false,false,false,false,false,false,false,--.--,--.--,--.--,--.--,--.--,--.--,--.--,--.--,-16.6956118,-54.6695851,21KYB 48511 52664,0.5,0.1,0.0,3,25,--.--,--.--,,--.--,--.--,--.--,0,0,--.--,--.--,0,-13.4,-25.5,-8.4,0.0,0.0,-0.0,--.--,--.--,--.--,--.--,--.--,--.--,--.--,--.--,--.--,--.--,--.--,--.--,45.18,42.38,--.--,0,0,0.0,0.0,0.0,0,0,0,180.0,0.0,0.0
2025-01-29 17:06:09.802,-0.4,-1.4,81,0.0,0.0,0.0,0.0,0.0,0.014,0.0,0.1,533.5,0.600,0.580,0.000,0.0,00:00:03,0.1,0,--.--,--.--,5.6,0,0000:00:00,0,0,0,47.42,0.00,4197,36,71,--.--,--:--:--,1,0.00,17:06:09,29/01/2025,11.63,--.--,--.--,--.--,--.--,--.--,--.--,--.--,--.--,--.--,--.--,100.00,0,0.000,0.000,0.000,0.000,0.000,0.000,0.000,0.000,0.000,0.000,0.000,0.000,false,false,false,false,false,false,false,false,false,false,false,false,--.--,--.--,--.--,--.--,--.--,--.--,--.--,--.--,-16.6956117,-54.6695851,21KYB 48511 52664,0.5,0.1,315.0,3,25,--.--,--.--,,--.--,--.--,--.--,0,0,--.--,--.--,0,-13.4,-25.6,-8.5,0.0,-0.0,-0.0,--.--,--.--,--.--,--.--,--.--,--.--,--.--,--.--,--.--,--.--,--.--,--.--,45.20,42.35,--.--,0,0,0.1,0.1,0.0,0,0,0,180.0,0.0,0.0
2025-01-29 17:06:10.794,-0.4,-1.4,81,0.0,0.0,0.0,0.0,0.0,0.014,0.0,0.1,533.5,0.640,0.580,0.000,0.0,00:00:04,0.1,0,--.--,--.--,6.1,0,0000:00:00,0,0,0,47.42,0.00,4197,36,71,--.--,--:--:--,1,0.00,17:06:10,29/01/2025,11.63,--.--,--.--,--.--,--.--,--.--,--.--,--.--,--.--,--.--,--.--,100.00,0,0.000,0.000,0.000,0.000,0.000,0.000,0.000,0.000,0.000,0.000,0.000,0.000,false,false,false,false,false,false,false,false,false,false,false,false,--.--,--.--,--.--,--.--,--.--,--.--,--.--,--.--,-16.6956117,-54.6695851,21KYB 48511 52664,0.5,0.1,315.0,3,25,--.--,--.--,,--.--,--.--,--.--,0,0,--.--,--.--,0,-13.4,-25.6,-8.5,0.0,-0.0,-0.0,--.--,--.--,--.--,--.--,--.--,--.--,--.--,--.--,--.--,--.--,--.--,--.--,45.20,42.35,--.--,0,0,0.1,0.1,0.0,0,0,0,180.0,0.0,0.0
2025-01-29 17:06:11.790,-0.4,-1.4,81,0.0,0.0,0.0,0.0,0.0,0.013,0.0,0.1,533.6,0.660,0.640,0.000,0.0,00:00:05,0.1,0,--.--,--.--,6.9,0,0000:00:00,0,0,0,47.42,0.00,4197,36,71,--.--,--:--:--,1,0.00,17:06:11,29/01/2025,11.62,--.--,--.--,--.--,--.--,--.--,--.--,--.--,--.--,--.--,--.--,100.00,0,0.000,0.000,0.000,0.000,0.000,0.000,0.000,0.000,0.000,0.000,0.000,0.000,false,false,false,false,false,false,false,false,false,false,false,false,--.--,--.--,--.--,--.--,--.--,--.--,--.--,--.--,-16.6956115,-54.6695851,21KYB 48511 52664,0.5,0.1,315.0,3,25,--.--,--.--,,--.--,--.--,--.--,0,0,--.--,--.--,0,-13.4,-25.6,-8.5,-0.0,0.0,-0.0,--.--,--.--,--.--,--.--,--.--,--.--,--.--,--.--,--.--,--.--,--.--,--.--,45.21,42.39,--.--,0,0,0.0,0.0,0.0,0,0,0,180.0,0.0,0.0
2025-01-29 17:06:12.794,-0.4,-1.3,82,0.0,0.0,0.0,0.0,0.0,0.013,0.0,0.2,533.6,0.700,0.640,0.000,0.0,00:00:06,0.1,0,--.--,--.--,7.9,0,0000:00:00,0,0,0,47.37,1.99,4197,36,71,--.--,--:--:--,1,94.27,17:06:12,29/01/2025,11.86,--.--,--.--,--.--,--.--,--.--,--.--,--.--,--.--,--.--,--.--,100.00,0,0.000,0.000,0.000,0.000,0.000,0.000,0.000,0.000,0.000,0.000,0.000,0.000,false,false,false,false,false,false,false,false,false,false,false,false,--.--,--.--,--.--,--.--,--.--,--.--,--.--,--.--,-16.6956115,-54.6695851,21KYB 48511 52664,0.5,0.1,315.0,3,25,--.--,--.--,,--.--,--.--,--.--,0,0,--.--,--.--,0,-13.4,-25.6,-8.6,-0.0,0.0,-0.0,--.--,--.--,--.--,--.--,--.--,--.--,--.--,--.--,--.--,--.--,--.--,--.--,45.21,42.39,--.--,0,0,1.9,1.1,1.6,0,0,0,180.0,0.0,0.0
2025-01-29 17:06:13.795,-0.4,-1.3,81,0.0,0.0,0.0,0.0,0.0,0.023,0.0,0.2,533.6,0.720,0.700,0.000,0.0,00:00:07,0.1,0,--.--,--.--,8.0,0,0000:00:00,0,0,0,47.34,4.98,4198,36,71,--.--,--:--:--,1,235.75,17:06:13,29/01/2025,11.76,--.--,--.--,--.--,--.--,--.--,--.--,--.--,--.--,--.--,--.--,100.00,0,0.000,0.000,0.000,0.000,0.000,0.000,0.000,0.000,0.000,0.000,0.000,0.000,false,false,false,false,false,false,false,false,false,false,false,false,--.--,--.--,--.--,--.--,--.--,--.--,--.--,--.--,-16.6956114,-54.6695851,21KYB 48511 52664,0.6,0.1,270.0,3,24,--.--,--.--,,--.--,--.--,--.--,0,0,--.--,--.--,0,-13.4,-25.6,-8.6,-0.0,0.0,-0.0,--.--,--.--,--.--,--.--,--.--,--.--,--.--,--.--,--.--,--.--,--.--,--.--,45.19,42.39,--.--,0,0,1.3,1.3,1.2,0,0,0,180.0,0.0,0.0
2025-01-29 17:06:14.796,-0.3,-1.3,82,0.0,0.0,0.0,0.0,0.0,0.023,0.0,0.2,533.6,0.760,0.700,0.000,0.0,00:00:08,0.1,0,--.--,--.--,8.7,0,0000:00:00,0,0,0,47.34,4.98,4198,36,71,--.--,--:--:--,1,235.75,17:06:14,29/01/2025,11.76,--.--,--.--,--.--,--.--,--.--,--.--,--.--,--.--,--.--,--.--,100.00,0,0.000,0.000,0.000,0.000,0.000,0.000,0.000,0.000,0.000,0.000,0.000,0.000,false,false,false,false,false,false,false,false,false,false,false,false,--.--,--.--,--.--,--.--,--.--,--.--,--.--,--.--,-16.6956114,-54.6695851,21KYB 48511 52664,0.6,0.1,270.0,3,24,--.--,--.--,,--.--,--.--,--.--,0,0,--.--,--.--,0,-13.4,-25.6,-8.6,-0.0,0.0,-0.0,--.--,--.--,--.--,--.--,--.--,--.--,--.--,--.--,--.--,--.--,--.--,--.--,45.19,42.39,--.--,0,0,1.3,1.3,1.2,0,0,0,180.0,0.0,0.0
2025-01-29 17:06:15.794,-0.2,-1.3,82,0.0,0.0,0.0,0.0,0.0,0.024,0.0,0.2,533.7,0.780,0.760,0.000,0.0,00:00:09,0.1,0,--.--,--.--,10.4,0,0000:00:00,0,0,0,47.35,4.98,4200,36,71,--.--,--:--:--,1,235.79,17:06:15,29/01/2025,11.99,--.--,--.--,--.--,--.--,--.--,--.--,--.--,--.--,--.--,--.--,100.00,0,0.000,0.000,0.000,0.000,0.000,0.000,0.000,0.000,0.000,0.000,0.000,0.000,false,false,false,false,false,false,false,false,false,false,false,false,--.--,--.--,--.--,--.--,--.--,--.--,--.--,--.--,-16.6956114,-54.6695853,21KYB 48511 52664,0.5,0.1,33.7,3,25,--.--,--.--,,--.--,--.--,--.--,0,0,--.--,--.--,0,-13.4,-25.6,-8.6,-0.0,0.0,-0.0,--.--,--.--,--.--,--.--,--.--,--.--,--.--,--.--,--.--,--.--,--.--,--.--,45.16,42.37,--.--,0,0,1.2,1.7,1.2,0,0,0,180.0,0.0,0.0
2025-01-29 17:06:16.800,-0.2,-1.3,82,0.0,0.0,0.0,0.0,0.0,0.018,0.0,0.3,533.7,0.810,0.810,0.000,0.0,00:00:10,0.2,0,--.--,--.--,10.0,0,0000:00:00,0,0,0,47.34,4.98,4202,36,71,--.--,--:--:--,1,235.74,17:06:16,29/01/2025,12.04,--.--,--.--,--.--,--.--,--.--,--.--,--.--,--.--,--.--,--.--,100.00,0,0.000,0.000,0.000,0.000,0.000,0.000,0.000,0.000,0.000,0.000,0.000,0.000,false,false,false,false,false,false,false,false,false,false,false,false,--.--,--.--,--.--,--.--,--.--,--.--,--.--,--.--,-16.6956113,-54.6695855,21KYB 48511 52664,0.6,0.1,0.0,3,24,--.--,--.--,,--.--,--.--,--.--,0,0,--.--,--.--,0,-13.4,-25.6,-8.7,-0.1,0.0,-0.0,--.--,--.--,--.--,--.--,--.--,--.--,--.--,--.--,--.--,--.--,--.--,--.--,45.14,42.35,--.--,0,0,1.3,1.5,1.3,0,0,0,180.0,0.0,0.0
2025-01-29 17:06:17.800,-0.2,-1.3,82,0.0,0.0,0.0,0.1,0.1,0.052,0.0,0.3,533.8,0.830,0.830,0.000,0.0,00:00:11,0.2,0,--.--,--.--,12.3,0,0000:00:00,0,0,0,47.33,3.99,4204,36,71,--.--,--:--:--,1,188.86,17:06:17,29/01/2025,12.08,--.--,--.--,--.--,--.--,--.--,--.--,--.--,--.--,--.--,--.--,100.00,0,0.000,0.000,0.000,0.000,0.000,0.000,0.000,0.000,0.000,0.000,0.000,0.000,false,false,false,false,false,false,false,false,false,false,false,false,--.--,--.--,--.--,--.--,--.--,--.--,--.--,--.--,-16.6956114,-54.6695856,21KYB 48511 52664,0.6,0.1,0.0,3,23,--.--,--.--,,--.--,--.--,--.--,0,0,--.--,--.--,0,-13.4,-25.6,-8.7,-0.0,-0.0,-0.0,--.--,--.--,--.--,--.--,--.--,--.--,--.--,--.--,--.--,--.--,--.--,--.--,45.15,42.37,--.--,0,0,1.4,1.1,0.9,0,0,0,180.0,0.0,0.0
2025-01-29 17:06:18.794,-0.1,-1.3,82,0.0,0.0,0.0,0.1,0.1,0.076,0.0,0.3,533.8,0.850,0.850,0.000,0.0,00:00:12,0.2,0,--.--,--.--,11.0,0,0000:00:00,0,0,0,47.34,3.99,4205,36,71,--.--,--:--:--,1,188.87,17:06:18,29/01/2025,12.03,--.--,--.--,--.--,--.--,--.--,--.--,--.--,--.--,--.--,--.--,100.00,0,0.000,0.000,0.000,0.000,0.000,0.000,0.000,0.000,0.000,0.000,0.000,0.000,false,false,false,false,false,false,false,false,false,false,false,false,--.--,--.--,--.--,--.--,--.--,--.--,--.--,--.--,-16.6956115,-54.6695856,21KYB 48511 52664,0.6,0.1,0.0,3,24,--.--,--.--,,--.--,--.--,--.--,0,0,--.--,--.--,0,-13.4,-25.7,-8.7,-0.0,-0.0,-0.0,--.--,--.--,--.--,--.--,--.--,--.--,--.--,--.--,--.--,--.--,--.--,--.--,45.18,42.36,--.--,0,0,1.3,2.1,1.3,0,0,0,180.0,0.0,0.0
2025-01-29 17:06:19.791,-0.1,-1.3,82,0.0,0.0,0.0,0.1,0.1,0.076,0.0,0.4,533.8,0.870,0.870,0.000,0.0,00:00:13,0.2,0,--.--,--.--,11.7,0,0000:00:00,0,0,0,47.33,4.98,4206,36,71,--.--,--:--:--,1,235.71,17:06:19,29/01/2025,12.00,--.--,--.--,--.--,--.--,--.--,--.--,--.--,--.--,--.--,--.--,100.00,0,0.000,0.000,0.000,0.000,0.000,0.000,0.000,0.000,0.000,0.000,0.000,0.000,false,false,false,false,false,false,false,false,false,false,false,false,--.--,--.--,--.--,--.--,--.--,--.--,--.--,--.--,-16.6956115,-54.6695856,21KYB 48511 52664,0.6,0.1,45.0,3,23,--.--,--.--,,--.--,--.--,--.--,0,0,--.--,--.--,0,-13.4,-25.7,-8.7,-0.1,-0.0,-0.0,--.--,--.--,--.--,--.--,--.--,--.--,--.--,--.--,--.--,--.--,--.--,--.--,45.15,42.37,--.--,0,0,1.1,1.6,1.0,0,0,0,180.0,0.0,0.0
2025-01-29 17:06:20.773,-0.5,-1.1,82,0.0,0.0,0.0,0.0,0.1,0.055,0.0,0.4,533.8,0.880,0.875,0.003,0.0,00:00:14,0.2,0,--.--,--.--,12.6,11,0000:00:00,0,0,0,47.33,4.98,4207,36,71,--.--,--:--:--,1,235.69,17:06:20,29/01/2025,11.97,--.--,--.--,--.--,--.--,--.--,--.--,--.--,--.--,--.--,--.--,100.00,0,0.000,0.000,0.000,0.000,0.000,0.000,0.000,0.000,0.000,0.000,0.000,0.000,false,false,false,false,false,false,false,false,false,false,false,false,--.--,--.--,--.--,--.--,--.--,--.--,--.--,--.--,-16.6956116,-54.6695855,21KYB 48511 52664,0.6,0.1,33.7,3,24,--.--,--.--,,--.--,--.--,--.--,0,0,--.--,--.--,0,-13.3,-25.7,-8.8,-0.0,-0.0,-0.0,--.--,--.--,--.--,--.--,--.--,--.--,--.--,--.--,--.--,--.--,--.--,--.--,45.22,42.36,--.--,0,0,1.5,1.8,1.9,0,0,0,180.0,0.0,0.0
2025-01-29 17:06:21.785,-0.2,-0.4,81,0.0,0.0,0.0,0.0,0.1,0.066,0.0,0.4,533.9,0.940,0.938,0.026,0.0,00:00:15,0.2,0,--.--,--.--,12.6,11,0000:00:00,0,0,0,46.98,33.98,4210,36,71,--.--,--:--:--,1,1596.52,17:06:21,29/01/2025,16.79,--.--,--.--,--.--,--.--,--.--,--.--,--.--,--.--,--.--,--.--,100.00,0,0.000,0.000,0.000,0.000,0.000,0.000,0.000,0.000,0.000,0.000,0.000,0.000,false,false,false,false,false,false,false,false,false,false,false,false,--.--,--.--,--.--,--.--,--.--,--.--,--.--,--.--,-16.6956116,-54.6695855,21KYB 48511 52664,0.6,0.1,292.4,3,22,--.--,--.--,,--.--,--.--,--.--,0,0,--.--,--.--,0,-13.3,-25.7,-8.8,-0.0,-0.0,-0.1,--.--,--.--,--.--,--.--,--.--,--.--,--.--,--.--,--.--,--.--,--.--,--.--,45.19,42.37,--.--,0,0,1.3,2.0,3.9,0,0,0,180.0,0.0,0.0
2025-01-29 17:06:22.791,-0.8,-0.7,81,0.0,0.0,0.0,0.0,0.1,0.125,0.1,0.5,533.9,1.000,0.977,0.024,0.0,00:00:16,0.2,0,--.--,--.--,12.2,11,0000:00:00,0,0,0,46.88,35.98,4220,36,71,--.--,--:--:--,1,1686.85,17:06:22,29/01/2025,14.11,--.--,--.--,--.--,--.--,--.--,--.--,--.--,--.--,--.--,--.--,100.00,0,0.000,0.000,0.000,0.000,0.000,0.000,0.000,0.000,0.000,0.000,0.000,0.000,false,false,false,false,false,false,false,false,false,false,false,false,--.--,--.--,--.--,--.--,--.--,--.--,--.--,--.--,-16.6956116,-54.6695856,21KYB 48511 52664,0.6,0.1,299.5,3,24,--.--,--.--,,--.--,--.--,--.--,0,0,--.--,--.--,0,-13.3,-25.7,-8.9,-0.0,0.0,-0.1,--.--,--.--,--.--,--.--,--.--,--.--,--.--,--.--,--.--,--.--,--.--,--.--,45.15,42.37,--.--,0,0,1.4,3.7,3.3,0,0,0,180.0,0.0,0.0
2025-01-29 17:06:23.790,0.3,-0.7,81,0.0,0.0,0.0,0.0,0.2,0.191,0.2,0.6,534.0,1.110,1.054,0.022,0.0,00:00:17,0.3,0,--.--,--.--,12.1,11,0000:49:59,0,0,0,46.83,37.98,4231,36,71,--.--,--:--:--,1,1778.53,17:06:23,29/01/2025,2.36,--.--,--.--,--.--,--.--,--.--,--.--,--.--,--.--,--.--,--.--,100.00,0,0.000,0.000,0.000,0.000,0.000,0.000,0.000,0.000,0.000,0.000,0.000,0.000,false,false,false,false,false,false,false,false,false,false,false,false,--.--,--.--,--.--,--.--,--.--,--.--,--.--,--.--,-16.6956115,-54.6695857,21KYB 48511 52664,0.6,0.1,344.6,3,23,--.--,--.--,,--.--,--.--,--.--,0,0,--.--,--.--,0,-13.3,-25.7,-9.0,-0.0,0.0,-0.2,--.--,--.--,--.--,--.--,--.--,--.--,--.--,--.--,--.--,--.--,--.--,--.--,45.21,42.36,--.--,0,0,1.7,2.8,5.1,0,0,0,180.0,0.0,0.0
2025-01-29 17:06:24.793,0.7,-0.8,81,0.0,0.0,0.0,0.0,0.2,0.204,0.2,0.7,534.2,1.280,1.218,0.092,0.0,00:00:18,0.3,0,--.--,--.--,12.1,12,0000:49:59,0,0,0,46.78,39.98,4242,36,71,--.--,--:--:--,1,1870.10,17:06:24,29/01/2025,17.09,--.--,--.--,--.--,--.--,--.--,--.--,--.--,--.--,--.--,--.--,100.00,0,0.000,0.000,0.000,0.000,0.000,0.000,0.000,0.000,0.000,0.000,0.000,0.000,false,false,false,false,false,false,false,false,false,false,false,false,--.--,--.--,--.--,--.--,--.--,--.--,--.--,--.--,-16.6956116,-54.6695856,21KYB 48511 52664,0.6,0.1,35.1,3,24,--.--,--.--,,--.--,--.--,--.--,0,0,--.--,--.--,0,-13.3,-25.7,-9.1,-0.0,0.0,-0.2,--.--,--.--,--.--,--.--,--.--,--.--,--.--,--.--,--.--,--.--,--.--,--.--,45.21,42.34,--.--,0,0,1.4,2.2,5.2,0,0,0,180.0,0.0,0.0
2025-01-29 17:06:25.796,1.4,-0.4,81,0.0,0.0,0.0,0.0,0.3,0.274,0.3,0.9,534.4,1.470,1.413,0.135,0.0,00:00:19,0.3,0,--.--,--.--,11.7,12,0000:49:59,0,0,0,46.71,41.99,4253,36,71,--.--,--:--:--,1,1961.48,17:06:25,29/01/2025,25.99,--.--,--.--,--.--,--.--,--.--,--.--,--.--,--.--,--.--,--.--,100.00,0,0.000,0.000,0.000,0.000,0.000,0.000,0.000,0.000,0.000,0.000,0.000,0.000,false,false,false,false,false,false,false,false,false,false,false,false,--.--,--.--,--.--,--.--,--.--,--.--,--.--,--.--,-16.6956125,-54.6695846,21KYB 48511 52664,0.6,0.1,327.6,3,24,--.--,--.--,,--.--,--.--,--.--,0,0,--.--,--.--,0,-13.2,-25.7,-9.3,0.0,0.0,-0.3,--.--,--.--,--.--,--.--,--.--,--.--,--.--,--.--,--.--,--.--,--.--,--.--,45.14,42.36,--.--,0,0,1.8,2.5,6.9,0,0,0,180.0,0.0,0.0
2025-01-29 17:06:26.794,3.1,-1.6,81,0.0,0.0,0.0,0.0,0.2,0.209,0.2,1.2,534.6,1.730,1.698,0.184,0.0,00:00:20,0.3,0,--.--,--.--,12.0,11,0000:49:59,0,0,0,46.67,41.99,4265,36,71,--.--,--:--:--,1,1959.80,17:06:26,29/01/2025,2.10,--.--,--.--,--.--,--.--,--.--,--.--,--.--,--.--,--.--,--.--,100.00,0,0.000,0.000,0.000,0.000,0.000,0.000,0.000,0.000,0.000,0.000,0.000,0.000,false,false,false,false,false,false,false,false,false,false,false,false,--.--,--.--,--.--,--.--,--.--,--.--,--.--,--.--,-16.6956125,-54.6695843,21KYB 48511 52664,0.5,0.1,30.5,3,27,--.--,--.--,,--.--,--.--,--.--,0,0,--.--,--.--,0,-13.2,-25.8,-9.6,-0.0,0.0,-0.2,--.--,--.--,--.--,--.--,--.--,--.--,--.--,--.--,--.--,--.--,--.--,--.--,45.16,42.37,--.--,0,0,2.0,3.4,8.7,0,0,0,180.0,0.0,0.0
2025-01-29 17:06:27.780,2.5,-0.6,84,0.0,0.0,0.0,0.1,0.1,0.114,0.0,1.2,534.7,1.740,1.681,0.110,0.0,00:00:21,0.3,0,--.--,--.--,12.0,12,0000:49:59,0,0,0,46.63,40.99,4277,36,71,--.--,--:--:--,1,1911.40,17:06:27,29/01/2025,29.98,--.--,--.--,--.--,--.--,--.--,--.--,--.--,--.--,--.--,--.--,100.00,0,0.000,0.000,0.000,0.000,0.000,0.000,0.000,0.000,0.000,0.000,0.000,0.000,false,false,false,false,false,false,false,false,false,false,false,false,--.--,--.--,--.--,--.--,--.--,--.--,--.--,--.--,-16.6956131,-54.6695837,21KYB 48511 52664,0.5,0.1,160.6,3,26,--.--,--.--,,--.--,--.--,--.--,0,0,--.--,--.--,0,-13.2,-25.7,-9.6,-0.1,0.1,-0.0,--.--,--.--,--.--,--.--,--.--,--.--,--.--,--.--,--.--,--.--,--.--,--.--,45.20,42.38,--.--,0,0,2.7,4.4,9.6,0,0,0,180.0,0.0,0.0
2025-01-29 17:06:28.783,2.2,-0.8,76,0.0,0.0,0.0,0.1,0.1,0.096,0.1,1.2,534.7,1.730,1.666,0.041,0.0,00:00:22,0.2,0,--.--,--.--,12.5,12,0000:49:59,0,0,0,46.59,41.99,4289,36,71,--.--,--:--:--,1,1956.40,17:06:28,29/01/2025,32.00,--.--,--.--,--.--,--.--,--.--,--.--,--.--,--.--,--.--,--.--,100.00,0,0.000,0.000,0.000,0.000,0.000,0.000,0.000,0.000,0.000,0.000,0.000,0.000,false,false,false,false,false,false,false,false,false,false,false,false,--.--,--.--,--.--,--.--,--.--,--.--,--.--,--.--,-16.6956137,-54.6695821,21KYB 48511 52664,0.6,0.1,134.2,3,24,--.--,--.--,,--.--,--.--,--.--,0,0,--.--,--.--,0,-13.3,-25.7,-9.6,-0.1,0.0,-0.0,--.--,--.--,--.--,--.--,--.--,--.--,--.--,--.--,--.--,--.--,--.--,--.--,45.18,42.38,--.--,0,0,2.6,2.8,8.3,0,0,0,180.0,0.0,0.0
2025-01-29 17:06:29.794,2.5,0.3,72,0.0,0.0,0.0,0.0,0.1,0.055,0.0,1.2,534.7,1.760,1.724,0.049,0.0,00:00:23,0.2,0,--.--,--.--,12.2,13,0000:49:59,0,0,0,46.58,41.99,4301,36,71,--.--,--:--:--,1,1955.85,17:06:29,29/01/2025,38.41,--.--,--.--,--.--,--.--,--.--,--.--,--.--,--.--,--.--,--.--,100.00,0,0.000,0.000,0.000,0.000,0.000,0.000,0.000,0.000,0.000,0.000,0.000,0.000,false,false,false,false,false,false,false,false,false,false,false,false,--.--,--.--,--.--,--.--,--.--,--.--,--.--,--.--,-16.6956146,-54.6695796,21KYB 48512 52664,0.5,0.1,354.3,3,25,--.--,--.--,,--.--,--.--,--.--,0,0,--.--,--.--,0,-13.3,-25.6,-9.6,0.0,-0.0,-0.0,--.--,--.--,--.--,--.--,--.--,--.--,--.--,--.--,--.--,--.--,--.--,--.--,45.12,42.36,--.--,0,0,2.5,3.0,7.9,0,0,0,180.0,0.0,0.0
2025-01-29 17:06:30.784,1.7,-0.1,72,0.0,0.0,0.0,0.1,0.1,0.079,0.0,1.2,534.7,1.750,1.663,0.049,0.0,00:00:24,0.1,0,--.--,--.--,12.0,13,0000:49:59,0,0,0,46.53,43.99,4307,36,71,--.--,--:--:--,1,2047.03,17:06:30,29/01/2025,38.62,--.--,--.--,--.--,--.--,--.--,--.--,--.--,--.--,--.--,--.--,100.00,0,0.000,0.000,0.000,0.000,0.000,0.000,0.000,0.000,0.000,0.000,0.000,0.000,false,false,false,false,false,false,false,false,false,false,false,false,--.--,--.--,--.--,--.--,--.--,--.--,--.--,--.--,-16.6956159,-54.6695796,21KYB 48512 52664,0.5,0.1,253.2,3,27,--.--,--.--,,--.--,--.--,--.--,0,0,--.--,--.--,0,-13.4,-25.6,-9.6,-0.0,-0.0,-0.0,--.--,--.--,--.--,--.--,--.--,--.--,--.--,--.--,--.--,--.--,--.--,--.--,45.15,42.33,--.--,0,0,2.7,3.3,7.4,0,0,0,180.0,0.0,0.0
2025-01-29 17:06:31.797,2.2,-0.1,79,0.0,0.0,0.0,0.1,0.1,0.132,0.1,1.2,534.6,1.690,1.534,0.067,0.0,00:00:25,0.1,0,--.--,--.--,11.8,12,0000:49:59,0,0,0,46.49,45.99,4320,36,71,--.--,--:--:--,1,2137.94,17:06:31,29/01/2025,38.31,--.--,--.--,--.--,--.--,--.--,--.--,--.--,--.--,--.--,--.--,100.00,0,0.000,0.000,0.000,0.000,0.000,0.000,0.000,0.000,0.000,0.000,0.000,0.000,false,false,false,false,false,false,false,false,false,false,false,false,--.--,--.--,--.--,--.--,--.--,--.--,--.--,--.--,-16.6956160,-54.6695796,21KYB 48512 52664,0.5,0.1,325.8,3,26,--.--,--.--,,--.--,--.--,--.--,0,0,--.--,--.--,0,-13.4,-25.6,-9.6,0.1,-0.1,-0.1,--.--,--.--,--.--,--.--,--.--,--.--,--.--,--.--,--.--,--.--,--.--,--.--,45.19,42.35,--.--,0,0,1.7,4.2,7.7,0,0,0,180.0,0.0,0.0
2025-01-29 17:06:32.781,2.9,-0.2,69,0.0,0.0,0.0,0.0,0.1,0.130,0.1,1.1,534.6,1.660,1.476,0.069,0.0,00:00:26,0.1,0,--.--,--.--,11.5,12,0000:49:59,0,0,0,46.45,45.99,4333,36,71,--.--,--:--:--,1,2136.33,17:06:32,29/01/2025,38.75,--.--,--.--,--.--,--.--,--.--,--.--,--.--,--.--,--.--,--.--,100.00,0,0.000,0.000,0.000,0.000,0.000,0.000,0.000,0.000,0.000,0.000,0.000,0.000,false,false,false,false,false,false,false,false,false,false,false,false,--.--,--.--,--.--,--.--,--.--,--.--,--.--,--.--,-16.6956159,-54.6695758,21KYB 48512 52664,0.6,0.1,295.5,3,23,--.--,--.--,,--.--,--.--,--.--,0,0,--.--,--.--,0,-13.4,-25.6,-9.5,-0.0,-0.0,-0.1,--.--,--.--,--.--,--.--,--.--,--.--,--.--,--.--,--.--,--.--,--.--,--.--,45.18,42.35,--.--,0,0,2.4,4.2,8.1,0,0,0,180.0,0.0,0.0
2025-01-29 17:06:33.789,0.7,0.5,62,0.0,0.0,0.0,0.1,0.2,0.158,0.1,1.1,534.6,1.620,1.397,0.107,0.0,00:00:27,0.1,0,--.--,--.--,11.2,13,0000:49:59,0,0,0,46.45,43.99,4346,36,71,--.--,--:--:--,1,2043.16,17:06:33,29/01/2025,42.67,--.--,--.--,--.--,--.--,--.--,--.--,--.--,--.--,--.--,--.--,100.00,0,0.000,0.000,0.000,0.000,0.000,0.000,0.000,0.000,0.000,0.000,0.000,0.000,false,false,false,false,false,false,false,false,false,false,false,false,--.--,--.--,--.--,--.--,--.--,--.--,--.--,--.--,-16.6956184,-54.6695738,21KYB 48512 52664,0.6,0.1,310.1,3,24,--.--,--.--,,--.--,--.--,--.--,0,0,--.--,--.--,0,-13.4,-25.6,-9.5,0.0,-0.1,-0.1,--.--,--.--,--.--,--.--,--.--,--.--,--.--,--.--,--.--,--.--,--.--,--.--,45.16,42.33,--.--,0,0,3.0,4.1,8.6,0,0,0,180.0,0.0,0.0
2025-01-29 17:06:34.792,3.2,2.7,64,0.0,0.0,0.0,0.1,0.2,0.219,0.2,1.0,534.5,1.520,1.197,0.142,0.0,00:00:28,0.1,0,--.--,--.--,10.5,12,0000:49:59,0,0,0,46.40,44.99,4359,36,71,--.--,--:--:--,1,2087.49,17:06:34,29/01/2025,47.35,--.--,--.--,--.--,--.--,--.--,--.--,--.--,--.--,--.--,--.--,100.00,0,0.000,0.000,0.000,0.000,0.000,0.000,0.000,0.000,0.000,0.000,0.000,0.000,false,false,false,false,false,false,false,false,false,false,false,false,--.--,--.--,--.--,--.--,--.--,--.--,--.--,--.--,-16.6956204,-54.6695730,21KYB 48512 52663,0.6,0.1,27.6,3,25,--.--,--.--,,--.--,--.--,--.--,0,0,--.--,--.--,0,-13.3,-25.6,-9.4,0.1,0.0,-0.2,--.--,--.--,--.--,--.--,--.--,--.--,--.--,--.--,--.--,--.--,--.--,--.--,45.15,42.31,--.--,0,0,2.0,3.4,8.6,0,0,0,180.0,0.0,0.0
2025-01-29 17:06:35.797,1.2,2.6,63,0.0,0.0,0.0,0.1,0.1,0.109,0.0,0.8,534.2,1.240,0.701,0.218,0.0,00:00:29,0.1,0,--.--,--.--,9.8,11,0000:49:59,0,0,0,46.40,42.99,4371,36,71,--.--,--:--:--,1,1994.91,17:06:35,29/01/2025,47.06,--.--,--.--,--.--,--.--,--.--,--.--,--.--,--.--,--.--,--.--,100.00,0,0.000,0.000,0.000,0.000,0.000,0.000,0.000,0.000,0.000,0.000,0.000,0.000,false,false,false,false,false,false,false,false,false,false,false,false,--.--,--.--,--.--,--.--,--.--,--.--,--.--,--.--,-16.6956206,-54.6695728,21KYB 48512 52663,0.6,0.1,286.7,3,25,--.--,--.--,,--.--,--.--,--.--,0,0,--.--,--.--,0,-13.4,-25.5,-9.2,0.0,-0.1,-0.1,--.--,--.--,--.--,--.--,--.--,--.--,--.--,--.--,--.--,--.--,--.--,--.--,45.13,42.35,--.--,0,0,3.0,1.9,7.3,0,0,0,180.0,0.0,0.0
2025-01-29 17:06:36.796,1.0,2.8,64,0.0,0.0,0.0,0.1,0.2,0.157,0.1,0.3,533.7,0.760,0.070,0.214,0.0,00:00:30,0.0,0,--.--,--.--,9.5,12,0000:49:59,0,0,0,46.39,42.99,4384,36,70,--.--,--:--:--,1,1994.26,17:06:36,29/01/2025,47.60,--.--,--.--,--.--,--.--,--.--,--.--,--.--,--.--,--.--,--.--,100.00,0,0.000,0.000,0.000,0.000,0.000,0.000,0.000,0.000,0.000,0.000,0.000,0.000,false,false,false,false,false,false,false,false,false,false,false,false,--.--,--.--,--.--,--.--,--.--,--.--,--.--,--.--,-16.6956211,-54.6695734,21KYB 48512 52663,0.5,0.1,300.6,3,25,--.--,--.--,,--.--,--.--,--.--,0,0,--.--,--.--,0,-13.5,-25.5,-8.7,0.0,-0.1,-0.1,--.--,--.--,--.--,--.--,--.--,--.--,--.--,--.--,--.--,--.--,--.--,--.--,45.22,42.31,--.--,0,0,2.6,3.2,6.6,0,0,0,180.0,0.0,0.0
2025-01-29 17:06:37.799,2.2,3.4,64,0.0,0.0,0.0,0.2,0.4,0.431,-0.4,-0.3,533.2,0.160,-0.575,0.157,0.0,00:00:31,0.0,0,--.--,--.--,9.4,12,0000:49:59,0,0,0,46.39,42.99,4396,36,70,--.--,--:--:--,1,1994.22,17:06:37,29/01/2025,47.43,--.--,--.--,--.--,--.--,--.--,--.--,--.--,--.--,--.--,--.--,100.00,0,0.000,0.000,0.000,0.000,0.000,0.000,0.000,0.000,0.000,0.000,0.000,0.000,false,false,false,false,false,false,false,false,false,false,false,false,--.--,--.--,--.--,--.--,--.--,--.--,--.--,--.--,-16.6956203,-54.6695772,21KYB 48512 52663,0.5,0.1,320.3,3,24,--.--,--.--,,--.--,--.--,--.--,0,0,--.--,--.--,0,-13.4,-25.5,-8.1,0.2,-0.1,0.3,--.--,--.--,--.--,--.--,--.--,--.--,--.--,--.--,--.--,--.--,--.--,--.--,45.22,42.36,--.--,0,0,2.2,3.5,8.9,0,0,0,180.0,0.0,0.0
2025-01-29 17:06:38.790,2.6,3.6,64,0.0,0.0,0.0,0.1,0.3,0.334,-0.3,-1.0,532.5,-0.540,-1.234,0.076,0.0,00:00:32,0.1,0,--.--,--.--,9.8,13,0000:49:59,0,0,0,46.36,40.99,4408,36,70,--.--,--:--:--,1,1900.30,17:06:38,29/01/2025,47.46,--.--,--.--,--.--,--.--,--.--,--.--,--.--,--.--,--.--,--.--,100.00,0,0.000,0.000,0.000,0.000,0.000,0.000,0.000,0.000,0.000,0.000,0.000,0.000,false,false,false,false,false,false,false,false,false,false,false,false,--.--,--.--,--.--,--.--,--.--,--.--,--.--,--.--,-16.6956194,-54.6695768,21KYB 48512 52664,0.5,0.1,310.5,3,25,--.--,--.--,,--.--,--.--,--.--,0,0,--.--,--.--,0,-13.4,-25.6,-7.4,0.1,-0.1,0.3,--.--,--.--,--.--,--.--,--.--,--.--,--.--,--.--,--.--,--.--,--.--,--.--,45.23,42.31,--.--,0,0,2.2,3.3,8.6,0,0,0,180.0,0.0,0.0
2025-01-29 17:06:39.797,1.4,6.5,64,0.0,0.0,0.0,0.3,0.3,0.310,0.1,-1.5,531.9,-1.000,-1.580,0.112,0.0,00:00:33,0.1,0,--.--,--.--,10.1,13,0000:49:59,0,0,0,46.32,43.99,4420,36,70,--.--,--:--:--,1,2037.48,17:06:39,29/01/2025,47.78,--.--,--.--,--.--,--.--,--.--,--.--,--.--,--.--,--.--,--.--,100.00,0,0.000,0.000,0.000,0.000,0.000,0.000,0.000,0.000,0.000,0.000,0.000,0.000,false,false,false,false,false,false,false,false,false,false,false,false,--.--,--.--,--.--,--.--,--.--,--.--,--.--,--.--,-16.6956184,-54.6695784,21KYB 48512 52664,0.5,0.1,255.8,3,26,--.--,--.--,,--.--,--.--,--.--,0,0,--.--,--.--,0,-13.4,-25.6,-6.9,-0.1,-0.2,-0.0,--.--,--.--,--.--,--.--,--.--,--.--,--.--,--.--,--.--,--.--,--.--,--.--,45.22,42.34,--.--,0,0,2.6,3.2,9.3,0,0,0,180.0,0.0,0.0
2025-01-29 17:06:40.800,0.4,1.2,63,0.0,0.0,0.0,0.1,0.2,0.222,0.2,-1.5,531.9,-1.000,-1.397,0.145,0.0,00:00:34,0.4,0,--.--,--.--,10.3,13,0000:49:59,0,0,0,46.27,46.99,4433,36,70,--.--,--:--:--,1,2173.99,17:06:40,29/01/2025,48.01,--.--,--.--,--.--,--.--,--.--,--.--,--.--,--.--,--.--,--.--,100.00,0,0.000,0.000,0.000,0.000,0.000,0.000,0.000,0.000,0.000,0.000,0.000,0.000,false,false,false,false,false,false,false,false,false,false,false,false,--.--,--.--,--.--,--.--,--.--,--.--,--.--,--.--,-16.6956187,-54.6695790,21KYB 48512 52664,0.6,0.1,318.1,3,23,--.--,--.--,,--.--,--.--,--.--,0,0,--.--,--.--,0,-13.6,-25.9,-6.9,0.1,-0.1,-0.1,--.--,--.--,--.--,--.--,--.--,--.--,--.--,--.--,--.--,--.--,--.--,--.--,45.21,42.33,--.--,0,0,2.8,2.3,6.8,0,0,0,180.0,0.0,0.0
2025-01-29 17:06:41.786,1.9,-0.6,64,0.0,0.0,0.0,0.7,0.8,0.761,0.2,-1.4,532.1,-0.820,-1.027,0.058,0.0,00:00:35,0.1,0,--.--,--.--,9.9,12,0000:49:59,0,0,0,46.25,47.99,4446,36,70,--.--,--:--:--,1,2219.68,17:06:41,29/01/2025,48.25,--.--,--.--,--.--,--.--,--.--,--.--,--.--,--.--,--.--,--.--,100.00,0,0.000,0.000,0.000,0.000,0.000,0.000,0.000,0.000,0.000,0.000,0.000,0.000,false,false,false,false,false,false,false,false,false,false,false,false,--.--,--.--,--.--,--.--,--.--,--.--,--.--,--.--,-16.6956164,-54.6695774,21KYB 48512 52664,0.6,0.1,55.6,3,24,--.--,--.--,,--.--,--.--,--.--,0,0,--.--,--.--,0,-13.4,-25.6,-7.0,0.4,0.6,-0.2,--.--,--.--,--.--,--.--,--.--,--.--,--.--,--.--,--.--,--.--,--.--,--.--,45.19,42.33,--.--,0,0,1.9,3.2,7.3,0,0,0,180.0,0.0,0.0
2025-01-29 17:06:42.781,1.9,3.1,64,0.0,0.0,0.0,0.8,0.8,0.843,0.1,-1.3,532.2,-0.720,-0.828,0.031,0.0,00:00:36,0.9,0,--.--,--.--,9.0,12,0000:49:59,0,0,0,46.24,44.99,4460,36,70,--.--,--:--:--,1,2080.16,17:06:42,29/01/2025,47.47,--.--,--.--,--.--,--.--,--.--,--.--,--.--,--.--,--.--,--.--,100.00,0,0.000,0.000,0.000,0.000,0.000,0.000,0.000,0.000,0.000,0.000,0.000,0.000,false,false,false,false,false,false,false,false,false,false,false,false,--.--,--.--,--.--,--.--,--.--,--.--,--.--,--.--,-16.6956121,-54.6695728,21KYB 48512 52664,0.5,0.1,56.4,3,26,--.--,--.--,,--.--,--.--,--.--,0,0,--.--,--.--,0,-13.0,-24.8,-7.1,0.5,0.7,-0.1,--.--,--.--,--.--,--.--,--.--,--.--,--.--,--.--,--.--,--.--,--.--,--.--,45.23,42.34,--.--,0,0,1.8,2.9,6.6,0,0,0,180.0,0.0,0.0
2025-01-29 17:06:43.803,1.7,3.2,64,0.0,0.0,0.0,0.5,0.5,0.453,0.0,-1.1,532.3,-0.580,-0.547,0.072,0.0,00:00:37,1.5,0,--.--,241,8.7,12,0000:49:59,0,0,0,46.22,45.99,4472,36,70,--.--,--:--:--,1,2125.75,17:06:43,29/01/2025,46.56,--.--,--.--,--.--,--.--,--.--,--.--,--.--,--.--,--.--,--.--,100.00,0,0.000,0.000,0.000,0.000,0.000,0.000,0.000,0.000,0.000,0.000,0.000,0.000,false,false,false,false,false,false,false,false,false,false,false,false,--.--,--.--,--.--,--.--,--.--,--.--,--.--,--.--,-16.6956098,-54.6695689,21KYB 48513 52665,0.5,0.1,64.9,3,27,--.--,--.--,,--.--,--.--,--.--,0,0,--.--,--.--,0,-12.7,-24.2,-7.3,0.2,0.4,-0.0,--.--,--.--,--.--,--.--,--.--,--.--,--.--,--.--,--.--,--.--,--.--,--.--,45.15,42.30,--.--,0,0,1.3,3.2,8.4,0,0,0,180.0,0.0,0.0
2025-01-29 17:06:44.782,1.5,2.8,64,0.0,0.0,0.0,0.4,0.4,0.427,-0.0,-1.1,532.4,-0.550,-0.480,0.097,2.1,00:00:38,1.9,0,--.--,243,8.3,12,0000:49:59,0,0,0,46.22,44.99,4486,36,70,--.--,--:--:--,1,2079.39,17:06:44,29/01/2025,46.08,--.--,--.--,--.--,--.--,--.--,--.--,--.--,--.--,--.--,--.--,100.00,0,0.000,0.000,0.000,0.000,0.000,0.000,0.000,0.000,0.000,0.000,0.000,0.000,false,false,false,false,false,false,false,false,false,false,false,false,--.--,--.--,--.--,--.--,--.--,--.--,--.--,--.--,-16.6956074,-54.6695668,21KYB 48513 52665,0.5,0.1,50.8,3,26,--.--,--.--,,--.--,--.--,--.--,0,0,--.--,--.--,0,-12.5,-23.8,-7.3,0.3,0.3,0.0,--.--,--.--,--.--,--.--,--.--,--.--,--.--,--.--,--.--,--.--,--.--,--.--,45.20,42.37,--.--,0,0,2.4,3.4,9.0,0,0,0,180.0,0.0,0.0
2025-01-29 17:06:45.803,2.0,5.4,64,0.0,0.0,0.0,0.1,0.1,0.077,-0.1,-1.0,532.5,-0.470,-0.324,0.024,2.1,00:00:39,2.2,0,--.--,241,7.7,12,0000:49:59,0,0,0,46.20,44.99,4493,36,70,--.--,--:--:--,1,2078.63,17:06:45,29/01/2025,45.80,--.--,--.--,--.--,--.--,--.--,--.--,--.--,--.--,--.--,--.--,100.00,0,0.000,0.000,0.000,0.000,0.000,0.000,0.000,0.000,0.000,0.000,0.000,0.000,false,false,false,false,false,false,false,false,false,false,false,false,--.--,--.--,--.--,--.--,--.--,--.--,--.--,--.--,-16.6956058,-54.6695652,21KYB 48513 52665,0.6,0.1,334.9,3,25,--.--,--.--,,--.--,--.--,--.--,0,0,--.--,--.--,0,-12.4,-23.6,-7.4,0.0,0.0,0.0,--.--,--.--,--.--,--.--,--.--,--.--,--.--,--.--,--.--,--.--,--.--,--.--,45.12,42.31,--.--,0,0,2.2,3.1,8.3,0,0,0,180.0,0.0,0.0
2025-01-29 17:06:46.781,1.5,0.1,64,0.0,0.0,0.0,0.2,0.2,0.198,-0.1,-1.0,532.5,-0.480,-0.348,0.028,2.1,00:00:40,2.1,0,--.--,241,7.4,13,0000:49:59,0,0,0,46.20,44.99,4506,36,70,--.--,--:--:--,1,2078.45,17:06:46,29/01/2025,45.79,--.--,--.--,--.--,--.--,--.--,--.--,--.--,--.--,--.--,--.--,100.00,0,0.000,0.000,0.000,0.000,0.000,0.000,0.000,0.000,0.000,0.000,0.000,0.000,false,false,false,false,false,false,false,false,false,false,false,false,--.--,--.--,--.--,--.--,--.--,--.--,--.--,--.--,-16.6956071,-54.6695689,21KYB 48513 52665,0.5,0.1,254.8,3,25,--.--,--.--,,--.--,--.--,--.--,0,0,--.--,--.--,0,-12.4,-23.7,-7.4,-0.1,-0.2,0.1,--.--,--.--,--.--,--.--,--.--,--.--,--.--,--.--,--.--,--.--,--.--,--.--,45.15,42.31,--.--,0,0,1.7,3.0,6.8,0,0,0,180.0,0.0,0.0
2025-01-29 17:06:47.799,2.1,-0.7,64,0.0,0.0,0.0,0.1,0.2,0.165,-0.1,-1.0,532.4,-0.540,-0.461,0.009,2.1,00:00:41,2.0,0,--.--,241,7.1,13,0000:49:59,0,0,0,46.18,43.99,4518,36,69,--.--,--:--:--,1,2031.59,17:06:47,29/01/2025,45.92,--.--,--.--,--.--,--.--,--.--,--.--,--.--,--.--,--.--,--.--,100.00,0,0.000,0.000,0.000,0.000,0.000,0.000,0.000,0.000,0.000,0.000,0.000,0.000,false,false,false,false,false,false,false,false,false,false,false,false,--.--,--.--,--.--,--.--,--.--,--.--,--.--,--.--,-16.6956066,-54.6695686,21KYB 48513 52665,0.5,0.1,41.4,3,25,--.--,--.--,,--.--,--.--,--.--,0,0,--.--,--.--,0,-12.4,-23.8,-7.3,0.1,0.1,0.0,--.--,--.--,--.--,--.--,--.--,--.--,--.--,--.--,--.--,--.--,--.--,--.--,45.11,42.30,--.--,0,0,2.7,4.4,9.4,0,0,0,180.0,0.0,0.0
2025-01-29 17:06:48.793,2.1,0.9,65,0.0,0.0,0.0,0.2,0.2,0.210,-0.0,-1.1,532.4,-0.560,-0.507,0.003,2.1,00:00:42,2.2,0,--.--,241,7.0,12,0000:49:59,0,0,0,46.17,44.99,4531,36,69,--.--,--:--:--,1,2077.01,17:06:48,29/01/2025,45.64,--.--,--.--,--.--,--.--,--.--,--.--,--.--,--.--,--.--,--.--,100.00,0,0.000,0.000,0.000,0.000,0.000,0.000,0.000,0.000,0.000,0.000,0.000,0.000,false,false,false,false,false,false,false,false,false,false,false,false,--.--,--.--,--.--,--.--,--.--,--.--,--.--,--.--,-16.6956051,-54.6695686,21KYB 48513 52665,0.5,0.1,60.0,3,25,--.--,--.--,,--.--,--.--,--.--,0,0,--.--,--.--,0,-12.4,-23.6,-7.3,0.1,0.2,0.0,--.--,--.--,--.--,--.--,--.--,--.--,--.--,--.--,--.--,--.--,--.--,--.--,45.16,42.29,--.--,0,0,3.7,2.9,9.9,0,0,0,180.0,0.0,0.0
2025-01-29 17:06:49.791,2.8,0.6,65,0.0,0.0,0.0,0.0,0.1,0.054,-0.0,-1.1,532.3,-0.600,-0.584,0.046,2.1,00:00:43,2.3,0,--.--,240,6.7,12,0000:49:59,0,0,0,46.16,43.99,4544,36,69,--.--,--:--:--,1,2030.67,17:06:49,29/01/2025,45.51,--.--,--.--,--.--,--.--,--.--,--.--,--.--,--.--,--.--,--.--,100.00,0,0.000,0.000,0.000,0.000,0.000,0.000,0.000,0.000,0.000,0.000,0.000,0.000,false,false,false,false,false,false,false,false,false,false,false,false,--.--,--.--,--.--,--.--,--.--,--.--,--.--,--.--,-16.6956030,-54.6695705,21KYB 48513 52665,0.6,0.1,21.8,3,25,--.--,--.--,,--.--,--.--,--.--,0,0,--.--,--.--,0,-12.3,-23.5,-7.3,0.0,0.0,0.0,--.--,--.--,--.--,--.--,--.--,--.--,--.--,--.--,--.--,--.--,--.--,--.--,45.18,42.28,--.--,0,0,3.2,3.1,11.5,0,0,0,180.0,0.0,0.0
2025-01-29 17:06:50.786,2.7,1.9,65,0.0,0.0,0.0,0.2,0.3,0.255,-0.1,-1.2,532.3,-0.650,-0.668,0.099,2.1,00:00:44,2.3,0,--.--,239,6.7,11,0000:49:59,0,0,0,46.16,42.99,4556,36,69,--.--,--:--:--,1,1984.42,17:06:50,29/01/2025,45.55,--.--,--.--,--.--,--.--,--.--,--.--,--.--,--.--,--.--,--.--,100.00,0,0.000,0.000,0.000,0.000,0.000,0.000,0.000,0.000,0.000,0.000,0.000,0.000,false,false,false,false,false,false,false,false,false,false,false,false,--.--,--.--,--.--,--.--,--.--,--.--,--.--,--.--,-16.6956017,-54.6695698,21KYB 48513 52666,0.5,0.1,75.4,3,26,--.--,--.--,,--.--,--.--,--.--,0,0,--.--,--.--,0,-12.3,-23.6,-7.2,0.1,0.2,-0.0,--.--,--.--,--.--,--.--,--.--,--.--,--.--,--.--,--.--,--.--,--.--,--.--,45.14,42.30,--.--,0,0,2.6,2.9,10.4,0,0,0,180.0,0.0,0.0
2025-01-29 17:06:51.783,2.4,3.3,65,0.0,0.0,0.0,0.1,0.5,0.478,-0.5,-1.5,531.9,-1.100,-1.194,0.059,2.1,00:00:45,2.4,0,--.--,240,6.8,12,0000:49:59,0,0,0,46.19,37.98,4568,36,69,--.--,--:--:--,1,1754.41,17:06:51,29/01/2025,45.15,--.--,--.--,--.--,--.--,--.--,--.--,--.--,--.--,--.--,--.--,100.00,0,0.000,0.000,0.000,0.000,0.000,0.000,0.000,0.000,0.000,0.000,0.000,0.000,false,false,false,false,false,false,false,false,false,false,false,false,--.--,--.--,--.--,--.--,--.--,--.--,--.--,--.--,-16.6956009,-54.6695680,21KYB 48513 52666,0.5,0.1,110.7,3,26,--.--,--.--,,--.--,--.--,--.--,0,0,--.--,--.--,0,-12.2,-23.4,-6.8,-0.0,0.1,0.4,--.--,--.--,--.--,--.--,--.--,--.--,--.--,--.--,--.--,--.--,--.--,--.--,45.18,42.26,--.--,0,0,2.2,3.6,7.9,0,0,0,180.0,0.0,0.0
2025-01-29 17:06:52.795,2.1,3.1,70,0.0,0.0,0.0,0.1,0.6,0.599,-0.6,-2.1,531.3,-1.700,-1.825,0.027,2.1,00:00:46,2.4,0,--.--,240,7.0,12,0000:49:59,0,0,0,46.18,41.99,4579,36,69,--.--,--:--:--,1,1938.97,17:06:52,29/01/2025,44.48,--.--,--.--,--.--,--.--,--.--,--.--,--.--,--.--,--.--,--.--,100.00,0,0.000,0.000,0.000,0.000,0.000,0.000,0.000,0.000,0.000,0.000,0.000,0.000,false,false,false,false,false,false,false,false,false,false,false,false,--.--,--.--,--.--,--.--,--.--,--.--,--.--,--.--,-16.6956007,-54.6695673,21KYB 48513 52666,0.5,0.1,225.0,3,26,--.--,--.--,,--.--,--.--,--.--,0,0,--.--,--.--,0,-12.3,-23.4,-6.2,-0.0,0.1,0.6,--.--,--.--,--.--,--.--,--.--,--.--,--.--,--.--,--.--,--.--,--.--,--.--,45.09,42.26,--.--,0,0,2.0,3.9,8.4,0,0,0,180.0,0.0,0.0
2025-01-29 17:06:53.787,2.1,2.1,72,0.0,0.0,0.0,0.0,0.0,0.047,-0.0,-2.6,530.9,-2.080,-2.212,0.028,2.1,00:00:47,2.4,0,--.--,240,7.6,11,0000:49:59,0,0,0,46.14,41.99,4591,36,69,--.--,--:--:--,1,1937.42,17:06:53,29/01/2025,58.81,--.--,--.--,--.--,--.--,--.--,--.--,--.--,--.--,--.--,--.--,100.00,0,0.000,0.000,0.000,0.000,0.000,0.000,0.000,0.000,0.000,0.000,0.000,0.000,false,false,false,false,false,false,false,false,false,false,false,false,--.--,--.--,--.--,--.--,--.--,--.--,--.--,--.--,-16.6956005,-54.6695664,21KYB 48513 52666,0.5,0.1,209.1,3,27,--.--,--.--,,--.--,--.--,--.--,0,0,--.--,--.--,0,-12.3,-23.5,-5.8,-0.0,-0.0,0.0,--.--,--.--,--.--,--.--,--.--,--.--,--.--,--.--,--.--,--.--,--.--,--.--,45.10,42.27,--.--,0,0,1.6,6.2,10.6,0,0,0,180.0,0.0,0.0
2025-01-29 17:06:54.797,1.9,3.1,72,0.0,0.0,0.0,0.1,0.3,0.339,-0.3,-2.8,530.7,-2.320,-2.394,0.019,2.1,00:00:48,2.4,0,--.--,241,7.9,11,0000:49:59,0,0,0,46.16,42.99,4604,36,69,--.--,--:--:--,1,1984.55,17:06:54,29/01/2025,59.65,--.--,--.--,--.--,--.--,--.--,--.--,--.--,--.--,--.--,--.--,100.00,0,0.000,0.000,0.000,0.000,0.000,0.000,0.000,0.000,0.000,0.000,0.000,0.000,false,false,false,false,false,false,false,false,false,false,false,false,--.--,--.--,--.--,--.--,--.--,--.--,--.--,--.--,-16.6956003,-54.6695646,21KYB 48513 52666,0.5,0.1,65.0,3,27,--.--,--.--,,--.--,--.--,--.--,0,0,--.--,--.--,0,-12.3,-23.4,-5.6,0.0,0.1,0.3,--.--,--.--,--.--,--.--,--.--,--.--,--.--,--.--,--.--,--.--,--.--,--.--,45.15,42.26,--.--,0,0,2.0,2.8,9.1,0,0,0,180.0,0.0,0.0
2025-01-29 17:06:55.792,2.5,2.1,72,0.0,0.0,0.0,0.2,0.5,0.504,-0.5,-3.3,530.2,-2.810,-2.920,0.032,2.1,00:00:49,2.4,0,--.--,240,7.8,12,0000:49:59,0,0,0,46.16,38.98,4615,36,69,--.--,--:--:--,1,1799.16,17:06:55,29/01/2025,59.60,--.--,--.--,--.--,--.--,--.--,--.--,--.--,--.--,--.--,--.--,100.00,0,0.000,0.000,0.000,0.000,0.000,0.000,0.000,0.000,0.000,0.000,0.000,0.000,false,false,false,false,false,false,false,false,false,false,false,false,--.--,--.--,--.--,--.--,--.--,--.--,--.--,--.--,-16.6955998,-54.6695628,21KYB 48513 52666,0.5,0.1,239.9,3,28,--.--,--.--,,--.--,--.--,--.--,0,0,--.--,--.--,0,-12.2,-23.4,-5.1,-0.0,-0.2,0.5,--.--,--.--,--.--,--.--,--.--,--.--,--.--,--.--,--.--,--.--,--.--,--.--,45.12,42.27,--.--,0,0,2.0,3.0,8.8,0,0,0,180.0,0.0,0.0
2025-01-29 17:06:56.782,2.5,-1.5,72,0.0,0.0,0.0,0.1,0.1,0.117,0.1,-3.6,529.8,-3.110,-3.280,0.187,2.1,00:00:50,2.2,0,--.--,239,7.4,12,0000:49:59,0,0,0,46.09,46.99,4627,36,69,--.--,--:--:--,1,2165.58,17:06:56,29/01/2025,59.52,--.--,--.--,--.--,--.--,--.--,--.--,--.--,--.--,--.--,--.--,100.00,0,0.000,0.000,0.000,0.000,0.000,0.000,0.000,0.000,0.000,0.000,0.000,0.000,false,false,false,false,false,false,false,false,false,false,false,false,--.--,--.--,--.--,--.--,--.--,--.--,--.--,--.--,-16.6955996,-54.6695632,21KYB 48513 52666,0.5,0.1,258.3,3,28,--.--,--.--,,--.--,--.--,--.--,0,0,--.--,--.--,0,-12.3,-23.6,-4.8,-0.1,-0.1,-0.0,--.--,--.--,--.--,--.--,--.--,--.--,--.--,--.--,--.--,--.--,--.--,--.--,45.11,42.30,--.--,0,0,3.2,5.0,11.4,0,0,0,180.0,0.0,0.0
2025-01-29 17:06:57.795,2.5,-0.2,74,0.0,0.0,0.0,0.1,0.3,0.337,-0.3,-3.8,529.6,-3.340,-3.500,0.111,2.1,00:00:51,2.2,0,--.--,239,7.1,13,0000:49:59,0,0,0,46.14,39.98,4640,36,69,--.--,--:--:--,1,1844.72,17:06:57,29/01/2025,59.48,--.--,--.--,--.--,--.--,--.--,--.--,--.--,--.--,--.--,--.--,100.00,0,0.000,0.000,0.000,0.000,0.000,0.000,0.000,0.000,0.000,0.000,0.000,0.000,false,false,false,false,false,false,false,false,false,false,false,false,--.--,--.--,--.--,--.--,--.--,--.--,--.--,--.--,-16.6955990,-54.6695616,21KYB 48513 52666,0.5,0.1,109.7,3,27,--.--,--.--,,--.--,--.--,--.--,0,0,--.--,--.--,0,-12.3,-23.6,-4.6,-0.0,0.1,0.3,--.--,--.--,--.--,--.--,--.--,--.--,--.--,--.--,--.--,--.--,--.--,--.--,45.14,42.27,--.--,0,0,2.8,3.5,8.4,0,0,0,180.0,0.0,0.0
2025-01-29 17:06:58.786,2.2,0.9,73,0.0,0.0,0.0,0.0,0.0,0.048,-0.0,-4.0,529.4,-3.510,-3.703,0.025,2.1,00:00:52,2.4,0,--.--,241,7.1,10,0000:49:59,0,0,0,46.08,44.99,4652,36,68,--.--,--:--:--,1,2073.18,17:06:58,29/01/2025,37.04,--.--,--.--,--.--,--.--,--.--,--.--,--.--,--.--,--.--,--.--,100.00,0,0.000,0.000,0.000,0.000,0.000,0.000,0.000,0.000,0.000,0.000,0.000,0.000,false,false,false,false,false,false,false,false,false,false,false,false,--.--,--.--,--.--,--.--,--.--,--.--,--.--,--.--,-16.6955992,-54.6695609,21KYB 48514 52666,0.5,0.1,102.7,3,28,--.--,--.--,,--.--,--.--,--.--,0,0,--.--,--.--,0,-12.3,-23.4,-4.4,0.0,0.1,-0.1,--.--,--.--,--.--,--.--,--.--,--.--,--.--,--.--,--.--,--.--,--.--,--.--,45.16,42.25,--.--,0,0,2.9,3.5,8.9,0,0,0,180.0,0.0,0.0
2025-01-29 17:06:59.789,2.9,0.7,79,0.0,0.0,0.0,0.1,0.4,0.433,-0.4,-4.5,528.9,-4.090,-4.323,0.059,2.1,00:00:53,2.4,0,--.--,240,7.3,13,0000:49:59,0,0,0,46.17,38.98,4664,36,68,--.--,--:--:--,1,1799.75,17:06:59,29/01/2025,36.43,--.--,--.--,--.--,--.--,--.--,--.--,--.--,--.--,--.--,--.--,100.00,0,0.000,0.000,0.000,0.000,0.000,0.000,0.000,0.000,0.000,0.000,0.000,0.000,false,false,false,false,false,false,false,false,false,false,false,false,--.--,--.--,--.--,--.--,--.--,--.--,--.--,--.--,-16.6955997,-54.6695620,21KYB 48513 52666,0.5,0.1,267.8,3,27,--.--,--.--,,--.--,--.--,--.--,0,0,--.--,--.--,0,-12.2,-23.4,-3.9,-0.0,-0.0,0.6,--.--,--.--,--.--,--.--,--.--,--.--,--.--,--.--,--.--,--.--,--.--,--.--,45.11,42.26,--.--,0,0,2.5,3.7,11.8,0,0,0,180.0,0.0,0.0
2025-01-29 17:07:00.780,2.8,-0.2,85,0.0,0.0,0.0,0.0,0.2,0.234,-0.2,-4.8,528.6,-4.360,-4.550,0.028,2.1,00:00:54,2.4,0,--.--,240,7.3,11,0000:49:59,0,0,0,46.09,43.99,4675,36,68,--.--,--:--:--,1,2027.50,17:07:00,29/01/2025,36.39,--.--,--.--,--.--,--.--,--.--,--.--,--.--,--.--,--.--,--.--,100.00,0,0.000,0.000,0.000,0.000,0.000,0.000,0.000,0.000,0.000,0.000,0.000,0.000,false,false,false,false,false,false,false,false,false,false,false,false,--.--,--.--,--.--,--.--,--.--,--.--,--.--,--.--,-16.6956002,-54.6695644,21KYB 48513 52666,0.5,0.1,218.5,3,27,--.--,--.--,,--.--,--.--,--.--,0,0,--.--,--.--,0,-12.2,-23.4,-3.6,-0.1,-0.0,0.2,--.--,--.--,--.--,--.--,--.--,--.--,--.--,--.--,--.--,--.--,--.--,--.--,45.13,42.27,--.--,0,0,2.0,2.8,10.2,0,0,0,180.0,0.0,0.0
2025-01-29 17:07:01.797,1.9,-1.1,96,0.0,0.0,0.0,0.0,0.4,0.408,-0.4,-5.3,528.1,-4.850,-5.016,0.072,2.1,00:00:55,2.3,0,--.--,240,7.4,14,0000:49:59,0,0,0,46.15,38.98,4687,36,68,--.--,--:--:--,1,1799.08,17:07:01,29/01/2025,36.39,--.--,--.--,--.--,--.--,--.--,--.--,--.--,--.--,--.--,--.--,100.00,0,0.000,0.000,0.000,0.000,0.000,0.000,0.000,0.000,0.000,0.000,0.000,0.000,false,false,false,false,false,false,false,false,false,false,false,false,--.--,--.--,--.--,--.--,--.--,--.--,--.--,--.--,-16.6956004,-54.6695660,21KYB 48513 52666,0.5,0.1,286.7,3,27,--.--,--.--,,--.--,--.--,--.--,0,0,--.--,--.--,0,-12.3,-23.5,-3.1,-0.0,-0.0,0.5,--.--,--.--,--.--,--.--,--.--,--.--,--.--,--.--,--.--,--.--,--.--,--.--,45.15,42.26,--.--,0,0,2.2,3.6,9.7,0,0,0,180.0,0.0,0.0
2025-01-29 17:07:02.796,2.4,0.1,93,0.0,0.0,0.0,0.2,0.2,0.195,0.1,-5.4,528.0,-4.910,-5.019,0.027,2.1,00:00:56,2.3,0,--.--,240,7.5,12,0000:49:59,0,0,0,46.07,42.99,4693,36,68,--.--,--:--:--,1,1980.51,17:07:02,29/01/2025,34.50,--.--,--.--,--.--,--.--,--.--,--.--,--.--,--.--,--.--,--.--,100.00,0,0.000,0.000,0.000,0.000,0.000,0.000,0.000,0.000,0.000,0.000,0.000,0.000,false,false,false,false,false,false,false,false,false,false,false,false,--.--,--.--,--.--,--.--,--.--,--.--,--.--,--.--,-16.6956016,-54.6695655,21KYB 48513 52666,0.5,0.1,98.5,3,28,--.--,--.--,,--.--,--.--,--.--,0,0,--.--,--.--,0,-12.3,-23.5,-2.9,-0.0,0.2,-0.1,--.--,--.--,--.--,--.--,--.--,--.--,--.--,--.--,--.--,--.--,--.--,--.--,45.13,42.28,--.--,0,0,1.8,6.0,9.6,0,0,0,180.0,0.0,0.0
2025-01-29 17:07:03.787,2.2,2.2,98,0.0,0.0,0.0,0.1,0.5,0.459,-0.4,-5.5,528.0,-5.020,-5.096,0.126,2.1,00:00:57,2.4,0,--.--,243,7.4,10,0000:49:59,0,0,0,46.09,40.99,4705,36,68,--.--,--:--:--,1,1889.23,17:07:03,29/01/2025,78.23,--.--,--.--,--.--,--.--,--.--,--.--,--.--,--.--,--.--,--.--,100.00,0,0.000,0.000,0.000,0.000,0.000,0.000,0.000,0.000,0.000,0.000,0.000,0.000,false,false,false,false,false,false,false,false,false,false,false,false,--.--,--.--,--.--,--.--,--.--,--.--,--.--,--.--,-16.6956018,-54.6695646,21KYB 48513 52665,0.5,0.1,101.2,3,27,--.--,--.--,,--.--,--.--,--.--,0,0,--.--,--.--,0,-12.3,-23.3,-2.9,-0.0,0.1,0.3,--.--,--.--,--.--,--.--,--.--,--.--,--.--,--.--,--.--,--.--,--.--,--.--,45.21,42.27,--.--,0,0,2.2,2.2,8.0,0,0,0,180.0,0.0,0.0
2025-01-29 17:07:04.804,1.9,1.8,110,0.0,0.0,0.0,0.1,0.8,0.765,-0.8,-6.4,527.1,-5.960,-6.151,0.127,2.1,00:00:58,2.5,0,--.--,243,7.4,13,0000:49:59,0,0,0,46.16,32.98,4717,36,68,--.--,--:--:--,1,1522.46,17:07:04,29/01/2025,78.23,--.--,--.--,--.--,--.--,--.--,--.--,--.--,--.--,--.--,--.--,100.00,0,0.000,0.000,0.000,0.000,0.000,0.000,0.000,0.000,0.000,0.000,0.000,0.000,false,false,false,false,false,false,false,false,false,false,false,false,--.--,--.--,--.--,--.--,--.--,--.--,--.--,--.--,-16.6956010,-54.6695651,21KYB 48513 52666,0.5,0.1,309.3,3,27,--.--,--.--,,--.--,--.--,--.--,0,0,--.--,--.--,0,-12.3,-23.3,-2.0,-0.0,-0.1,0.8,--.--,--.--,--.--,--.--,--.--,--.--,--.--,--.--,--.--,--.--,--.--,--.--,45.09,42.23,--.--,0,0,2.2,4.7,10.6,0,0,0,180.0,0.0,0.0
2025-01-29 17:07:05.816,1.3,0.6,111,0.0,0.0,0.0,0.1,0.2,0.238,-0.2,-7.1,526.4,-6.610,-6.779,0.044,2.1,00:00:59,2.4,0,--.--,242,7.4,12,0000:49:59,0,0,0,46.09,39.98,4727,36,68,--.--,--:--:--,1,1842.64,17:07:05,29/01/2025,1.76,--.--,--.--,--.--,--.--,--.--,--.--,--.--,--.--,--.--,--.--,100.00,0,0.000,0.000,0.000,0.000,0.000,0.000,0.000,0.000,0.000,0.000,0.000,0.000,false,false,false,false,false,false,false,false,false,false,false,false,--.--,--.--,--.--,--.--,--.--,--.--,--.--,--.--,-16.6956001,-54.6695663,21KYB 48513 52666,0.5,0.1,274.6,3,26,--.--,--.--,,--.--,--.--,--.--,0,0,--.--,--.--,0,-12.3,-23.4,-1.3,-0.0,-0.1,0.4,--.--,--.--,--.--,--.--,--.--,--.--,--.--,--.--,--.--,--.--,--.--,--.--,45.15,42.20,--.--,0,0,2.2,3.6,9.4,0,0,0,180.0,0.0,0.0
2025-01-29 17:07:06.787,0.9,2.9,111,0.0,0.0,0.0,0.1,0.5,0.495,-0.5,-7.2,526.2,-6.790,-6.825,0.000,2.1,00:01:00,2.3,0,--.--,242,7.5,10,0000:49:59,0,0,0,46.10,37.98,4738,36,68,--.--,--:--:--,1,1750.88,17:07:06,29/01/2025,2.08,--.--,--.--,--.--,--.--,--.--,--.--,--.--,--.--,--.--,--.--,100.00,0,0.000,0.000,0.000,0.000,0.000,0.000,0.000,0.000,0.000,0.000,0.000,0.000,false,false,false,false,false,false,false,false,false,false,false,false,--.--,--.--,--.--,--.--,--.--,--.--,--.--,--.--,-16.6956009,-54.6695686,21KYB 48513 52666,0.5,0.1,126.6,3,26,--.--,--.--,,--.--,--.--,--.--,0,0,--.--,--.--,0,-12.3,-23.4,-1.2,-0.0,0.1,0.4,--.--,--.--,--.--,--.--,--.--,--.--,--.--,--.--,--.--,--.--,--.--,--.--,45.16,42.24,--.--,0,0,3.5,2.2,5.9,0,0,0,180.0,0.0,0.0
2025-01-29 17:07:07.798,-1.9,-0.9,105,0.0,0.0,0.0,0.2,0.2,0.216,-0.0,-7.7,525.7,-7.260,-7.170,0.000,2.1,00:01:01,2.4,0,--.--,241,7.4,1,0000:49:59,0,0,0,46.16,32.98,4748,36,68,--.--,--:--:--,1,1522.19,17:07:07,29/01/2025,2.21,--.--,--.--,--.--,--.--,--.--,--.--,--.--,--.--,--.--,--.--,100.00,0,0.000,0.000,0.000,0.000,0.000,0.000,0.000,0.000,0.000,0.000,0.000,0.000,false,false,false,false,false,false,false,false,false,false,false,false,--.--,--.--,--.--,--.--,--.--,--.--,--.--,--.--,-16.6956017,-54.6695645,21KYB 48513 52666,0.6,0.1,56.9,3,25,--.--,--.--,,--.--,--.--,--.--,0,0,--.--,--.--,0,-12.3,-23.4,-0.6,0.2,0.2,0.1,--.--,--.--,--.--,--.--,--.--,--.--,--.--,--.--,--.--,--.--,--.--,--.--,45.21,42.23,--.--,0,0,3.4,2.9,4.2,0,0,0,180.0,0.0,0.0
2025-01-29 17:07:08.800,-1.5,-0.9,104,0.0,0.0,0.0,0.1,0.1,0.087,-0.1,-7.8,525.6,-7.330,-6.711,0.000,2.1,00:01:02,2.4,0,--.--,242,7.4,0,0000:49:59,0,0,0,46.47,12.99,4757,36,68,--.--,--:--:--,1,603.67,17:07:08,29/01/2025,2.24,--.--,--.--,--.--,--.--,--.--,--.--,--.--,--.--,--.--,--.--,100.00,0,0.000,0.000,0.000,0.000,0.000,0.000,0.000,0.000,0.000,0.000,0.000,0.000,false,false,false,false,false,false,false,false,false,false,false,false,--.--,--.--,--.--,--.--,--.--,--.--,--.--,--.--,-16.6956014,-54.6695621,21KYB 48513 52666,0.5,0.1,77.7,3,26,--.--,--.--,,--.--,--.--,--.--,0,0,--.--,--.--,0,-12.3,-23.4,-0.5,-0.1,-0.0,0.1,--.--,--.--,--.--,--.--,--.--,--.--,--.--,--.--,--.--,--.--,--.--,--.--,45.16,42.20,--.--,0,0,1.1,1.3,1.5,0,0,0,180.0,0.0,0.0
2025-01-29 17:07:09.790,-1.5,-0.9,104,0.0,0.0,0.0,0.0,0.1,0.068,-0.1,-7.9,525.6,-7.380,-7.380,0.000,2.1,00:01:02,2.4,0,--.--,242,7.4,0,0000:49:59,0,0,0,46.52,2.99,4759,36,68,--.--,--:--:--,1,139.10,17:07:09,29/01/2025,12.19,--.--,--.--,--.--,--.--,--.--,--.--,--.--,--.--,--.--,--.--,100.00,0,0.000,0.000,0.000,0.000,0.000,0.000,0.000,0.000,0.000,0.000,0.000,0.000,false,false,false,false,false,false,false,false,false,false,false,false,--.--,--.--,--.--,--.--,--.--,--.--,--.--,--.--,-16.6956021,-54.6695607,21KYB 48514 52665,0.6,0.1,99.5,3,26,--.--,--.--,,--.--,--.--,--.--,0,0,--.--,--.--,0,-12.3,-23.3,-0.5,-0.0,-0.0,0.1,--.--,--.--,--.--,--.--,--.--,--.--,--.--,--.--,--.--,--.--,--.--,--.--,45.21,42.22,--.--,0,0,1.1,1.7,1.5,0,0,0,180.0,0.0,0.0
2025-01-29 17:07:10.785,-1.5,-0.9,104,0.0,0.0,0.0,0.0,0.1,0.057,-0.1,-7.9,525.5,-7.420,-7.420,0.000,2.1,00:01:02,2.5,0,--.--,243,7.4,0,0000:49:59,0,0,0,46.59,1.99,4760,36,68,--.--,--:--:--,1,92.72,17:07:10,29/01/2025,12.21,--.--,--.--,--.--,--.--,--.--,--.--,--.--,--.--,--.--,--.--,100.00,0,0.000,0.000,0.000,0.000,0.000,0.000,0.000,0.000,0.000,0.000,0.000,0.000,false,false,false,false,false,false,false,false,false,false,false,false,--.--,--.--,--.--,--.--,--.--,--.--,--.--,--.--,-16.6956023,-54.6695595,21KYB 48514 52665,0.6,0.1,243.4,3,24,--.--,--.--,,--.--,--.--,--.--,0,0,--.--,--.--,0,-12.3,-23.3,-0.5,-0.0,-0.0,0.1,--.--,--.--,--.--,--.--,--.--,--.--,--.--,--.--,--.--,--.--,--.--,--.--,45.16,42.17,--.--,0,0,0.4,0.2,0.4,0,0,0,180.0,0.0,0.0
2025-01-29 17:07:11.770,-1.5,-0.9,104,0.0,0.0,0.0,0.0,0.0,0.050,-0.0,-8.0,525.5,-7.460,-7.460,0.000,2.1,00:01:02,2.5,0,--.--,243,7.4,0,0000:49:59,0,0,0,46.63,0.00,4760,36,68,--.--,--:--:--,1,0.00,17:07:11,29/01/2025,12.18,--.--,--.--,--.--,--.--,--.--,--.--,--.--,--.--,--.--,--.--,100.00,0,0.000,0.000,0.000,0.000,0.000,0.000,0.000,0.000,0.000,0.000,0.000,0.000,false,false,false,false,false,false,false,false,false,false,false,false,--.--,--.--,--.--,--.--,--.--,--.--,--.--,--.--,-16.6956020,-54.6695585,21KYB 48514 52665,0.5,0.1,98.1,3,26,--.--,--.--,,--.--,--.--,--.--,0,0,--.--,--.--,0,-12.3,-23.2,-0.4,-0.0,-0.0,0.0,--.--,--.--,--.--,--.--,--.--,--.--,--.--,--.--,--.--,--.--,--.--,--.--,45.13,42.20,--.--,0,0,0.3,0.1,0.2,0,0,0,180.0,0.0,0.0
2025-01-29 17:07:12.785,-1.5,-0.9,105,0.0,0.0,0.0,0.0,0.0,0.037,-0.0,-8.0,525.5,-7.460,-7.460,0.000,2.1,00:01:02,2.6,0,--.--,244,7.4,0,0000:49:59,0,0,0,46.66,0.00,4760,36,68,--.--,--:--:--,1,0.00,17:07:12,29/01/2025,12.20,--.--,--.--,--.--,--.--,--.--,--.--,--.--,--.--,--.--,--.--,100.00,0,0.000,0.000,0.000,0.000,0.000,0.000,0.000,0.000,0.000,0.000,0.000,0.000,false,false,false,false,false,false,false,false,false,false,false,false,--.--,--.--,--.--,--.--,--.--,--.--,--.--,--.--,-16.6956020,-54.6695573,21KYB 48514 52665,0.6,0.1,270.0,3,26,--.--,--.--,,--.--,--.--,--.--,0,0,--.--,--.--,0,-12.3,-23.2,-0.4,-0.0,-0.0,0.0,--.--,--.--,--.--,--.--,--.--,--.--,--.--,--.--,--.--,--.--,--.--,--.--,45.20,42.25,--.--,0,0,0.2,0.1,0.1,0,0,0,180.0,0.0,0.0
2025-01-29 17:07:13.789,-1.6,-0.8,105,0.0,0.0,0.0,0.0,0.0,0.028,-0.0,-8.0,525.5,-7.460,-7.460,0.000,2.1,00:01:02,2.6,0,--.--,245,7.4,0,0000:49:59,0,0,0,46.68,0.00,4760,36,68,--.--,--:--:--,1,0.00,17:07:13,29/01/2025,12.43,--.--,--.--,--.--,--.--,--.--,--.--,--.--,--.--,--.--,--.--,100.00,0,0.000,0.000,0.000,0.000,0.000,0.000,0.000,0.000,0.000,0.000,0.000,0.000,false,false,false,false,false,false,false,false,false,false,false,false,--.--,--.--,--.--,--.--,--.--,--.--,--.--,--.--,-16.6956027,-54.6695559,21KYB 48514 52665,0.6,0.1,135.0,3,26,--.--,--.--,,--.--,--.--,--.--,0,0,--.--,--.--,0,-12.3,-23.1,-0.4,-0.0,-0.0,0.0,--.--,--.--,--.--,--.--,--.--,--.--,--.--,--.--,--.--,--.--,--.--,--.--,45.15,42.17,--.--,0,0,0.0,0.0,0.0,0,0,0,180.0,0.0,0.0
2025-01-29 17:07:14.792,-1.6,-0.8,105,0.0,0.0,0.0,0.0,0.0,0.020,-0.0,-7.9,525.5,-7.420,-7.420,0.000,2.1,00:01:02,2.7,0,--.--,246,7.4,0,0000:49:59,0,0,0,46.70,0.00,4760,36,68,--.--,--:--:--,1,0.00,17:07:14,29/01/2025,12.46,--.--,--.--,--.--,--.--,--.--,--.--,--.--,--.--,--.--,--.--,100.00,0,0.000,0.000,0.000,0.000,0.000,0.000,0.000,0.000,0.000,0.000,0.000,0.000,false,false,false,false,false,false,false,false,false,false,false,false,--.--,--.--,--.--,--.--,--.--,--.--,--.--,--.--,-16.6956022,-54.6695525,21KYB 48514 52665,0.5,0.1,270.0,3,28,--.--,--.--,,--.--,--.--,--.--,0,0,--.--,--.--,0,-12.3,-23.0,-0.4,-0.0,0.0,0.0,--.--,--.--,--.--,--.--,--.--,--.--,--.--,--.--,--.--,--.--,--.--,--.--,45.15,42.15,--.--,0,0,0.0,0.0,0.0,0,0,0,180.0,0.0,0.0
2025-01-29 17:07:15.803,-1.6,-0.8,105,0.0,0.0,0.0,0.0,0.0,0.012,0.0,-7.9,525.6,-7.360,-7.360,0.000,2.1,00:01:02,2.8,0,--.--,247,7.5,0,0000:49:59,0,0,0,46.71,0.00,4760,36,68,--.--,--:--:--,1,0.00,17:07:15,29/01/2025,12.45,--.--,--.--,--.--,--.--,--.--,--.--,--.--,--.--,--.--,--.--,100.00,0,0.000,0.000,0.000,0.000,0.000,0.000,0.000,0.000,0.000,0.000,0.000,0.000,false,false,false,false,false,false,false,false,false,false,false,false,--.--,--.--,--.--,--.--,--.--,--.--,--.--,--.--,-16.6956018,-54.6695513,21KYB 48515 52665,0.5,0.1,288.4,3,27,--.--,--.--,,--.--,--.--,--.--,0,0,--.--,--.--,0,-12.3,-22.9,-0.5,-0.0,0.0,0.0,--.--,--.--,--.--,--.--,--.--,--.--,--.--,--.--,--.--,--.--,--.--,--.--,45.19,42.20,--.--,0,0,0.0,0.0,0.0,0,0,0,180.0,0.0,0.0
2025-01-29 17:07:16.791,-1.6,-0.8,105,0.0,0.0,0.0,0.0,0.0,0.016,0.0,-7.8,525.6,-7.270,-7.270,0.000,2.1,00:01:02,2.9,0,--.--,248,7.5,0,0000:49:59,0,0,0,46.73,0.00,4760,36,68,--.--,--:--:--,1,0.00,17:07:16,29/01/2025,12.45,--.--,--.--,--.--,--.--,--.--,--.--,--.--,--.--,--.--,--.--,100.00,0,0.000,0.000,0.000,0.000,0.000,0.000,0.000,0.000,0.000,0.000,0.000,0.000,false,false,false,false,false,false,false,false,false,false,false,false,--.--,--.--,--.--,--.--,--.--,--.--,--.--,--.--,-16.6956012,-54.6695510,21KYB 48515 52666,0.5,0.1,288.4,3,26,--.--,--.--,,--.--,--.--,--.--,0,0,--.--,--.--,0,-12.3,-22.8,-0.6,-0.0,-0.0,-0.0,--.--,--.--,--.--,--.--,--.--,--.--,--.--,--.--,--.--,--.--,--.--,--.--,45.18,42.18,--.--,0,0,0.0,0.0,0.0,0,0,0,180.0,0.0,0.0
2025-01-29 17:07:17.796,-1.6,-0.8,105,0.0,0.0,0.0,0.0,0.0,0.025,0.0,-7.7,525.7,-7.190,-7.190,0.000,2.1,00:01:02,3.0,0,--.--,248,7.5,0,0000:49:59,0,0,0,46.75,0.00,4760,36,68,--.--,--:--:--,1,0.00,17:07:17,29/01/2025,12.46,--.--,--.--,--.--,--.--,--.--,--.--,--.--,--.--,--.--,--.--,100.00,0,0.000,0.000,0.000,0.000,0.000,0.000,0.000,0.000,0.000,0.000,0.000,0.000,false,false,false,false,false,false,false,false,false,false,false,false,--.--,--.--,--.--,--.--,--.--,--.--,--.--,--.--,-16.6956009,-54.6695493,21KYB 48515 52666,0.5,0.1,262.9,3,28,--.--,--.--,,--.--,--.--,--.--,0,0,--.--,--.--,0,-12.3,-22.7,-0.7,-0.0,-0.0,-0.0,--.--,--.--,--.--,--.--,--.--,--.--,--.--,--.--,--.--,--.--,--.--,--.--,45.19,42.17,--.--,0,0,0.0,0.0,0.0,0,0,0,180.0,0.0,0.0
2025-01-29 17:07:18.796,-1.6,-0.8,105,0.0,0.0,0.0,0.0,0.0,0.034,0.0,-7.6,525.8,-7.090,-7.090,0.000,2.1,00:01:02,3.1,0,--.--,249,7.5,0,0000:49:59,0,0,0,46.76,0.00,4760,36,68,--.--,--:--:--,1,0.00,17:07:18,29/01/2025,12.45,--.--,--.--,--.--,--.--,--.--,--.--,--.--,--.--,--.--,--.--,100.00,0,0.000,0.000,0.000,0.000,0.000,0.000,0.000,0.000,0.000,0.000,0.000,0.000,false,false,false,false,false,false,false,false,false,false,false,false,--.--,--.--,--.--,--.--,--.--,--.--,--.--,--.--,-16.6956005,-54.6695451,21KYB 48515 52666,0.5,0.1,270.0,3,28,--.--,--.--,,--.--,--.--,--.--,0,0,--.--,--.--,0,-12.3,-22.6,-0.8,-0.0,-0.0,-0.0,--.--,--.--,--.--,--.--,--.--,--.--,--.--,--.--,--.--,--.--,--.--,--.--,45.16,42.17,--.--,0,0,0.2,0.0,0.0,0,0,0,180.0,0.0,0.0
2025-01-29 17:07:19.793,-1.6,-0.8,105,0.0,0.0,0.0,0.0,0.0,0.044,0.0,-7.5,525.9,-6.980,-6.980,0.000,2.1,00:01:02,3.3,0,--.--,250,7.6,0,0000:49:59,0,0,0,46.78,0.00,4760,36,68,--.--,--:--:--,1,0.00,17:07:19,29/01/2025,12.41,--.--,--.--,--.--,--.--,--.--,--.--,--.--,--.--,--.--,--.--,100.00,0,0.000,0.000,0.000,0.000,0.000,0.000,0.000,0.000,0.000,0.000,0.000,0.000,false,false,false,false,false,false,false,false,false,false,false,false,--.--,--.--,--.--,--.--,--.--,--.--,--.--,--.--,-16.6956004,-54.6695433,21KYB 48515 52666,0.5,0.1,288.4,3,28,--.--,--.--,,--.--,--.--,--.--,0,0,--.--,--.--,0,-12.3,-22.4,-0.9,-0.0,0.0,-0.0,--.--,--.--,--.--,--.--,--.--,--.--,--.--,--.--,--.--,--.--,--.--,--.--,45.20,42.19,--.--,0,0,0.4,0.1,0.2,0,0,0,180.0,0.0,0.0
2025-01-29 17:07:20.799,-1.6,-0.8,105,0.0,0.0,0.0,0.0,0.1,0.051,0.1,-7.4,526.0,-6.870,-6.870,0.000,2.1,00:01:02,3.5,0,--.--,251,7.6,0,0000:49:59,0,0,0,46.79,0.00,4760,36,68,--.--,--:--:--,1,0.00,17:07:20,29/01/2025,12.33,--.--,--.--,--.--,--.--,--.--,--.--,--.--,--.--,--.--,--.--,100.00,0,0.000,0.000,0.000,0.000,0.000,0.000,0.000,0.000,0.000,0.000,0.000,0.000,false,false,false,false,false,false,false,false,false,false,false,false,--.--,--.--,--.--,--.--,--.--,--.--,--.--,--.--,-16.6956001,-54.6695429,21KYB 48515 52666,0.5,0.1,333.4,3,28,--.--,--.--,,--.--,--.--,--.--,0,0,--.--,--.--,0,-12.3,-22.2,-1.0,0.0,0.0,-0.1,--.--,--.--,--.--,--.--,--.--,--.--,--.--,--.--,--.--,--.--,--.--,--.--,45.18,42.16,--.--,0,0,0.9,0.3,0.6,0,0,0,180.0,0.0,0.0
2025-01-29 17:07:21.779,-1.6,-0.8,105,0.0,0.0,0.0,0.0,0.1,0.057,0.1,-7.3,526.2,-6.750,-6.750,0.000,2.1,00:01:02,3.6,0,--.--,251,7.7,0,0000:49:59,0,0,0,46.80,0.00,4760,36,68,--.--,--:--:--,1,0.00,17:07:21,29/01/2025,12.28,--.--,--.--,--.--,--.--,--.--,--.--,--.--,--.--,--.--,--.--,100.00,0,0.000,0.000,0.000,0.000,0.000,0.000,0.000,0.000,0.000,0.000,0.000,0.000,false,false,false,false,false,false,false,false,false,false,false,false,--.--,--.--,--.--,--.--,--.--,--.--,--.--,--.--,-16.6955999,-54.6695431,21KYB 48515 52666,0.5,0.1,45.0,3,28,--.--,--.--,,--.--,--.--,--.--,0,0,--.--,--.--,0,-12.2,-22.1,-1.1,0.0,-0.0,-0.1,--.--,--.--,--.--,--.--,--.--,--.--,--.--,--.--,--.--,--.--,--.--,--.--,45.18,42.17,--.--,0,0,0.9,0.3,0.6,0,0,0,180.0,0.0,0.0
