Timestamp,roll,pitch,heading,rollRate,pitchRate,yawRate,groundSpeed,airSpeed,airSpeedSetpoint,climbRate,altitudeRelative,altitudeAMSL,altitudeTuning,altitudeTuningSetpoint,xTrackError,flightDistance,flightTime,distanceToHome,missionItemIndex,headingToNextWP,headingToHome,distanceToGCS,throttlePct,hobbs,battery0.id,battery0.batteryFunction,battery0.batteryType,battery0.voltage,battery0.current,battery0.mahConsumed,battery0.temperature,battery0.percentRemaining,battery0.timeRemaining,battery0.timeRemainingStr,battery0.chargeState,battery0.instantPower,clock.currentTime,clock.currentDate,distanceSensor.rotationNone,distanceSensor.rotationYaw45,distanceSensor.rotationYaw90,distanceSensor.rotationYaw135,distanceSensor.rotationYaw180,distanceSensor.rotationYaw225,distanceSensor.rotationYaw270,distanceSensor.rotationYaw315,distanceSensor.rotationPitch90,distanceSensor.rotationPitch270,distanceSensor.minDistance,distanceSensor.maxDistance,escStatus.index,escStatus.rpm1,escStatus.rpm2,escStatus.rpm3,escStatus.rpm4,escStatus.current1,escStatus.current2,escStatus.current3,escStatus.current4,escStatus.voltage1,escStatus.voltage2,escStatus.voltage3,escStatus.voltage4,estimatorStatus.goodAttitudeEsimate,estimatorStatus.goodHorizVelEstimate,estimatorStatus.goodVertVelEstimate,estimatorStatus.goodHorizPosRelEstimate,estimatorStatus.goodHorizPosAbsEstimate,estimatorStatus.goodVertPosAbsEstimate,estimatorStatus.goodVertPosAGLEstimate,estimatorStatus.goodConstPosModeEstimate,estimatorStatus.goodPredHorizPosRelEstimate,estimatorStatus.goodPredHorizPosAbsEstimate,estimatorStatus.gpsGlitch,estimatorStatus.accelError,estimatorStatus.velRatio,estimatorStatus.horizPosRatio,estimatorStatus.vertPosRatio,estimatorStatus.magRatio,estimatorStatus.haglRatio,estimatorStatus.tasRatio,estimatorStatus.horizPosAccuracy,estimatorStatus.vertPosAccuracy,gps.lat,gps.lon,gps.mgrs,gps.hdop,gps.vdop,gps.courseOverGround,gps.lock,gps.count,gps2.lat,gps2.lon,gps2.mgrs,gps2.hdop,gps2.vdop,gps2.courseOverGround,gps2.lock,gps2.count,hygrometer.temperature,hygrometer.humidity,hygrometer.hygrometerid,localPosition.x,localPosition.y,localPosition.z,localPosition.vx,localPosition.vy,localPosition.vz,localPositionSetpoint.x,localPositionSetpoint.y,localPositionSetpoint.z,localPositionSetpoint.vx,localPositionSetpoint.vy,localPositionSetpoint.vz,setpoint.roll,setpoint.pitch,setpoint.yaw,setpoint.rollRate,setpoint.pitchRate,setpoint.yawRate,temperature.temperature1,temperature.temperature2,temperature.temperature3,terrain.blocksPending,terrain.blocksLoaded,vibration.xAxis,vibration.yAxis,vibration.zAxis,vibration.clipCount1,vibration.clipCount2,vibration.clipCount3,wind.direction,wind.speed,wind.verticalSpeed
2025-01-29 11:12:58.705,0.6,-0.3,238,0.0,0.0,0.0,0.0,0.0,0.002,-0.0,0.0,524.9,0.020,0.020,0.000,0.0,00:00:00,0.0,0,--.--,--.--,2.5,0,0000:00:00,0,0,0,48.66,0.00,1691,34,87,--.--,--:--:--,1,0.00,11:12:58,29/01/2025,5.67,--.--,--.--,--.--,--.--,--.--,--.--,--.--,--.--,--.--,--.--,100.00,0,0.000,0.000,0.000,0.000,0.000,0.000,0.000,0.000,0.000,0.000,0.000,0.000,false,false,false,false,false,false,false,false,false,false,false,false,--.--,--.--,--.--,--.--,--.--,--.--,--.--,--.--,-16.6964318,-54.6718645,21KYB 48267 52576,0.5,0.1,0.0,3,28,--.--,--.--,,--.--,--.--,--.--,0,0,--.--,--.--,0,1.6,1.9,1.1,-0.0,-0.0,-0.0,--.--,--.--,--.--,--.--,--.--,--.--,--.--,--.--,--.--,--.--,--.--,--.--,53.57,55.61,--.--,0,0,0.0,0.0,0.0,0,0,0,180.0,0.0,0.0
2025-01-29 11:12:59.579,0.6,-0.3,238,0.0,0.0,0.0,0.0,0.0,0.005,0.0,0.0,524.9,0.020,0.020,0.000,0.0,00:00:00,0.0,0,--.--,--.--,2.4,0,0000:00:00,0,0,0,48.66,0.00,1691,34,87,--.--,--:--:--,1,0.00,11:12:59,29/01/2025,5.66,--.--,--.--,--.--,--.--,--.--,--.--,--.--,--.--,--.--,--.--,100.00,0,0.000,0.000,0.000,0.000,0.000,0.000,0.000,0.000,0.000,0.000,0.000,0.000,false,false,false,false,false,false,false,false,false,false,false,false,--.--,--.--,--.--,--.--,--.--,--.--,--.--,--.--,-16.6964322,-54.6718645,21KYB 48267 52576,0.5,0.1,180.0,3,28,--.--,--.--,,--.--,--.--,--.--,0,0,--.--,--.--,0,1.5,1.9,1.1,-0.0,-0.0,-0.0,--.--,--.--,--.--,--.--,--.--,--.--,--.--,--.--,--.--,--.--,--.--,--.--,53.58,55.63,--.--,0,0,0.0,0.0,0.0,0,0,0,180.0,0.0,0.0
2025-01-29 11:13:00.561,0.6,-0.3,238,0.0,0.0,0.0,0.0,0.0,0.005,0.0,0.0,524.9,0.020,0.020,0.000,0.0,00:00:01,0.0,0,--.--,--.--,2.5,0,0000:00:00,0,0,0,48.66,0.00,1691,34,87,--.--,--:--:--,1,0.00,11:13:00,29/01/2025,5.65,--.--,--.--,--.--,--.--,--.--,--.--,--.--,--.--,--.--,--.--,100.00,0,0.000,0.000,0.000,0.000,0.000,0.000,0.000,0.000,0.000,0.000,0.000,0.000,false,false,false,false,false,false,false,false,false,false,false,false,--.--,--.--,--.--,--.--,--.--,--.--,--.--,--.--,-16.6964322,-54.6718645,21KYB 48267 52576,0.5,0.1,180.0,3,28,--.--,--.--,,--.--,--.--,--.--,0,0,--.--,--.--,0,1.5,2.0,1.1,-0.0,-0.0,-0.0,--.--,--.--,--.--,--.--,--.--,--.--,--.--,--.--,--.--,--.--,--.--,--.--,53.58,55.63,--.--,0,0,0.0,0.0,0.0,0,0,0,180.0,0.0,0.0
2025-01-29 11:13:01.559,0.6,-0.3,238,0.0,0.0,0.0,0.0,0.0,0.008,0.0,0.0,524.9,0.020,0.020,0.000,0.0,00:00:02,0.0,0,--.--,--.--,2.3,0,0000:00:00,0,0,0,48.66,0.00,1691,34,87,--.--,--:--:--,1,0.00,11:13:01,29/01/2025,5.65,--.--,--.--,--.--,--.--,--.--,--.--,--.--,--.--,--.--,--.--,100.00,0,0.000,0.000,0.000,0.000,0.000,0.000,0.000,0.000,0.000,0.000,0.000,0.000,false,false,false,false,false,false,false,false,false,false,false,false,--.--,--.--,--.--,--.--,--.--,--.--,--.--,--.--,-16.6964325,-54.6718644,21KYB 48267 52576,0.5,0.1,0.0,3,28,--.--,--.--,,--.--,--.--,--.--,0,0,--.--,--.--,0,1.5,2.0,1.1,-0.0,-0.0,-0.0,--.--,--.--,--.--,--.--,--.--,--.--,--.--,--.--,--.--,--.--,--.--,--.--,53.56,55.61,--.--,0,0,0.0,0.0,0.0,0,0,0,180.0,0.0,0.0
2025-01-29 11:13:02.559,0.6,-0.3,238,0.0,0.0,0.0,0.0,0.0,0.008,-0.0,0.0,524.9,0.020,0.020,0.000,0.0,00:00:03,0.0,0,--.--,--.--,2.6,0,0000:00:00,0,0,0,48.66,0.00,1691,34,87,--.--,--:--:--,1,0.00,11:13:02,29/01/2025,5.65,--.--,--.--,--.--,--.--,--.--,--.--,--.--,--.--,--.--,--.--,100.00,0,0.000,0.000,0.000,0.000,0.000,0.000,0.000,0.000,0.000,0.000,0.000,0.000,false,false,false,false,false,false,false,false,false,false,false,false,--.--,--.--,--.--,--.--,--.--,--.--,--.--,--.--,-16.6964325,-54.6718644,21KYB 48267 52576,0.5,0.1,0.0,3,28,--.--,--.--,,--.--,--.--,--.--,0,0,--.--,--.--,0,1.5,2.0,1.1,-0.0,-0.0,0.0,--.--,--.--,--.--,--.--,--.--,--.--,--.--,--.--,--.--,--.--,--.--,--.--,53.56,55.61,--.--,0,0,0.0,0.0,0.0,0,0,0,180.0,0.0,0.0
2025-01-29 11:13:03.562,0.7,-0.3,238,0.0,0.0,0.0,0.0,0.0,0.020,0.0,0.0,524.9,0.020,0.020,0.000,0.0,00:00:04,0.1,0,--.--,--.--,2.6,0,0000:00:00,0,0,0,48.63,1.99,1691,34,87,--.--,--:--:--,1,96.78,11:13:03,29/01/2025,5.64,--.--,--.--,--.--,--.--,--.--,--.--,--.--,--.--,--.--,--.--,100.00,0,0.000,0.000,0.000,0.000,0.000,0.000,0.000,0.000,0.000,0.000,0.000,0.000,false,false,false,false,false,false,false,false,false,false,false,false,--.--,--.--,--.--,--.--,--.--,--.--,--.--,--.--,-16.6964328,-54.6718645,21KYB 48267 52576,0.5,0.1,180.0,3,28,--.--,--.--,,--.--,--.--,--.--,0,0,--.--,--.--,0,1.5,2.0,1.1,0.0,-0.0,-0.0,--.--,--.--,--.--,--.--,--.--,--.--,--.--,--.--,--.--,--.--,--.--,--.--,53.57,55.62,--.--,0,0,2.5,1.6,2.0,0,0,0,180.0,0.0,0.0
2025-01-29 11:13:04.562,0.6,-0.3,238,0.0,0.0,0.0,0.0,0.0,0.020,-0.0,0.0,524.9,0.020,0.020,0.000,0.0,00:00:05,0.1,0,--.--,--.--,2.1,0,0000:00:00,0,0,0,48.59,2.99,1692,34,87,--.--,--:--:--,1,145.29,11:13:04,29/01/2025,1.85,--.--,--.--,--.--,--.--,--.--,--.--,--.--,--.--,--.--,--.--,100.00,0,0.000,0.000,0.000,0.000,0.000,0.000,0.000,0.000,0.000,0.000,0.000,0.000,false,false,false,false,false,false,false,false,false,false,false,false,--.--,--.--,--.--,--.--,--.--,--.--,--.--,--.--,-16.6964328,-54.6718645,21KYB 48267 52576,0.5,0.1,180.0,3,28,--.--,--.--,,--.--,--.--,--.--,0,0,--.--,--.--,0,1.5,1.9,1.1,0.0,-0.0,0.0,--.--,--.--,--.--,--.--,--.--,--.--,--.--,--.--,--.--,--.--,--.--,--.--,53.57,55.62,--.--,0,0,1.8,1.8,1.8,0,0,0,180.0,0.0,0.0
2025-01-29 11:13:05.563,0.6,-0.3,238,0.0,0.0,0.0,0.0,0.0,0.027,-0.0,0.0,524.9,0.020,0.020,0.000,0.0,00:00:06,0.1,0,--.--,--.--,1.2,0,0000:00:00,0,0,0,48.58,2.99,1693,34,87,--.--,--:--:--,1,145.25,11:13:05,29/01/2025,3.08,--.--,--.--,--.--,--.--,--.--,--.--,--.--,--.--,--.--,--.--,100.00,0,0.000,0.000,0.000,0.000,0.000,0.000,0.000,0.000,0.000,0.000,0.000,0.000,false,false,false,false,false,false,false,false,false,false,false,false,--.--,--.--,--.--,--.--,--.--,--.--,--.--,--.--,-16.6964331,-54.6718645,21KYB 48267 52576,0.5,0.1,135.0,3,28,--.--,--.--,,--.--,--.--,--.--,0,0,--.--,--.--,0,1.5,2.0,1.1,0.0,-0.0,0.0,--.--,--.--,--.--,--.--,--.--,--.--,--.--,--.--,--.--,--.--,--.--,--.--,53.55,55.64,--.--,0,0,1.8,1.9,1.7,0,0,0,180.0,0.0,0.0
2025-01-29 11:13:06.562,0.6,-0.4,239,0.0,0.0,0.0,0.0,0.0,0.033,-0.0,0.0,524.9,0.020,0.020,0.000,0.0,00:00:07,0.1,0,--.--,--.--,3.0,0,0000:00:00,0,0,0,48.57,3.99,1694,34,87,--.--,--:--:--,1,193.81,11:13:06,29/01/2025,3.33,--.--,--.--,--.--,--.--,--.--,--.--,--.--,--.--,--.--,--.--,100.00,0,0.000,0.000,0.000,0.000,0.000,0.000,0.000,0.000,0.000,0.000,0.000,0.000,false,false,false,false,false,false,false,false,false,false,false,false,--.--,--.--,--.--,--.--,--.--,--.--,--.--,--.--,-16.6964333,-54.6718645,21KYB 48267 52576,0.5,0.1,225.0,3,28,--.--,--.--,,--.--,--.--,--.--,0,0,--.--,--.--,0,1.4,2.0,1.1,-0.0,0.0,0.0,--.--,--.--,--.--,--.--,--.--,--.--,--.--,--.--,--.--,--.--,--.--,--.--,53.57,55.59,--.--,0,0,2.7,2.1,2.1,0,0,0,180.0,0.0,0.0
2025-01-29 11:13:07.565,0.6,-0.3,238,0.0,0.0,0.0,0.0,0.0,0.015,0.0,0.0,524.9,0.020,0.020,0.000,0.0,00:00:08,0.1,0,--.--,--.--,3.9,0,0000:00:00,0,0,0,48.57,3.99,1695,34,87,--.--,--:--:--,1,193.79,11:13:07,29/01/2025,3.24,--.--,--.--,--.--,--.--,--.--,--.--,--.--,--.--,--.--,--.--,100.00,0,0.000,0.000,0.000,0.000,0.000,0.000,0.000,0.000,0.000,0.000,0.000,0.000,false,false,false,false,false,false,false,false,false,false,false,false,--.--,--.--,--.--,--.--,--.--,--.--,--.--,--.--,-16.6964334,-54.6718646,21KYB 48267 52576,0.5,0.1,135.0,3,28,--.--,--.--,,--.--,--.--,--.--,0,0,--.--,--.--,0,1.4,2.0,1.1,-0.0,0.0,0.0,--.--,--.--,--.--,--.--,--.--,--.--,--.--,--.--,--.--,--.--,--.--,--.--,53.58,55.63,--.--,0,0,2.7,1.8,2.8,0,0,0,180.0,0.0,0.0
2025-01-29 11:13:08.561,0.7,-0.4,238,0.0,0.0,0.0,0.0,0.0,0.009,-0.0,0.0,524.9,0.020,0.020,0.000,0.0,00:00:09,0.1,0,--.--,--.--,4.4,0,0000:35:21,0,0,0,48.56,3.99,1696,34,87,--.--,--:--:--,1,193.76,11:13:08,29/01/2025,5.48,--.--,--.--,--.--,--.--,--.--,--.--,--.--,--.--,--.--,--.--,100.00,0,0.000,0.000,0.000,0.000,0.000,0.000,0.000,0.000,0.000,0.000,0.000,0.000,false,false,false,false,false,false,false,false,false,false,false,false,--.--,--.--,--.--,--.--,--.--,--.--,--.--,--.--,-16.6964336,-54.6718646,21KYB 48267 52576,0.5,0.1,243.4,3,28,--.--,--.--,,--.--,--.--,--.--,0,0,--.--,--.--,0,1.4,2.0,1.1,-0.0,-0.0,0.0,--.--,--.--,--.--,--.--,--.--,--.--,--.--,--.--,--.--,--.--,--.--,--.--,53.62,55.63,--.--,0,0,2.3,2.4,2.5,0,0,0,180.0,0.0,0.0
2025-01-29 11:13:09.561,0.6,-0.3,238,0.0,0.0,0.0,0.1,0.1,0.052,-0.0,0.0,524.9,0.020,0.020,0.000,0.0,00:00:10,0.2,0,--.--,--.--,3.6,0,0000:35:21,0,0,0,48.57,3.99,1698,34,87,--.--,--:--:--,1,193.79,11:13:09,29/01/2025,5.53,--.--,--.--,--.--,--.--,--.--,--.--,--.--,--.--,--.--,--.--,100.00,0,0.000,0.000,0.000,0.000,0.000,0.000,0.000,0.000,0.000,0.000,0.000,0.000,false,false,false,false,false,false,false,false,false,false,false,false,--.--,--.--,--.--,--.--,--.--,--.--,--.--,--.--,-16.6964338,-54.6718646,21KYB 48267 52576,0.5,0.1,225.0,3,28,--.--,--.--,,--.--,--.--,--.--,0,0,--.--,--.--,0,1.4,2.0,1.1,0.0,-0.1,0.0,--.--,--.--,--.--,--.--,--.--,--.--,--.--,--.--,--.--,--.--,--.--,--.--,53.57,55.62,--.--,0,0,2.5,2.7,3.4,0,0,0,180.0,0.0,0.0
2025-01-29 11:13:10.561,0.7,-0.3,238,0.0,0.0,0.0,0.0,0.0,0.037,-0.0,0.0,524.9,0.020,0.020,0.000,0.0,00:00:11,0.2,0,--.--,--.--,2.5,0,0000:35:21,0,0,0,48.56,3.99,1699,34,87,--.--,--:--:--,1,193.77,11:13:10,29/01/2025,5.43,--.--,--.--,--.--,--.--,--.--,--.--,--.--,--.--,--.--,--.--,100.00,0,0.000,0.000,0.000,0.000,0.000,0.000,0.000,0.000,0.000,0.000,0.000,0.000,false,false,false,false,false,false,false,false,false,false,false,false,--.--,--.--,--.--,--.--,--.--,--.--,--.--,--.--,-16.6964339,-54.6718646,21KYB 48267 52576,0.5,0.1,180.0,3,28,--.--,--.--,,--.--,--.--,--.--,0,0,--.--,--.--,0,1.4,2.0,1.1,0.0,0.0,0.0,--.--,--.--,--.--,--.--,--.--,--.--,--.--,--.--,--.--,--.--,--.--,--.--,53.55,55.65,--.--,0,0,2.6,2.5,2.6,0,0,0,180.0,0.0,0.0
2025-01-29 11:13:11.562,0.7,-0.4,239,0.0,0.0,0.0,0.0,0.0,0.014,0.0,0.0,524.9,0.020,0.020,0.000,0.0,00:00:12,0.2,0,--.--,--.--,3.5,0,0000:35:21,0,0,0,48.56,2.99,1700,34,87,--.--,--:--:--,1,145.19,11:13:11,29/01/2025,5.52,--.--,--.--,--.--,--.--,--.--,--.--,--.--,--.--,--.--,--.--,100.00,0,0.000,0.000,0.000,0.000,0.000,0.000,0.000,0.000,0.000,0.000,0.000,0.000,false,false,false,false,false,false,false,false,false,false,false,false,--.--,--.--,--.--,--.--,--.--,--.--,--.--,--.--,-16.6964341,-54.6718646,21KYB 48267 52576,0.5,0.1,243.4,3,28,--.--,--.--,,--.--,--.--,--.--,0,0,--.--,--.--,0,1.4,1.9,1.1,-0.0,0.0,-0.0,--.--,--.--,--.--,--.--,--.--,--.--,--.--,--.--,--.--,--.--,--.--,--.--,53.59,55.62,--.--,0,0,2.8,2.7,2.2,0,0,0,180.0,0.0,0.0
2025-01-29 11:13:12.562,0.7,-0.3,238,0.0,0.0,0.0,0.0,0.0,0.036,-0.0,0.0,524.9,0.020,0.020,0.000,0.0,00:00:13,0.2,0,--.--,--.--,3.6,0,0000:35:21,0,0,0,48.55,3.99,1701,34,87,--.--,--:--:--,1,193.72,11:13:12,29/01/2025,3.13,--.--,--.--,--.--,--.--,--.--,--.--,--.--,--.--,--.--,--.--,100.00,0,0.000,0.000,0.000,0.000,0.000,0.000,0.000,0.000,0.000,0.000,0.000,0.000,false,false,false,false,false,false,false,false,false,false,false,false,--.--,--.--,--.--,--.--,--.--,--.--,--.--,--.--,-16.6964341,-54.6718647,21KYB 48267 52576,0.5,0.1,180.0,3,28,--.--,--.--,,--.--,--.--,--.--,0,0,--.--,--.--,0,1.4,2.0,1.1,-0.0,-0.0,0.0,--.--,--.--,--.--,--.--,--.--,--.--,--.--,--.--,--.--,--.--,--.--,--.--,53.58,55.63,--.--,0,0,2.3,2.5,2.3,0,0,0,180.0,0.0,0.0
2025-01-29 11:13:13.561,0.6,-0.4,239,0.0,0.0,0.0,0.1,0.1,0.048,-0.0,0.0,524.9,0.020,0.020,0.000,0.0,00:00:14,0.2,0,--.--,--.--,5.0,4,0000:35:21,0,0,0,48.54,3.99,1702,34,87,--.--,--:--:--,1,193.68,11:13:13,29/01/2025,5.45,--.--,--.--,--.--,--.--,--.--,--.--,--.--,--.--,--.--,--.--,100.00,0,0.000,0.000,0.000,0.000,0.000,0.000,0.000,0.000,0.000,0.000,0.000,0.000,false,false,false,false,false,false,false,false,false,false,false,false,--.--,--.--,--.--,--.--,--.--,--.--,--.--,--.--,-16.6964342,-54.6718648,21KYB 48267 52576,0.5,0.1,225.0,3,28,--.--,--.--,,--.--,--.--,--.--,0,0,--.--,--.--,0,1.3,2.0,1.1,0.0,-0.0,0.0,--.--,--.--,--.--,--.--,--.--,--.--,--.--,--.--,--.--,--.--,--.--,--.--,53.59,55.64,--.--,0,0,2.3,2.1,2.3,0,0,0,180.0,0.0,0.0
2025-01-29 11:13:14.588,0.3,-0.5,238,0.0,0.0,0.0,0.0,0.0,0.031,-0.0,0.0,524.9,0.020,0.008,0.000,0.0,00:00:15,0.2,0,--.--,--.--,6.0,11,0000:35:21,0,0,0,48.52,4.98,1703,34,87,--.--,--:--:--,1,241.63,11:13:14,29/01/2025,3.73,--.--,--.--,--.--,--.--,--.--,--.--,--.--,--.--,--.--,--.--,100.00,0,0.000,0.000,0.000,0.000,0.000,0.000,0.000,0.000,0.000,0.000,0.000,0.000,false,false,false,false,false,false,false,false,false,false,false,false,--.--,--.--,--.--,--.--,--.--,--.--,--.--,--.--,-16.6964342,-54.6718649,21KYB 48267 52576,0.5,0.1,206.6,3,28,--.--,--.--,,--.--,--.--,--.--,0,0,--.--,--.--,0,1.3,2.0,1.1,0.0,-0.0,-0.1,--.--,--.--,--.--,--.--,--.--,--.--,--.--,--.--,--.--,--.--,--.--,--.--,53.57,55.63,--.--,0,0,2.4,2.0,4.2,0,0,0,180.0,0.0,0.0
2025-01-29 11:13:15.567,0.3,-0.8,238,0.0,0.0,0.0,0.0,0.1,0.030,0.1,0.0,524.9,0.020,-0.027,0.002,0.0,00:00:16,0.2,0,--.--,--.--,5.1,11,0000:35:21,0,0,0,48.18,33.98,1706,34,87,--.--,--:--:--,1,1637.12,11:13:15,29/01/2025,1.77,--.--,--.--,--.--,--.--,--.--,--.--,--.--,--.--,--.--,--.--,100.00,0,0.000,0.000,0.000,0.000,0.000,0.000,0.000,0.000,0.000,0.000,0.000,0.000,false,false,false,false,false,false,false,false,false,false,false,false,--.--,--.--,--.--,--.--,--.--,--.--,--.--,--.--,-16.6964342,-54.6718650,21KYB 48267 52576,0.5,0.1,341.6,3,28,--.--,--.--,,--.--,--.--,--.--,0,0,--.--,--.--,0,1.3,2.0,1.1,0.0,-0.0,-0.0,--.--,--.--,--.--,--.--,--.--,--.--,--.--,--.--,--.--,--.--,--.--,--.--,53.58,55.64,--.--,0,0,1.7,1.9,5.1,0,0,0,180.0,0.0,0.0
2025-01-29 11:13:16.562,0.5,-0.1,238,0.0,0.0,0.0,0.0,0.3,0.250,0.3,0.2,525.1,0.230,0.101,0.019,0.0,00:00:17,0.2,0,--.--,--.--,4.2,11,0000:35:21,0,0,0,48.12,31.99,1715,34,87,--.--,--:--:--,1,1539.20,11:13:16,29/01/2025,1.90,--.--,--.--,--.--,--.--,--.--,--.--,--.--,--.--,--.--,--.--,100.00,0,0.000,0.000,0.000,0.000,0.000,0.000,0.000,0.000,0.000,0.000,0.000,0.000,false,false,false,false,false,false,false,false,false,false,false,false,--.--,--.--,--.--,--.--,--.--,--.--,--.--,--.--,-16.6964342,-54.6718652,21KYB 48267 52576,0.5,0.1,290.2,3,28,--.--,--.--,,--.--,--.--,--.--,0,0,--.--,--.--,0,1.3,2.0,0.9,-0.0,-0.0,-0.3,--.--,--.--,--.--,--.--,--.--,--.--,--.--,--.--,--.--,--.--,--.--,--.--,53.57,55.63,--.--,0,0,4.4,3.7,4.7,0,0,0,180.0,0.0,0.0
2025-01-29 11:13:17.563,1.4,-0.3,238,0.0,0.0,0.0,0.1,0.4,0.368,0.4,0.5,525.4,0.590,0.454,0.079,0.0,00:00:18,0.3,0,--.--,--.--,3.6,11,0000:35:21,0,0,0,48.06,33.98,1725,34,87,--.--,--:--:--,1,1633.11,11:13:17,29/01/2025,2.14,--.--,--.--,--.--,--.--,--.--,--.--,--.--,--.--,--.--,--.--,100.00,0,0.000,0.000,0.000,0.000,0.000,0.000,0.000,0.000,0.000,0.000,0.000,0.000,false,false,false,false,false,false,false,false,false,false,false,false,--.--,--.--,--.--,--.--,--.--,--.--,--.--,--.--,-16.6964346,-54.6718657,21KYB 48267 52576,0.5,0.1,140.2,3,28,--.--,--.--,,--.--,--.--,--.--,0,0,--.--,--.--,0,1.3,2.0,0.5,-0.0,0.0,-0.4,--.--,--.--,--.--,--.--,--.--,--.--,--.--,--.--,--.--,--.--,--.--,--.--,53.58,55.64,--.--,0,0,2.1,4.1,7.9,0,0,0,180.0,0.0,0.0
2025-01-29 11:13:18.562,2.3,0.2,238,0.0,0.0,0.0,0.0,0.4,0.393,0.4,0.9,525.8,0.950,0.819,0.117,0.0,00:00:19,0.3,0,--.--,--.--,3.5,11,0000:35:21,0,0,0,48.02,33.98,1734,34,87,--.--,--:--:--,1,1631.55,11:13:18,29/01/2025,2.58,--.--,--.--,--.--,--.--,--.--,--.--,--.--,--.--,--.--,--.--,100.00,0,0.000,0.000,0.000,0.000,0.000,0.000,0.000,0.000,0.000,0.000,0.000,0.000,false,false,false,false,false,false,false,false,false,false,false,false,--.--,--.--,--.--,--.--,--.--,--.--,--.--,--.--,-16.6964351,-54.6718668,21KYB 48266 52576,0.5,0.1,267.4,3,28,--.--,--.--,,--.--,--.--,--.--,0,0,--.--,--.--,0,1.2,2.0,0.2,0.0,0.0,-0.4,--.--,--.--,--.--,--.--,--.--,--.--,--.--,--.--,--.--,--.--,--.--,--.--,53.55,55.66,--.--,0,0,3.8,3.3,7.2,0,0,0,180.0,0.0,0.0
2025-01-29 11:13:19.563,1.8,0.3,238,0.0,0.0,0.0,0.1,0.6,0.513,0.6,1.3,526.2,1.430,1.224,0.082,0.0,00:00:20,0.3,0,--.--,--.--,4.1,11,0000:35:21,0,0,0,47.98,35.98,1744,34,87,--.--,--:--:--,1,1726.21,11:13:19,29/01/2025,1.81,--.--,--.--,--.--,--.--,--.--,--.--,--.--,--.--,--.--,--.--,100.00,0,0.000,0.000,0.000,0.000,0.000,0.000,0.000,0.000,0.000,0.000,0.000,0.000,false,false,false,false,false,false,false,false,false,false,false,false,--.--,--.--,--.--,--.--,--.--,--.--,--.--,--.--,-16.6964348,-54.6718673,21KYB 48266 52576,0.5,0.1,349.4,3,28,--.--,--.--,,--.--,--.--,--.--,0,0,--.--,--.--,0,1.3,1.9,-0.3,0.0,-0.0,-0.5,--.--,--.--,--.--,--.--,--.--,--.--,--.--,--.--,--.--,--.--,--.--,--.--,53.56,55.62,--.--,0,0,2.8,3.3,7.4,0,0,0,180.0,0.0,0.0
2025-01-29 11:13:20.562,1.1,0.8,239,0.0,0.0,0.0,0.0,0.7,0.653,0.7,2.0,526.9,2.080,1.859,0.076,0.0,00:00:21,0.2,0,--.--,--.--,5.4,11,0000:35:21,0,0,0,47.92,35.98,1754,34,87,--.--,--:--:--,1,1724.31,11:13:20,29/01/2025,1.44,--.--,--.--,--.--,--.--,--.--,--.--,--.--,--.--,--.--,--.--,100.00,0,0.000,0.000,0.000,0.000,0.000,0.000,0.000,0.000,0.000,0.000,0.000,0.000,false,false,false,false,false,false,false,false,false,false,false,false,--.--,--.--,--.--,--.--,--.--,--.--,--.--,--.--,-16.6964340,-54.6718680,21KYB 48266 52576,0.5,0.1,351.9,3,28,--.--,--.--,,--.--,--.--,--.--,0,0,--.--,--.--,0,1.3,1.9,-0.9,0.0,0.0,-0.7,--.--,--.--,--.--,--.--,--.--,--.--,--.--,--.--,--.--,--.--,--.--,--.--,53.60,55.59,--.--,0,0,2.4,3.3,9.7,0,0,0,180.0,0.0,0.0
2025-01-29 11:13:21.561,2.1,0.2,238,0.0,0.0,0.0,0.1,0.7,0.726,0.7,2.6,527.5,2.780,2.544,0.057,0.0,00:00:22,0.2,0,--.--,--.--,6.9,11,0000:35:21,0,0,0,47.91,34.98,1764,34,87,--.--,--:--:--,1,1675.82,11:13:21,29/01/2025,37.78,--.--,--.--,--.--,--.--,--.--,--.--,--.--,--.--,--.--,--.--,100.00,0,0.000,0.000,0.000,0.000,0.000,0.000,0.000,0.000,0.000,0.000,0.000,0.000,false,false,false,false,false,false,false,false,false,false,false,false,--.--,--.--,--.--,--.--,--.--,--.--,--.--,--.--,-16.6964336,-54.6718676,21KYB 48266 52576,0.5,0.1,94.8,3,28,--.--,--.--,,--.--,--.--,--.--,0,0,--.--,--.--,0,1.3,1.9,-1.6,-0.0,0.1,-0.7,--.--,--.--,--.--,--.--,--.--,--.--,--.--,--.--,--.--,--.--,--.--,--.--,53.56,55.62,--.--,0,0,3.8,3.6,8.0,0,0,0,180.0,0.0,0.0
2025-01-29 11:13:22.561,1.8,0.5,238,0.0,0.0,0.0,0.0,0.7,0.682,0.7,3.3,528.2,3.460,3.238,0.010,0.0,00:00:23,0.2,0,--.--,--.--,8.5,11,0000:35:21,0,0,0,47.87,34.98,1774,34,87,--.--,--:--:--,1,1674.49,11:13:22,29/01/2025,39.62,--.--,--.--,--.--,--.--,--.--,--.--,--.--,--.--,--.--,--.--,100.00,0,0.000,0.000,0.000,0.000,0.000,0.000,0.000,0.000,0.000,0.000,0.000,0.000,false,false,false,false,false,false,false,false,false,false,false,false,--.--,--.--,--.--,--.--,--.--,--.--,--.--,--.--,-16.6964334,-54.6718667,21KYB 48266 52576,0.5,0.1,76.7,3,28,--.--,--.--,,--.--,--.--,--.--,0,0,--.--,--.--,0,1.3,1.9,-2.3,-0.0,0.0,-0.7,--.--,--.--,--.--,--.--,--.--,--.--,--.--,--.--,--.--,--.--,--.--,--.--,53.59,55.61,--.--,0,0,2.4,4.3,8.3,0,0,0,180.0,0.0,0.0
2025-01-29 11:13:23.562,2.4,0.8,239,0.0,0.0,0.0,0.1,0.7,0.740,0.7,4.0,528.9,4.160,3.924,0.022,0.0,00:00:24,0.2,0,--.--,--.--,10.3,11,0000:35:21,0,0,0,47.84,34.98,1784,34,87,--.--,--:--:--,1,1673.44,11:13:23,29/01/2025,46.67,--.--,--.--,--.--,--.--,--.--,--.--,--.--,--.--,--.--,--.--,100.00,0,0.000,0.000,0.000,0.000,0.000,0.000,0.000,0.000,0.000,0.000,0.000,0.000,false,false,false,false,false,false,false,false,false,false,false,false,--.--,--.--,--.--,--.--,--.--,--.--,--.--,--.--,-16.6964335,-54.6718665,21KYB 48266 52576,0.5,0.1,161.6,3,28,--.--,--.--,,--.--,--.--,--.--,0,0,--.--,--.--,0,1.3,1.9,-3.0,-0.1,0.0,-0.7,--.--,--.--,--.--,--.--,--.--,--.--,--.--,--.--,--.--,--.--,--.--,--.--,53.57,55.63,--.--,0,0,4.8,4.2,9.2,0,0,0,180.0,0.0,0.0
2025-01-29 11:13:24.562,3.1,0.3,238,0.0,0.0,0.0,0.0,0.6,0.690,0.6,4.7,529.6,4.830,4.632,0.055,0.0,00:00:25,0.3,0,--.--,--.--,11.3,10,0000:35:21,0,0,0,47.82,34.98,1795,34,86,--.--,--:--:--,1,1672.85,11:13:24,29/01/2025,49.63,--.--,--.--,--.--,--.--,--.--,--.--,--.--,--.--,--.--,--.--,100.00,0,0.000,0.000,0.000,0.000,0.000,0.000,0.000,0.000,0.000,0.000,0.000,0.000,false,false,false,false,false,false,false,false,false,false,false,false,--.--,--.--,--.--,--.--,--.--,--.--,--.--,--.--,-16.6964338,-54.6718660,21KYB 48267 52576,0.5,0.1,99.5,3,28,--.--,--.--,,--.--,--.--,--.--,0,0,--.--,--.--,0,1.3,2.0,-3.6,-0.0,0.0,-0.6,--.--,--.--,--.--,--.--,--.--,--.--,--.--,--.--,--.--,--.--,--.--,--.--,53.64,55.58,--.--,0,0,4.1,4.3,10.6,0,0,0,180.0,0.0,0.0
2025-01-29 11:13:25.561,3.4,0.9,238,0.0,0.0,0.0,0.0,0.6,0.594,0.6,5.2,530.1,5.360,5.185,0.063,0.0,00:00:26,0.3,0,--.--,--.--,11.6,11,0000:35:21,0,0,0,47.82,33.98,1805,34,86,--.--,--:--:--,1,1624.82,11:13:25,29/01/2025,52.87,--.--,--.--,--.--,--.--,--.--,--.--,--.--,--.--,--.--,--.--,100.00,0,0.000,0.000,0.000,0.000,0.000,0.000,0.000,0.000,0.000,0.000,0.000,0.000,false,false,false,false,false,false,false,false,false,false,false,false,--.--,--.--,--.--,--.--,--.--,--.--,--.--,--.--,-16.6964339,-54.6718657,21KYB 48267 52576,0.5,0.1,230.2,3,28,--.--,--.--,,--.--,--.--,--.--,0,0,--.--,--.--,0,1.3,2.0,-4.2,-0.0,-0.0,-0.6,--.--,--.--,--.--,--.--,--.--,--.--,--.--,--.--,--.--,--.--,--.--,--.--,53.62,55.61,--.--,0,0,3.5,4.1,12.3,0,0,0,180.0,0.0,0.0
2025-01-29 11:13:26.562,3.8,0.3,238,0.0,0.0,0.0,0.1,0.7,0.781,0.7,5.9,530.8,6.020,5.731,0.057,0.0,00:00:27,0.3,0,--.--,--.--,11.2,11,0000:35:21,0,0,0,47.75,35.98,1815,34,86,--.--,--:--:--,1,1718.12,11:13:26,29/01/2025,53.15,--.--,--.--,--.--,--.--,--.--,--.--,--.--,--.--,--.--,--.--,100.00,0,0.000,0.000,0.000,0.000,0.000,0.000,0.000,0.000,0.000,0.000,0.000,0.000,false,false,false,false,false,false,false,false,false,false,false,false,--.--,--.--,--.--,--.--,--.--,--.--,--.--,--.--,-16.6964339,-54.6718656,21KYB 48267 52576,0.5,0.1,342.5,3,28,--.--,--.--,,--.--,--.--,--.--,0,0,--.--,--.--,0,1.3,1.9,-4.8,0.0,0.0,-0.7,--.--,--.--,--.--,--.--,--.--,--.--,--.--,--.--,--.--,--.--,--.--,--.--,53.64,55.62,--.--,0,0,4.4,5.4,11.3,0,0,0,180.0,0.0,0.0
2025-01-29 11:13:27.563,2.8,0.7,239,0.0,0.0,0.0,0.0,0.7,0.720,0.7,6.6,531.5,6.750,6.518,0.014,0.0,00:00:28,0.2,0,--.--,--.--,10.9,11,0000:35:21,0,0,0,47.75,34.98,1825,34,86,--.--,--:--:--,1,1670.36,11:13:27,29/01/2025,64.48,--.--,--.--,--.--,--.--,--.--,--.--,--.--,--.--,--.--,--.--,100.00,0,0.000,0.000,0.000,0.000,0.000,0.000,0.000,0.000,0.000,0.000,0.000,0.000,false,false,false,false,false,false,false,false,false,false,false,false,--.--,--.--,--.--,--.--,--.--,--.--,--.--,--.--,-16.6964337,-54.6718652,21KYB 48267 52576,0.5,0.1,348.1,3,28,--.--,--.--,,--.--,--.--,--.--,0,0,--.--,--.--,0,1.3,1.9,-5.6,0.0,-0.0,-0.7,--.--,--.--,--.--,--.--,--.--,--.--,--.--,--.--,--.--,--.--,--.--,--.--,53.59,55.58,--.--,0,0,3.3,3.5,7.1,0,0,0,180.0,0.0,0.0
2025-01-29 11:13:28.559,2.2,-0.0,239,0.0,0.0,0.0,0.1,0.8,0.755,0.8,7.4,532.3,7.530,7.290,0.035,0.0,00:00:29,0.2,0,--.--,--.--,9.5,11,0000:35:21,0,0,0,47.72,34.98,1835,34,86,--.--,--:--:--,1,1669.14,11:13:28,29/01/2025,64.48,--.--,--.--,--.--,--.--,--.--,--.--,--.--,--.--,--.--,--.--,100.00,0,0.000,0.000,0.000,0.000,0.000,0.000,0.000,0.000,0.000,0.000,0.000,0.000,false,false,false,false,false,false,false,false,false,false,false,false,--.--,--.--,--.--,--.--,--.--,--.--,--.--,--.--,-16.6964336,-54.6718650,21KYB 48267 52576,0.5,0.1,17.9,3,28,--.--,--.--,,--.--,--.--,--.--,0,0,--.--,--.--,0,1.4,1.9,-6.3,0.1,0.0,-0.7,--.--,--.--,--.--,--.--,--.--,--.--,--.--,--.--,--.--,--.--,--.--,--.--,53.60,55.56,--.--,0,0,2.3,4.5,7.2,0,0,0,180.0,0.0,0.0
2025-01-29 11:13:29.562,2.8,0.2,239,0.0,0.0,0.0,0.0,0.8,0.731,0.8,8.1,533.0,8.270,8.048,0.048,0.0,00:00:30,0.2,0,--.--,--.--,9.6,11,0000:35:21,0,0,0,47.70,34.98,1845,34,86,--.--,--:--:--,1,1668.41,11:13:29,29/01/2025,9.85,--.--,--.--,--.--,--.--,--.--,--.--,--.--,--.--,--.--,--.--,100.00,0,0.000,0.000,0.000,0.000,0.000,0.000,0.000,0.000,0.000,0.000,0.000,0.000,false,false,false,false,false,false,false,false,false,false,false,false,--.--,--.--,--.--,--.--,--.--,--.--,--.--,--.--,-16.6964337,-54.6718650,21KYB 48267 52576,0.5,0.1,149.9,3,28,--.--,--.--,,--.--,--.--,--.--,0,0,--.--,--.--,0,1.4,1.9,-7.1,-0.0,0.0,-0.7,--.--,--.--,--.--,--.--,--.--,--.--,--.--,--.--,--.--,--.--,--.--,--.--,53.63,55.57,--.--,0,0,3.2,4.8,8.8,0,0,0,180.0,0.0,0.0
2025-01-29 11:13:30.559,2.6,0.2,238,0.0,0.0,0.0,0.1,0.8,0.782,0.8,8.9,533.8,9.060,8.808,0.006,0.0,00:00:31,0.2,0,--.--,--.--,10.4,11,0000:35:21,0,0,0,47.68,35.98,1855,34,86,--.--,--:--:--,1,1715.67,11:13:30,29/01/2025,9.85,--.--,--.--,--.--,--.--,--.--,--.--,--.--,--.--,--.--,--.--,100.00,0,0.000,0.000,0.000,0.000,0.000,0.000,0.000,0.000,0.000,0.000,0.000,0.000,false,false,false,false,false,false,false,false,false,false,false,false,--.--,--.--,--.--,--.--,--.--,--.--,--.--,--.--,-16.6964342,-54.6718650,21KYB 48267 52576,0.5,0.1,270.0,3,28,--.--,--.--,,--.--,--.--,--.--,0,0,--.--,--.--,0,1.3,2.0,-7.8,0.0,-0.0,-0.8,--.--,--.--,--.--,--.--,--.--,--.--,--.--,--.--,--.--,--.--,--.--,--.--,53.63,55.64,--.--,0,0,2.8,5.3,8.6,0,0,0,180.0,0.0,0.0
2025-01-29 11:13:31.559,2.1,0.8,238,0.0,0.0,0.0,0.0,0.8,0.831,0.8,9.7,534.6,9.890,9.654,0.038,0.0,00:00:32,0.2,0,--.--,--.--,10.8,11,0000:35:21,0,0,0,47.66,35.98,1860,34,86,--.--,--:--:--,1,1714.70,11:13:31,29/01/2025,9.85,--.--,--.--,--.--,--.--,--.--,--.--,--.--,--.--,--.--,--.--,100.00,0,0.000,0.000,0.000,0.000,0.000,0.000,0.000,0.000,0.000,0.000,0.000,0.000,false,false,false,false,false,false,false,false,false,false,false,false,--.--,--.--,--.--,--.--,--.--,--.--,--.--,--.--,-16.6964346,-54.6718650,21KYB 48267 52576,0.5,0.1,246.3,3,28,--.--,--.--,,--.--,--.--,--.--,0,0,--.--,--.--,0,1.3,1.9,-8.7,-0.0,-0.0,-0.8,--.--,--.--,--.--,--.--,--.--,--.--,--.--,--.--,--.--,--.--,--.--,--.--,53.62,55.62,--.--,0,0,2.7,3.6,8.2,0,0,0,180.0,0.0,0.0
2025-01-29 11:13:32.560,2.2,0.3,238,0.0,0.0,0.0,0.0,0.7,0.767,0.7,10.5,535.4,10.690,10.456,0.033,0.0,00:00:33,0.2,0,--.--,--.--,10.7,11,0000:35:21,0,0,0,47.64,35.98,1871,34,86,--.--,--:--:--,1,1714.16,11:13:32,29/01/2025,9.85,--.--,--.--,--.--,--.--,--.--,--.--,--.--,--.--,--.--,--.--,100.00,0,0.000,0.000,0.000,0.000,0.000,0.000,0.000,0.000,0.000,0.000,0.000,0.000,false,false,false,false,false,false,false,false,false,false,false,false,--.--,--.--,--.--,--.--,--.--,--.--,--.--,--.--,-16.6964351,-54.6718649,21KYB 48267 52576,0.5,0.1,28.9,3,28,--.--,--.--,,--.--,--.--,--.--,0,0,--.--,--.--,0,1.3,1.9,-9.5,0.0,0.0,-0.8,--.--,--.--,--.--,--.--,--.--,--.--,--.--,--.--,--.--,--.--,--.--,--.--,53.62,55.62,--.--,0,0,5.7,4.0,11.0,0,0,0,180.0,0.0,0.0
2025-01-29 11:13:33.560,3.1,1.0,238,0.0,0.0,0.0,0.0,0.8,0.768,0.8,11.3,536.2,11.470,11.250,0.046,0.0,00:00:34,0.3,0,--.--,--.--,10.5,11,0000:35:21,0,0,0,47.64,34.98,1881,34,86,--.--,--:--:--,1,1666.45,11:13:33,29/01/2025,9.85,--.--,--.--,--.--,--.--,--.--,--.--,--.--,--.--,--.--,--.--,100.00,0,0.000,0.000,0.000,0.000,0.000,0.000,0.000,0.000,0.000,0.000,0.000,0.000,false,false,false,false,false,false,false,false,false,false,false,false,--.--,--.--,--.--,--.--,--.--,--.--,--.--,--.--,-16.6964353,-54.6718645,21KYB 48267 52576,0.5,0.1,233.1,3,28,--.--,--.--,,--.--,--.--,--.--,0,0,--.--,--.--,0,1.3,1.9,-10.3,-0.0,-0.0,-0.7,--.--,--.--,--.--,--.--,--.--,--.--,--.--,--.--,--.--,--.--,--.--,--.--,53.60,55.63,--.--,0,0,2.8,4.4,7.4,0,0,0,180.0,0.0,0.0
2025-01-29 11:13:34.561,1.3,1.4,238,0.0,0.0,0.0,0.1,0.8,0.765,0.8,12.1,537.0,12.250,12.022,0.055,0.0,00:00:35,0.2,0,--.--,--.--,10.3,11,0000:35:21,0,0,0,47.59,36.98,1892,34,86,--.--,--:--:--,1,1759.69,11:13:34,29/01/2025,9.85,--.--,--.--,--.--,--.--,--.--,--.--,--.--,--.--,--.--,--.--,100.00,0,0.000,0.000,0.000,0.000,0.000,0.000,0.000,0.000,0.000,0.000,0.000,0.000,false,false,false,false,false,false,false,false,false,false,false,false,--.--,--.--,--.--,--.--,--.--,--.--,--.--,--.--,-16.6964352,-54.6718648,21KYB 48267 52576,0.5,0.1,313.1,3,28,--.--,--.--,,--.--,--.--,--.--,0,0,--.--,--.--,0,1.3,1.9,-11.0,0.0,-0.0,-0.8,--.--,--.--,--.--,--.--,--.--,--.--,--.--,--.--,--.--,--.--,--.--,--.--,53.58,55.59,--.--,0,0,3.0,4.3,10.5,0,0,0,180.0,0.0,0.0
2025-01-29 11:13:35.560,2.4,1.7,238,0.0,0.0,0.0,0.0,0.7,0.813,0.7,12.9,537.8,13.050,12.837,0.059,0.0,00:00:36,0.2,0,--.--,--.--,9.7,11,0000:35:21,0,0,0,47.58,35.98,1902,34,86,--.--,--:--:--,1,1711.96,11:13:35,29/01/2025,9.85,--.--,--.--,--.--,--.--,--.--,--.--,--.--,--.--,--.--,--.--,100.00,0,0.000,0.000,0.000,0.000,0.000,0.000,0.000,0.000,0.000,0.000,0.000,0.000,false,false,false,false,false,false,false,false,false,false,false,false,--.--,--.--,--.--,--.--,--.--,--.--,--.--,--.--,-16.6964347,-54.6718644,21KYB 48267 52576,0.5,0.1,21.4,3,28,--.--,--.--,,--.--,--.--,--.--,0,0,--.--,--.--,0,1.3,1.9,-11.8,-0.0,0.0,-0.8,--.--,--.--,--.--,--.--,--.--,--.--,--.--,--.--,--.--,--.--,--.--,--.--,53.60,55.59,--.--,0,0,3.2,4.6,10.3,0,0,0,180.0,0.0,0.0
2025-01-29 11:13:36.559,2.3,0.6,238,0.0,0.0,0.0,0.1,0.2,0.473,0.2,13.6,538.5,13.660,13.593,0.053,0.0,00:00:37,0.2,0,--.--,--.--,9.3,9,0000:35:21,0,0,0,47.59,34.98,1912,34,86,--.--,--:--:--,1,1664.73,11:13:36,29/01/2025,9.85,--.--,--.--,--.--,--.--,--.--,--.--,--.--,--.--,--.--,--.--,100.00,0,0.000,0.000,0.000,0.000,0.000,0.000,0.000,0.000,0.000,0.000,0.000,0.000,false,false,false,false,false,false,false,false,false,false,false,false,--.--,--.--,--.--,--.--,--.--,--.--,--.--,--.--,-16.6964349,-54.6718631,21KYB 48267 52576,0.5,0.1,4.2,3,28,--.--,--.--,,--.--,--.--,--.--,0,0,--.--,--.--,0,1.3,1.9,-12.5,0.1,0.0,-0.4,--.--,--.--,--.--,--.--,--.--,--.--,--.--,--.--,--.--,--.--,--.--,--.--,53.58,55.59,--.--,0,0,2.3,2.2,6.5,0,0,0,180.0,0.0,0.0
2025-01-29 11:13:37.559,1.6,0.7,239,0.0,0.0,0.0,0.0,0.1,0.051,-0.0,13.6,538.5,13.630,13.630,0.064,0.0,00:00:38,0.2,0,--.--,--.--,9.4,11,0000:35:21,0,0,0,47.64,30.99,1922,34,86,--.--,--:--:--,1,1476.39,11:13:37,29/01/2025,9.85,--.--,--.--,--.--,--.--,--.--,--.--,--.--,--.--,--.--,--.--,100.00,0,0.000,0.000,0.000,0.000,0.000,0.000,0.000,0.000,0.000,0.000,0.000,0.000,false,false,false,false,false,false,false,false,false,false,false,false,--.--,--.--,--.--,--.--,--.--,--.--,--.--,--.--,-16.6964342,-54.6718625,21KYB 48267 52576,0.5,0.1,0.9,3,28,--.--,--.--,,--.--,--.--,--.--,0,0,--.--,--.--,0,1.4,2.0,-12.6,-0.0,0.0,0.1,--.--,--.--,--.--,--.--,--.--,--.--,--.--,--.--,--.--,--.--,--.--,--.--,53.59,55.56,--.--,0,0,3.4,3.3,11.0,0,0,0,180.0,0.0,0.0
2025-01-29 11:13:38.559,2.5,0.4,239,0.0,0.0,0.0,0.1,0.1,0.070,0.0,13.6,538.5,13.630,13.616,0.096,0.0,00:00:39,0.3,0,--.--,--.--,9.2,11,0000:35:21,0,0,0,47.55,34.98,1931,34,86,--.--,--:--:--,1,1663.40,11:13:38,29/01/2025,9.85,--.--,--.--,--.--,--.--,--.--,--.--,--.--,--.--,--.--,--.--,100.00,0,0.000,0.000,0.000,0.000,0.000,0.000,0.000,0.000,0.000,0.000,0.000,0.000,false,false,false,false,false,false,false,false,false,false,false,false,--.--,--.--,--.--,--.--,--.--,--.--,--.--,--.--,-16.6964343,-54.6718620,21KYB 48267 52576,0.5,0.1,125.5,3,28,--.--,--.--,,--.--,--.--,--.--,0,0,--.--,--.--,0,1.3,2.1,-12.6,0.0,0.1,-0.0,--.--,--.--,--.--,--.--,--.--,--.--,--.--,--.--,--.--,--.--,--.--,--.--,53.57,55.55,--.--,0,0,2.5,4.7,7.9,0,0,0,180.0,0.0,0.0
2025-01-29 11:13:39.559,2.3,-0.8,238,0.0,0.0,0.0,0.2,0.2,0.069,0.0,13.6,538.5,13.640,13.650,0.162,0.0,00:00:40,0.2,0,--.--,--.--,9.1,11,0000:35:21,0,0,0,47.54,35.98,1941,34,86,--.--,--:--:--,1,1710.35,11:13:39,29/01/2025,9.85,--.--,--.--,--.--,--.--,--.--,--.--,--.--,--.--,--.--,--.--,100.00,0,0.000,0.000,0.000,0.000,0.000,0.000,0.000,0.000,0.000,0.000,0.000,0.000,false,false,false,false,false,false,false,false,false,false,false,false,--.--,--.--,--.--,--.--,--.--,--.--,--.--,--.--,-16.6964338,-54.6718621,21KYB 48267 52576,0.5,0.1,342.2,3,28,--.--,--.--,,--.--,--.--,--.--,0,0,--.--,--.--,0,1.4,2.1,-12.6,0.0,-0.1,0.0,--.--,--.--,--.--,--.--,--.--,--.--,--.--,--.--,--.--,--.--,--.--,--.--,53.62,55.54,--.--,0,0,2.8,5.0,9.1,0,0,0,180.0,0.0,0.0
2025-01-29 11:13:40.561,-0.8,1.4,239,0.0,0.0,0.0,0.2,0.2,0.165,-0.0,13.6,538.5,13.640,13.650,0.012,0.0,00:00:41,0.2,0,--.--,--.--,9.3,11,0000:35:21,0,0,0,47.51,35.98,1951,34,86,--.--,--:--:--,1,1709.30,11:13:40,29/01/2025,9.85,--.--,--.--,--.--,--.--,--.--,--.--,--.--,--.--,--.--,--.--,100.00,0,0.000,0.000,0.000,0.000,0.000,0.000,0.000,0.000,0.000,0.000,0.000,0.000,false,false,false,false,false,false,false,false,false,false,false,false,--.--,--.--,--.--,--.--,--.--,--.--,--.--,--.--,-16.6964336,-54.6718639,21KYB 48267 52576,0.5,0.1,235.9,3,28,--.--,--.--,,--.--,--.--,--.--,0,0,--.--,--.--,0,1.3,2.0,-12.6,-0.1,-0.1,-0.1,--.--,--.--,--.--,--.--,--.--,--.--,--.--,--.--,--.--,--.--,--.--,--.--,53.57,55.57,--.--,0,0,4.5,4.4,6.4,0,0,0,180.0,0.0,0.0
2025-01-29 11:13:41.559,4.0,1.7,238,0.0,0.0,0.0,0.4,0.4,0.457,0.0,13.6,538.5,13.640,13.632,0.066,0.0,00:00:42,0.6,0,--.--,--.--,9.1,11,0000:35:21,0,0,0,47.47,37.98,1962,34,86,--.--,--:--:--,1,1803.06,11:13:41,29/01/2025,9.85,--.--,--.--,--.--,--.--,--.--,--.--,--.--,--.--,--.--,--.--,100.00,0,0.000,0.000,0.000,0.000,0.000,0.000,0.000,0.000,0.000,0.000,0.000,0.000,false,false,false,false,false,false,false,false,false,false,false,false,--.--,--.--,--.--,--.--,--.--,--.--,--.--,--.--,-16.6964353,-54.6718641,21KYB 48267 52576,0.5,0.1,157.0,3,28,--.--,--.--,,--.--,--.--,--.--,0,0,--.--,--.--,0,1.0,2.1,-12.6,-0.4,0.2,-0.0,--.--,--.--,--.--,--.--,--.--,--.--,--.--,--.--,--.--,--.--,--.--,--.--,53.62,55.51,--.--,0,0,2.1,4.0,7.3,0,0,0,180.0,0.0,0.0
2025-01-29 11:13:42.563,6.5,1.8,238,0.0,0.0,0.0,0.3,0.3,0.036,0.0,13.6,538.5,13.660,13.669,0.080,0.0,00:00:43,0.7,0,--.--,--.--,8.9,11,0000:35:21,0,0,0,47.50,34.98,1972,34,86,--.--,--:--:--,1,1661.48,11:13:42,29/01/2025,9.85,--.--,--.--,--.--,--.--,--.--,--.--,--.--,--.--,--.--,--.--,100.00,0,0.000,0.000,0.000,0.000,0.000,0.000,0.000,0.000,0.000,0.000,0.000,0.000,false,false,false,false,false,false,false,false,false,false,false,false,--.--,--.--,--.--,--.--,--.--,--.--,--.--,--.--,-16.6964373,-54.6718634,21KYB 48267 52576,0.5,0.1,142.3,3,28,--.--,--.--,,--.--,--.--,--.--,0,0,--.--,--.--,0,0.8,2.2,-12.6,0.1,-0.0,-0.0,--.--,--.--,--.--,--.--,--.--,--.--,--.--,--.--,--.--,--.--,--.--,--.--,53.63,55.53,--.--,0,0,3.9,4.6,9.0,0,0,0,180.0,0.0,0.0
2025-01-29 11:13:43.559,0.7,0.5,238,0.0,0.0,0.0,0.5,0.5,0.579,-0.0,13.6,538.5,13.660,13.652,0.021,0.0,00:00:44,0.3,0,--.--,--.--,9.2,11,0000:35:21,0,0,0,47.46,35.98,1982,34,86,--.--,--:--:--,1,1707.75,11:13:43,29/01/2025,9.85,--.--,--.--,--.--,--.--,--.--,--.--,--.--,--.--,--.--,--.--,100.00,0,0.000,0.000,0.000,0.000,0.000,0.000,0.000,0.000,0.000,0.000,0.000,0.000,false,false,false,false,false,false,false,false,false,false,false,false,--.--,--.--,--.--,--.--,--.--,--.--,--.--,--.--,-16.6964345,-54.6718647,21KYB 48267 52576,0.5,0.1,339.2,3,28,--.--,--.--,,--.--,--.--,--.--,0,0,--.--,--.--,0,1.3,2.0,-12.6,0.5,-0.2,0.0,--.--,--.--,--.--,--.--,--.--,--.--,--.--,--.--,--.--,--.--,--.--,--.--,53.64,55.54,--.--,0,0,2.9,3.4,9.2,0,0,0,180.0,0.0,0.0
2025-01-29 11:13:44.560,1.5,-1.5,239,0.0,0.0,0.0,0.2,0.2,0.049,-0.0,13.6,538.5,13.620,13.618,0.053,0.0,00:00:45,0.1,0,--.--,--.--,9.4,11,0000:35:21,0,0,0,47.46,36.98,1993,34,86,--.--,--:--:--,1,1755.18,11:13:44,29/01/2025,9.85,--.--,--.--,--.--,--.--,--.--,--.--,--.--,--.--,--.--,--.--,100.00,0,0.000,0.000,0.000,0.000,0.000,0.000,0.000,0.000,0.000,0.000,0.000,0.000,false,false,false,false,false,false,false,false,false,false,false,false,--.--,--.--,--.--,--.--,--.--,--.--,--.--,--.--,-16.6964315,-54.6718663,21KYB 48267 52577,0.5,0.1,34.0,3,28,--.--,--.--,,--.--,--.--,--.--,0,0,--.--,--.--,0,1.5,1.9,-12.6,-0.1,0.0,-0.0,--.--,--.--,--.--,--.--,--.--,--.--,--.--,--.--,--.--,--.--,--.--,--.--,53.60,55.54,--.--,0,0,3.0,4.8,9.6,0,0,0,180.0,0.0,0.0
2025-01-29 11:13:45.559,3.0,-0.2,238,0.0,0.0,0.0,0.4,0.4,0.354,0.0,13.6,538.5,13.620,13.592,0.063,0.0,00:00:46,0.3,0,--.--,--.--,9.5,11,0000:35:21,0,0,0,47.46,35.98,1999,34,86,--.--,--:--:--,1,1707.50,11:13:45,29/01/2025,9.85,--.--,--.--,--.--,--.--,--.--,--.--,--.--,--.--,--.--,--.--,100.00,0,0.000,0.000,0.000,0.000,0.000,0.000,0.000,0.000,0.000,0.000,0.000,0.000,false,false,false,false,false,false,false,false,false,false,false,false,--.--,--.--,--.--,--.--,--.--,--.--,--.--,--.--,-16.6964330,-54.6718671,21KYB 48266 52576,0.5,0.1,222.8,3,28,--.--,--.--,,--.--,--.--,--.--,0,0,--.--,--.--,0,1.2,1.8,-12.5,-0.2,-0.3,-0.0,--.--,--.--,--.--,--.--,--.--,--.--,--.--,--.--,--.--,--.--,--.--,--.--,53.63,55.53,--.--,0,0,3.0,3.7,8.6,0,0,0,180.0,0.0,0.0
2025-01-29 11:13:46.559,1.2,5.1,238,0.0,0.0,0.0,0.2,0.2,0.343,-0.0,13.6,538.5,13.600,13.570,0.004,0.0,00:00:47,0.7,0,--.--,--.--,9.9,11,0000:35:21,0,0,0,47.45,35.98,2009,34,86,--.--,--:--:--,1,1707.32,11:13:46,29/01/2025,9.85,--.--,--.--,--.--,--.--,--.--,--.--,--.--,--.--,--.--,--.--,100.00,0,0.000,0.000,0.000,0.000,0.000,0.000,0.000,0.000,0.000,0.000,0.000,0.000,false,false,false,false,false,false,false,false,false,false,false,false,--.--,--.--,--.--,--.--,--.--,--.--,--.--,--.--,-16.6964344,-54.6718705,21KYB 48266 52576,0.5,0.1,246.7,3,28,--.--,--.--,,--.--,--.--,--.--,0,0,--.--,--.--,0,1.1,1.4,-12.5,-0.1,-0.3,0.0,--.--,--.--,--.--,--.--,--.--,--.--,--.--,--.--,--.--,--.--,--.--,--.--,53.63,55.56,--.--,0,0,2.5,4.4,9.6,0,0,0,180.0,0.0,0.0
2025-01-29 11:13:47.559,2.5,1.9,238,0.0,0.0,0.0,0.3,0.3,0.300,0.0,13.6,538.5,13.620,13.592,0.026,0.0,00:00:48,0.6,0,--.--,--.--,9.9,11,0000:35:21,0,0,0,47.42,36.98,2020,34,86,--.--,--:--:--,1,1753.55,11:13:47,29/01/2025,9.85,--.--,--.--,--.--,--.--,--.--,--.--,--.--,--.--,--.--,--.--,100.00,0,0.000,0.000,0.000,0.000,0.000,0.000,0.000,0.000,0.000,0.000,0.000,0.000,false,false,false,false,false,false,false,false,false,false,false,false,--.--,--.--,--.--,--.--,--.--,--.--,--.--,--.--,-16.6964344,-54.6718706,21KYB 48266 52576,0.5,0.1,77.4,3,28,--.--,--.--,,--.--,--.--,--.--,0,0,--.--,--.--,0,1.2,1.5,-12.5,0.1,0.3,-0.0,--.--,--.--,--.--,--.--,--.--,--.--,--.--,--.--,--.--,--.--,--.--,--.--,53.62,55.50,--.--,0,0,3.7,3.1,9.1,0,0,0,180.0,0.0,0.0
2025-01-29 11:13:48.560,2.0,-0.7,238,0.0,0.0,0.0,0.3,0.3,0.383,0.0,13.6,538.5,13.630,13.596,0.031,0.0,00:00:49,0.3,0,--.--,--.--,9.6,11,0000:35:21,0,0,0,47.45,32.98,2030,34,85,--.--,--:--:--,1,1564.87,11:13:48,29/01/2025,9.85,--.--,--.--,--.--,--.--,--.--,--.--,--.--,--.--,--.--,--.--,100.00,0,0.000,0.000,0.000,0.000,0.000,0.000,0.000,0.000,0.000,0.000,0.000,0.000,false,false,false,false,false,false,false,false,false,false,false,false,--.--,--.--,--.--,--.--,--.--,--.--,--.--,--.--,-16.6964333,-54.6718676,21KYB 48266 52576,0.5,0.1,62.4,3,28,--.--,--.--,,--.--,--.--,--.--,0,0,--.--,--.--,0,1.3,1.8,-12.5,0.2,0.3,0.0,--.--,--.--,--.--,--.--,--.--,--.--,--.--,--.--,--.--,--.--,--.--,--.--,53.59,55.50,--.--,0,0,3.1,2.3,8.5,0,0,0,180.0,0.0,0.0
2025-01-29 11:13:49.560,0.7,0.3,240,0.0,0.0,0.0,0.2,0.2,0.099,0.0,13.7,538.6,13.670,13.675,0.034,0.0,00:00:50,0.1,0,--.--,--.--,9.5,10,0000:35:21,0,0,0,47.40,35.98,2040,34,85,--.--,--:--:--,1,1705.45,11:13:49,29/01/2025,9.85,--.--,--.--,--.--,--.--,--.--,--.--,--.--,--.--,--.--,--.--,100.00,0,0.000,0.000,0.000,0.000,0.000,0.000,0.000,0.000,0.000,0.000,0.000,0.000,false,false,false,false,false,false,false,false,false,false,false,false,--.--,--.--,--.--,--.--,--.--,--.--,--.--,--.--,-16.6964323,-54.6718665,21KYB 48266 52576,0.5,0.1,287.2,3,28,--.--,--.--,,--.--,--.--,--.--,0,0,--.--,--.--,0,1.4,1.8,-12.6,-0.0,-0.1,0.0,--.--,--.--,--.--,--.--,--.--,--.--,--.--,--.--,--.--,--.--,--.--,--.--,53.66,55.47,--.--,0,0,2.9,2.1,7.7,0,0,0,180.0,0.0,0.0
2025-01-29 11:13:50.567,2.0,1.5,249,0.0,0.0,0.0,0.1,0.1,0.073,-0.0,13.6,538.5,13.650,13.691,0.021,0.0,00:00:51,0.3,0,--.--,--.--,9.6,11,0000:35:21,0,0,0,47.42,33.98,2050,34,85,--.--,--:--:--,1,1611.23,11:13:50,29/01/2025,9.85,--.--,--.--,--.--,--.--,--.--,--.--,--.--,--.--,--.--,--.--,100.00,0,0.000,0.000,0.000,0.000,0.000,0.000,0.000,0.000,0.000,0.000,0.000,0.000,false,false,false,false,false,false,false,false,false,false,false,false,--.--,--.--,--.--,--.--,--.--,--.--,--.--,--.--,-16.6964331,-54.6718673,21KYB 48266 52576,0.5,0.1,177.5,3,28,--.--,--.--,,--.--,--.--,--.--,0,0,--.--,--.--,0,1.3,1.7,-12.6,-0.0,0.0,0.0,--.--,--.--,--.--,--.--,--.--,--.--,--.--,--.--,--.--,--.--,--.--,--.--,53.59,55.52,--.--,0,0,4.0,3.9,7.2,0,0,0,180.0,0.0,0.0
2025-01-29 11:13:51.572,1.5,0.4,263,0.0,0.0,0.0,0.0,0.0,0.015,-0.0,13.6,538.5,13.640,13.651,0.019,0.0,00:00:52,0.3,0,--.--,--.--,9.6,11,0000:35:21,0,0,0,47.42,33.98,2060,34,85,--.--,--:--:--,1,1611.26,11:13:51,29/01/2025,60.62,--.--,--.--,--.--,--.--,--.--,--.--,--.--,--.--,--.--,--.--,100.00,0,0.000,0.000,0.000,0.000,0.000,0.000,0.000,0.000,0.000,0.000,0.000,0.000,false,false,false,false,false,false,false,false,false,false,false,false,--.--,--.--,--.--,--.--,--.--,--.--,--.--,--.--,-16.6964334,-54.6718668,21KYB 48266 52576,0.5,0.1,86.9,3,28,--.--,--.--,,--.--,--.--,--.--,0,0,--.--,--.--,0,1.3,1.8,-12.6,0.0,0.0,-0.0,--.--,--.--,--.--,--.--,--.--,--.--,--.--,--.--,--.--,--.--,--.--,--.--,53.65,55.52,--.--,0,0,2.1,4.0,7.6,0,0,0,180.0,0.0,0.0
2025-01-29 11:13:52.563,2.9,-1.7,276,0.0,0.0,0.0,0.2,0.2,0.193,0.0,13.6,538.5,13.600,13.555,0.046,0.0,00:00:53,0.3,0,--.--,--.--,9.6,11,0000:35:21,0,0,0,47.40,33.98,2069,34,85,--.--,--:--:--,1,1610.52,11:13:52,29/01/2025,56.21,--.--,--.--,--.--,--.--,--.--,--.--,--.--,--.--,--.--,--.--,100.00,0,0.000,0.000,0.000,0.000,0.000,0.000,0.000,0.000,0.000,0.000,0.000,0.000,false,false,false,false,false,false,false,false,false,false,false,false,--.--,--.--,--.--,--.--,--.--,--.--,--.--,--.--,-16.6964336,-54.6718659,21KYB 48267 52576,0.5,0.1,108.9,3,28,--.--,--.--,,--.--,--.--,--.--,0,0,--.--,--.--,0,1.3,1.8,-12.5,-0.1,0.2,-0.0,--.--,--.--,--.--,--.--,--.--,--.--,--.--,--.--,--.--,--.--,--.--,--.--,53.63,55.51,--.--,0,0,3.8,2.5,10.9,0,0,0,180.0,0.0,0.0
2025-01-29 11:13:53.565,3.1,-3.1,276,0.0,0.0,0.0,0.1,0.1,0.051,0.0,13.6,538.5,13.630,13.609,0.144,0.0,00:00:54,0.3,0,--.--,--.--,9.4,11,0000:35:21,0,0,0,47.39,34.98,2079,34,85,--.--,--:--:--,1,1657.63,11:13:53,29/01/2025,51.67,--.--,--.--,--.--,--.--,--.--,--.--,--.--,--.--,--.--,--.--,100.00,0,0.000,0.000,0.000,0.000,0.000,0.000,0.000,0.000,0.000,0.000,0.000,0.000,false,false,false,false,false,false,false,false,false,false,false,false,--.--,--.--,--.--,--.--,--.--,--.--,--.--,--.--,-16.6964343,-54.6718644,21KYB 48267 52576,0.5,0.1,97.1,3,28,--.--,--.--,,--.--,--.--,--.--,0,0,--.--,--.--,0,1.3,2.0,-12.6,0.0,0.0,0.0,--.--,--.--,--.--,--.--,--.--,--.--,--.--,--.--,--.--,--.--,--.--,--.--,53.62,55.54,--.--,0,0,3.4,3.1,6.7,0,0,0,180.0,0.0,0.0
2025-01-29 11:13:54.568,1.9,-0.8,257,0.0,0.0,0.0,0.1,0.1,0.163,0.0,13.6,538.5,13.610,13.574,0.053,0.0,00:00:55,0.2,0,--.--,--.--,9.6,11,0000:35:21,0,0,0,47.38,32.98,2088,34,85,--.--,--:--:--,1,1562.72,11:13:54,29/01/2025,54.10,--.--,--.--,--.--,--.--,--.--,--.--,--.--,--.--,--.--,--.--,100.00,0,0.000,0.000,0.000,0.000,0.000,0.000,0.000,0.000,0.000,0.000,0.000,0.000,false,false,false,false,false,false,false,false,false,false,false,false,--.--,--.--,--.--,--.--,--.--,--.--,--.--,--.--,-16.6964338,-54.6718655,21KYB 48267 52576,0.5,0.1,300.1,3,28,--.--,--.--,,--.--,--.--,--.--,0,0,--.--,--.--,0,1.4,1.8,-12.5,0.1,-0.1,0.0,--.--,--.--,--.--,--.--,--.--,--.--,--.--,--.--,--.--,--.--,--.--,--.--,53.60,55.50,--.--,0,0,2.6,3.3,7.8,0,0,0,180.0,0.0,0.0
2025-01-29 11:13:55.565,1.4,1.6,237,0.0,0.0,0.0,0.2,0.2,0.170,0.0,13.6,538.5,13.620,13.598,0.103,0.0,00:00:56,0.3,0,--.--,--.--,9.7,11,0000:35:21,0,0,0,47.36,34.98,2099,34,85,--.--,--:--:--,1,1656.79,11:13:55,29/01/2025,54.28,--.--,--.--,--.--,--.--,--.--,--.--,--.--,--.--,--.--,--.--,100.00,0,0.000,0.000,0.000,0.000,0.000,0.000,0.000,0.000,0.000,0.000,0.000,0.000,false,false,false,false,false,false,false,false,false,false,false,false,--.--,--.--,--.--,--.--,--.--,--.--,--.--,--.--,-16.6964335,-54.6718673,21KYB 48266 52576,0.5,0.1,270.8,3,28,--.--,--.--,,--.--,--.--,--.--,0,0,--.--,--.--,0,1.4,1.7,-12.5,0.0,-0.2,-0.0,--.--,--.--,--.--,--.--,--.--,--.--,--.--,--.--,--.--,--.--,--.--,--.--,53.59,55.50,--.--,0,0,3.5,5.0,6.7,0,0,0,180.0,0.0,0.0
2025-01-29 11:13:56.561,2.2,2.7,233,0.0,0.0,0.0,0.1,0.1,0.048,0.0,13.6,538.5,13.640,13.637,0.197,0.0,00:00:57,0.4,0,--.--,--.--,9.8,10,0000:35:21,0,0,0,47.36,33.98,2108,34,85,--.--,--:--:--,1,1609.26,11:13:56,29/01/2025,54.28,--.--,--.--,--.--,--.--,--.--,--.--,--.--,--.--,--.--,--.--,100.00,0,0.000,0.000,0.000,0.000,0.000,0.000,0.000,0.000,0.000,0.000,0.000,0.000,false,false,false,false,false,false,false,false,false,false,false,false,--.--,--.--,--.--,--.--,--.--,--.--,--.--,--.--,-16.6964339,-54.6718686,21KYB 48266 52576,0.5,0.1,170.8,3,28,--.--,--.--,,--.--,--.--,--.--,0,0,--.--,--.--,0,1.3,1.6,-12.6,-0.0,0.0,-0.0,--.--,--.--,--.--,--.--,--.--,--.--,--.--,--.--,--.--,--.--,--.--,--.--,53.63,55.51,--.--,0,0,2.8,3.6,8.5,0,0,0,180.0,0.0,0.0
2025-01-29 11:13:57.559,1.3,0.6,236,0.0,0.0,0.0,0.2,0.2,0.201,0.0,13.6,538.5,13.640,13.633,0.074,0.0,00:00:58,0.3,0,--.--,--.--,9.6,10,0000:35:21,0,0,0,47.36,33.98,2118,34,85,--.--,--:--:--,1,1609.26,11:13:57,29/01/2025,54.28,--.--,--.--,--.--,--.--,--.--,--.--,--.--,--.--,--.--,--.--,100.00,0,0.000,0.000,0.000,0.000,0.000,0.000,0.000,0.000,0.000,0.000,0.000,0.000,false,false,false,false,false,false,false,false,false,false,false,false,--.--,--.--,--.--,--.--,--.--,--.--,--.--,--.--,-16.6964339,-54.6718675,21KYB 48266 52576,0.5,0.1,65.0,3,28,--.--,--.--,,--.--,--.--,--.--,0,0,--.--,--.--,0,1.3,1.7,-12.6,0.1,0.2,-0.0,--.--,--.--,--.--,--.--,--.--,--.--,--.--,--.--,--.--,--.--,--.--,--.--,53.59,55.46,--.--,0,0,6.1,3.4,11.3,0,0,0,180.0,0.0,0.0
2025-01-29 11:13:58.559,0.4,0.7,236,0.0,0.0,0.0,0.3,0.3,0.243,0.0,13.6,538.5,13.640,13.631,0.035,0.0,00:00:59,0.3,0,--.--,--.--,9.3,10,0000:35:21,0,0,0,47.36,32.98,2127,34,85,--.--,--:--:--,1,1562.03,11:13:58,29/01/2025,54.28,--.--,--.--,--.--,--.--,--.--,--.--,--.--,--.--,--.--,--.--,100.00,0,0.000,0.000,0.000,0.000,0.000,0.000,0.000,0.000,0.000,0.000,0.000,0.000,false,false,false,false,false,false,false,false,false,false,false,false,--.--,--.--,--.--,--.--,--.--,--.--,--.--,--.--,-16.6964339,-54.6718661,21KYB 48267 52576,0.5,0.1,129.2,3,28,--.--,--.--,,--.--,--.--,--.--,0,0,--.--,--.--,0,1.3,1.9,-12.6,-0.2,0.2,-0.0,--.--,--.--,--.--,--.--,--.--,--.--,--.--,--.--,--.--,--.--,--.--,--.--,53.60,55.54,--.--,0,0,2.7,3.8,7.3,0,0,0,180.0,0.0,0.0
2025-01-29 11:13:59.560,6.6,1.2,236,0.0,0.0,0.0,0.2,0.2,0.361,-0.0,13.6,538.5,13.630,13.632,0.007,0.0,00:01:00,0.6,0,--.--,--.--,9.0,11,0000:35:21,0,0,0,47.35,31.99,2137,34,85,--.--,--:--:--,1,1514.85,11:13:59,29/01/2025,54.28,--.--,--.--,--.--,--.--,--.--,--.--,--.--,--.--,--.--,--.--,100.00,0,0.000,0.000,0.000,0.000,0.000,0.000,0.000,0.000,0.000,0.000,0.000,0.000,false,false,false,false,false,false,false,false,false,false,false,false,--.--,--.--,--.--,--.--,--.--,--.--,--.--,--.--,-16.6964364,-54.6718643,21KYB 48267 52576,0.5,0.1,145.7,3,28,--.--,--.--,,--.--,--.--,--.--,0,0,--.--,--.--,0,0.9,2.1,-12.6,-0.2,0.2,-0.0,--.--,--.--,--.--,--.--,--.--,--.--,--.--,--.--,--.--,--.--,--.--,--.--,53.59,55.53,--.--,0,0,4.0,4.2,9.2,0,0,0,180.0,0.0,0.0
2025-01-29 11:14:00.559,2.1,-2.0,236,0.0,0.0,0.0,0.3,0.3,0.157,0.0,13.6,538.5,13.630,13.610,0.073,0.0,00:01:01,0.6,0,--.--,--.--,8.9,10,0000:35:21,0,0,0,47.33,33.98,2146,34,85,--.--,--:--:--,1,1608.38,11:14:00,29/01/2025,54.28,--.--,--.--,--.--,--.--,--.--,--.--,--.--,--.--,--.--,--.--,100.00,0,0.000,0.000,0.000,0.000,0.000,0.000,0.000,0.000,0.000,0.000,0.000,0.000,false,false,false,false,false,false,false,false,false,false,false,false,--.--,--.--,--.--,--.--,--.--,--.--,--.--,--.--,-16.6964368,-54.6718636,21KYB 48267 52576,0.5,0.1,301.9,3,28,--.--,--.--,,--.--,--.--,--.--,0,0,--.--,--.--,0,1.0,2.1,-12.6,-0.0,-0.2,-0.0,--.--,--.--,--.--,--.--,--.--,--.--,--.--,--.--,--.--,--.--,--.--,--.--,53.60,55.47,--.--,0,0,3.6,4.3,8.3,0,0,0,180.0,0.0,0.0
2025-01-29 11:14:01.559,2.0,-0.1,236,0.0,0.0,0.0,0.4,0.4,0.412,-0.0,13.6,538.5,13.610,13.593,0.086,0.0,00:01:02,0.8,0,--.--,--.--,9.1,11,0000:35:21,0,0,0,47.35,31.99,2151,34,84,--.--,--:--:--,1,1514.60,11:14:01,29/01/2025,54.28,--.--,--.--,--.--,--.--,--.--,--.--,--.--,--.--,--.--,--.--,100.00,0,0.000,0.000,0.000,0.000,0.000,0.000,0.000,0.000,0.000,0.000,0.000,0.000,false,false,false,false,false,false,false,false,false,false,false,false,--.--,--.--,--.--,--.--,--.--,--.--,--.--,--.--,-16.6964377,-54.6718661,21KYB 48267 52576,0.5,0.1,242.7,3,28,--.--,--.--,,--.--,--.--,--.--,0,0,--.--,--.--,0,0.8,1.7,-12.5,-0.2,-0.4,-0.0,--.--,--.--,--.--,--.--,--.--,--.--,--.--,--.--,--.--,--.--,--.--,--.--,53.60,55.46,--.--,0,0,2.6,3.9,10.8,0,0,0,180.0,0.0,0.0
2025-01-29 11:14:02.561,1.4,-0.8,236,0.0,0.0,0.0,0.6,0.6,0.515,0.0,13.6,538.5,13.640,13.611,0.117,0.0,00:01:03,1.1,0,--.--,31,9.4,11,0000:35:21,0,0,0,47.29,35.98,2160,34,84,--.--,--:--:--,1,1701.39,11:14:02,29/01/2025,54.28,--.--,--.--,--.--,--.--,--.--,--.--,--.--,--.--,--.--,--.--,100.00,0,0.000,0.000,0.000,0.000,0.000,0.000,0.000,0.000,0.000,0.000,0.000,0.000,false,false,false,false,false,false,false,false,false,false,false,false,--.--,--.--,--.--,--.--,--.--,--.--,--.--,--.--,-16.6964395,-54.6718690,21KYB 48266 52576,0.5,0.1,238.2,3,28,--.--,--.--,,--.--,--.--,--.--,0,0,--.--,--.--,0,0.6,1.3,-12.6,-0.3,-0.5,0.0,--.--,--.--,--.--,--.--,--.--,--.--,--.--,--.--,--.--,--.--,--.--,--.--,53.66,55.46,--.--,0,0,4.8,3.2,8.3,0,0,0,180.0,0.0,0.0
2025-01-29 11:14:03.560,1.1,0.4,236,0.0,0.0,0.0,0.7,0.7,0.714,0.0,13.6,538.5,13.650,13.635,0.100,0.0,00:01:04,1.7,0,--.--,39,9.9,11,0000:35:21,0,0,0,47.28,34.98,2170,34,84,--.--,--:--:--,1,1653.82,11:14:03,29/01/2025,54.28,--.--,--.--,--.--,--.--,--.--,--.--,--.--,--.--,--.--,--.--,100.00,0,0.000,0.000,0.000,0.000,0.000,0.000,0.000,0.000,0.000,0.000,0.000,0.000,false,false,false,false,false,false,false,false,false,false,false,false,--.--,--.--,--.--,--.--,--.--,--.--,--.--,--.--,-16.6964424,-54.6718734,21KYB 48266 52575,0.5,0.1,233.3,3,28,--.--,--.--,,--.--,--.--,--.--,0,0,--.--,--.--,0,0.2,0.8,-12.6,-0.4,-0.6,-0.0,--.--,--.--,--.--,--.--,--.--,--.--,--.--,--.--,--.--,--.--,--.--,--.--,53.56,55.45,--.--,0,0,2.6,3.7,9.3,0,0,0,180.0,0.0,0.0
2025-01-29 11:14:04.559,2.2,0.1,236,0.0,0.0,0.0,0.7,0.7,0.705,-0.0,13.6,538.5,13.660,13.657,0.032,2.1,00:01:05,2.4,0,--.--,42,10.2,11,0000:35:21,0,0,0,47.26,35.98,2181,34,84,--.--,--:--:--,1,1700.41,11:14:04,29/01/2025,54.28,--.--,--.--,--.--,--.--,--.--,--.--,--.--,--.--,--.--,--.--,100.00,0,0.000,0.000,0.000,0.000,0.000,0.000,0.000,0.000,0.000,0.000,0.000,0.000,false,false,false,false,false,false,false,false,false,false,false,false,--.--,--.--,--.--,--.--,--.--,--.--,--.--,--.--,-16.6964461,-54.6718782,21KYB 48265 52575,0.5,0.1,231.7,3,28,--.--,--.--,,--.--,--.--,--.--,0,0,--.--,--.--,0,-0.2,0.3,-12.6,-0.4,-0.6,-0.0,--.--,--.--,--.--,--.--,--.--,--.--,--.--,--.--,--.--,--.--,--.--,--.--,53.62,55.44,--.--,0,0,4.9,4.0,8.3,0,0,0,180.0,0.0,0.0
2025-01-29 11:14:05.560,2.4,-0.5,236,0.0,0.0,0.0,0.8,0.8,0.755,-0.0,13.6,538.5,13.650,13.674,0.014,2.1,00:01:06,3.1,0,--.--,44,10.7,11,0000:35:21,0,0,0,47.27,34.98,2192,34,84,--.--,--:--:--,1,1653.47,11:14:05,29/01/2025,54.28,--.--,--.--,--.--,--.--,--.--,--.--,--.--,--.--,--.--,--.--,100.00,0,0.000,0.000,0.000,0.000,0.000,0.000,0.000,0.000,0.000,0.000,0.000,0.000,false,false,false,false,false,false,false,false,false,false,false,false,--.--,--.--,--.--,--.--,--.--,--.--,--.--,--.--,-16.6964497,-54.6718829,21KYB 48265 52575,0.5,0.1,233.8,3,28,--.--,--.--,,--.--,--.--,--.--,0,0,--.--,--.--,0,-0.6,-0.2,-12.6,-0.4,-0.6,0.0,--.--,--.--,--.--,--.--,--.--,--.--,--.--,--.--,--.--,--.--,--.--,--.--,53.61,55.46,--.--,0,0,4.3,4.6,7.4,0,0,0,180.0,0.0,0.0
2025-01-29 11:14:06.559,3.0,-2.9,235,0.0,0.0,0.0,0.7,0.7,0.668,-0.0,13.6,538.5,13.640,13.653,0.016,2.1,00:01:07,3.8,0,--.--,47,11.2,11,0000:35:21,0,0,0,47.25,34.98,2202,34,84,--.--,--:--:--,1,1652.77,11:14:06,29/01/2025,54.28,--.--,--.--,--.--,--.--,--.--,--.--,--.--,--.--,--.--,--.--,100.00,0,0.000,0.000,0.000,0.000,0.000,0.000,0.000,0.000,0.000,0.000,0.000,0.000,false,false,false,false,false,false,false,false,false,false,false,false,--.--,--.--,--.--,--.--,--.--,--.--,--.--,--.--,-16.6964533,-54.6718884,21KYB 48264 52574,0.5,0.1,234.9,3,28,--.--,--.--,,--.--,--.--,--.--,0,0,--.--,--.--,0,-1.0,-0.8,-12.6,-0.4,-0.5,0.0,--.--,--.--,--.--,--.--,--.--,--.--,--.--,--.--,--.--,--.--,--.--,--.--,53.58,55.43,--.--,0,0,2.9,2.7,12.9,0,0,0,180.0,0.0,0.0
2025-01-29 11:14:07.559,1.7,-0.5,235,0.0,0.0,0.0,1.1,1.1,1.062,0.0,13.6,538.5,13.590,13.553,0.001,4.2,00:01:08,4.6,0,--.--,49,11.8,11,0000:35:21,0,0,0,47.22,37.98,2212,34,84,--.--,--:--:--,1,1793.38,11:14:07,29/01/2025,54.28,--.--,--.--,--.--,--.--,--.--,--.--,--.--,--.--,--.--,--.--,100.00,0,0.000,0.000,0.000,0.000,0.000,0.000,0.000,0.000,0.000,0.000,0.000,0.000,false,false,false,false,false,false,false,false,false,false,false,false,--.--,--.--,--.--,--.--,--.--,--.--,--.--,--.--,-16.6964570,-54.6718946,21KYB 48263 52574,0.5,0.1,238.5,3,28,--.--,--.--,,--.--,--.--,--.--,0,0,--.--,--.--,0,-1.5,-1.5,-12.5,-0.6,-0.9,-0.0,--.--,--.--,--.--,--.--,--.--,--.--,--.--,--.--,--.--,--.--,--.--,--.--,53.60,55.43,--.--,0,0,2.5,3.7,9.0,0,0,0,180.0,0.0,0.0
2025-01-29 11:14:08.559,2.6,1.3,236,0.0,0.0,0.0,0.9,0.9,1.013,0.0,13.6,538.5,13.630,13.590,0.009,4.2,00:01:09,5.7,0,--.--,50,12.7,11,0000:35:21,0,0,0,47.21,38.98,2223,33,84,--.--,--:--:--,1,1840.28,11:14:08,29/01/2025,54.28,--.--,--.--,--.--,--.--,--.--,--.--,--.--,--.--,--.--,--.--,100.00,0,0.000,0.000,0.000,0.000,0.000,0.000,0.000,0.000,0.000,0.000,0.000,0.000,false,false,false,false,false,false,false,false,false,false,false,false,--.--,--.--,--.--,--.--,--.--,--.--,--.--,--.--,-16.6964627,-54.6719028,21KYB 48263 52573,0.5,0.1,233.6,3,28,--.--,--.--,,--.--,--.--,--.--,0,0,--.--,--.--,0,-2.1,-2.4,-12.5,-0.6,-0.8,-0.0,--.--,--.--,--.--,--.--,--.--,--.--,--.--,--.--,--.--,--.--,--.--,--.--,53.57,55.42,--.--,0,0,4.8,3.9,7.4,0,0,0,180.0,0.0,0.0
2025-01-29 11:14:09.559,1.3,0.2,235,0.0,0.0,0.0,0.9,0.9,0.912,-0.0,13.6,538.5,13.660,13.649,0.002,6.2,00:01:10,6.5,0,--.--,51,13.4,11,0000:35:21,0,0,0,47.22,35.98,2233,33,84,--.--,--:--:--,1,1698.98,11:14:09,29/01/2025,54.28,--.--,--.--,--.--,--.--,--.--,--.--,--.--,--.--,--.--,--.--,100.00,0,0.000,0.000,0.000,0.000,0.000,0.000,0.000,0.000,0.000,0.000,0.000,0.000,false,false,false,false,false,false,false,false,false,false,false,false,--.--,--.--,--.--,--.--,--.--,--.--,--.--,--.--,-16.6964671,-54.6719097,21KYB 48262 52573,0.5,0.1,240.3,3,28,--.--,--.--,,--.--,--.--,--.--,0,0,--.--,--.--,0,-2.6,-3.1,-12.6,-0.4,-0.8,-0.0,--.--,--.--,--.--,--.--,--.--,--.--,--.--,--.--,--.--,--.--,--.--,--.--,53.63,55.37,--.--,0,0,4.0,3.0,9.1,0,0,0,180.0,0.0,0.0
2025-01-29 11:14:10.559,0.0,-0.7,235,0.0,0.0,0.0,0.9,0.9,0.888,-0.0,13.7,538.6,13.670,13.694,0.082,6.2,00:01:11,7.4,0,--.--,52,14.2,11,0000:35:21,0,0,0,47.20,35.98,2244,33,84,--.--,--:--:--,1,1698.11,11:14:10,29/01/2025,54.28,--.--,--.--,--.--,--.--,--.--,--.--,--.--,--.--,--.--,--.--,100.00,0,0.000,0.000,0.000,0.000,0.000,0.000,0.000,0.000,0.000,0.000,0.000,0.000,false,false,false,false,false,false,false,false,false,false,false,false,--.--,--.--,--.--,--.--,--.--,--.--,--.--,--.--,-16.6964712,-54.6719171,21KYB 48261 52572,0.5,0.1,239.6,3,28,--.--,--.--,,--.--,--.--,--.--,0,0,--.--,--.--,0,-3.0,-3.9,-12.6,-0.5,-0.7,-0.0,--.--,--.--,--.--,--.--,--.--,--.--,--.--,--.--,--.--,--.--,--.--,--.--,53.59,55.34,--.--,0,0,2.6,2.7,5.5,0,0,0,180.0,0.0,0.0
2025-01-29 11:14:11.558,1.9,-0.3,235,0.0,0.0,0.0,1.1,1.1,1.059,0.0,13.6,538.5,13.660,13.678,0.035,8.4,00:01:12,8.4,0,--.--,52,15.1,10,0000:35:21,0,0,0,47.22,33.98,2254,33,84,--.--,--:--:--,1,1604.64,11:14:11,29/01/2025,54.28,--.--,--.--,--.--,--.--,--.--,--.--,--.--,--.--,--.--,--.--,100.00,0,0.000,0.000,0.000,0.000,0.000,0.000,0.000,0.000,0.000,0.000,0.000,0.000,false,false,false,false,false,false,false,false,false,false,false,false,--.--,--.--,--.--,--.--,--.--,--.--,--.--,--.--,-16.6964764,-54.6719244,21KYB 48260 52572,0.5,0.1,230.7,3,28,--.--,--.--,,--.--,--.--,--.--,0,0,--.--,--.--,0,-3.7,-4.7,-12.6,-0.7,-0.8,0.0,--.--,--.--,--.--,--.--,--.--,--.--,--.--,--.--,--.--,--.--,--.--,--.--,53.62,55.37,--.--,0,0,3.6,4.4,8.6,0,0,0,180.0,0.0,0.0
2025-01-29 11:14:12.561,3.5,-0.6,235,0.0,0.0,0.0,1.0,1.0,1.047,-0.0,13.6,538.5,13.630,13.629,0.062,8.4,00:01:13,9.6,0,--.--,52,16.0,11,0000:35:21,0,0,0,47.20,34.98,2264,33,84,--.--,--:--:--,1,1650.99,11:14:12,29/01/2025,54.28,--.--,--.--,--.--,--.--,--.--,--.--,--.--,--.--,--.--,--.--,100.00,0,0.000,0.000,0.000,0.000,0.000,0.000,0.000,0.000,0.000,0.000,0.000,0.000,false,false,false,false,false,false,false,false,false,false,false,false,--.--,--.--,--.--,--.--,--.--,--.--,--.--,--.--,-16.6964827,-54.6719322,21KYB 48259 52571,0.5,0.1,229.2,3,28,--.--,--.--,,--.--,--.--,--.--,0,0,--.--,--.--,0,-4.4,-5.6,-12.6,-0.6,-0.8,-0.0,--.--,--.--,--.--,--.--,--.--,--.--,--.--,--.--,--.--,--.--,--.--,--.--,53.56,55.39,--.--,0,0,3.1,5.3,8.6,0,0,0,180.0,0.0,0.0
2025-01-29 11:14:13.559,1.6,-2.5,235,0.0,0.0,0.0,1.2,1.2,1.079,-0.0,13.6,538.5,13.630,13.610,0.044,10.5,00:01:14,10.5,0,--.--,52,16.9,11,0000:35:21,0,0,0,47.13,37.98,2274,33,84,--.--,--:--:--,1,1790.11,11:14:13,29/01/2025,54.28,--.--,--.--,--.--,--.--,--.--,--.--,--.--,--.--,--.--,--.--,100.00,0,0.000,0.000,0.000,0.000,0.000,0.000,0.000,0.000,0.000,0.000,0.000,0.000,false,false,false,false,false,false,false,false,false,false,false,false,--.--,--.--,--.--,--.--,--.--,--.--,--.--,--.--,-16.6964878,-54.6719399,21KYB 48259 52570,0.5,0.1,240.7,3,28,--.--,--.--,,--.--,--.--,--.--,0,0,--.--,--.--,0,-4.9,-6.4,-12.6,-0.5,-1.0,0.0,--.--,--.--,--.--,--.--,--.--,--.--,--.--,--.--,--.--,--.--,--.--,--.--,53.62,55.42,--.--,0,0,2.4,3.3,4.9,0,0,0,180.0,0.0,0.0
