Timestamp,roll,pitch,heading,rollRate,pitchRate,yawRate,groundSpeed,airSpeed,airSpeedSetpoint,climbRate,altitudeRelative,altitudeAMSL,altitudeTuning,altitudeTuningSetpoint,xTrackError,flightDistance,flightTime,distanceToHome,missionItemIndex,headingToNextWP,headingToHome,distanceToGCS,throttlePct,hobbs,battery0.id,battery0.batteryFunction,battery0.batteryType,battery0.voltage,battery0.current,battery0.mahConsumed,battery0.temperature,battery0.percentRemaining,battery0.timeRemaining,battery0.timeRemainingStr,battery0.chargeState,battery0.instantPower,clock.currentTime,clock.currentDate,distanceSensor.rotationNone,distanceSensor.rotationYaw45,distanceSensor.rotationYaw90,distanceSensor.rotationYaw135,distanceSensor.rotationYaw180,distanceSensor.rotationYaw225,distanceSensor.rotationYaw270,distanceSensor.rotationYaw315,distanceSensor.rotationPitch90,distanceSensor.rotationPitch270,distanceSensor.minDistance,distanceSensor.maxDistance,escStatus.index,escStatus.rpm1,escStatus.rpm2,escStatus.rpm3,escStatus.rpm4,escStatus.current1,escStatus.current2,escStatus.current3,escStatus.current4,escStatus.voltage1,escStatus.voltage2,escStatus.voltage3,escStatus.voltage4,estimatorStatus.goodAttitudeEsimate,estimatorStatus.goodHorizVelEstimate,estimatorStatus.goodVertVelEstimate,estimatorStatus.goodHorizPosRelEstimate,estimatorStatus.goodHorizPosAbsEstimate,estimatorStatus.goodVertPosAbsEstimate,estimatorStatus.goodVertPosAGLEstimate,estimatorStatus.goodConstPosModeEstimate,estimatorStatus.goodPredHorizPosRelEstimate,estimatorStatus.goodPredHorizPosAbsEstimate,estimatorStatus.gpsGlitch,estimatorStatus.accelError,estimatorStatus.velRatio,estimatorStatus.horizPosRatio,estimatorStatus.vertPosRatio,estimatorStatus.magRatio,estimatorStatus.haglRatio,estimatorStatus.tasRatio,estimatorStatus.horizPosAccuracy,estimatorStatus.vertPosAccuracy,gps.lat,gps.lon,gps.mgrs,gps.hdop,gps.vdop,gps.courseOverGround,gps.lock,gps.count,gps2.lat,gps2.lon,gps2.mgrs,gps2.hdop,gps2.vdop,gps2.courseOverGround,gps2.lock,gps2.count,hygrometer.temperature,hygrometer.humidity,hygrometer.hygrometerid,localPosition.x,localPosition.y,localPosition.z,localPosition.vx,localPosition.vy,localPosition.vz,localPositionSetpoint.x,localPositionSetpoint.y,localPositionSetpoint.z,localPositionSetpoint.vx,localPositionSetpoint.vy,localPositionSetpoint.vz,setpoint.roll,setpoint.pitch,setpoint.yaw,setpoint.rollRate,setpoint.pitchRate,setpoint.yawRate,temperature.temperature1,temperature.temperature2,temperature.temperature3,terrain.blocksPending,terrain.blocksLoaded,vibration.xAxis,vibration.yAxis,vibration.zAxis,vibration.clipCount1,vibration.clipCount2,vibration.clipCount3,wind.direction,wind.speed,wind.verticalSpeed
2025-01-24 12:31:06.874,-2.5,-0.9,33,0.0,0.0,0.0,0.0,0.0,0.005,-0.0,0.0,582.9,0.440,0.440,0.000,0.0,00:00:00,0.0,0,--.--,--.--,9.0,0,0000:24:22,0,0,0,47.81,0.00,2506,41,79,--.--,--:--:--,1,0.00,12:31:06,24/01/2025,6.90,--.--,--.--,--.--,--.--,--.--,--.--,--.--,--.--,--.--,--.--,100.00,0,0.000,0.000,0.000,0.000,0.000,0.000,0.000,0.000,0.000,0.000,0.000,0.000,false,false,false,false,false,false,false,false,false,false,false,false,--.--,--.--,--.--,--.--,--.--,--.--,--.--,--.--,-23.2556922,-47.2987442,23KKQ 64823 26311,0.5,0.1,0.0,3,28,--.--,--.--,,--.--,--.--,--.--,0,0,--.--,--.--,0,1.2,-0.4,-1.4,0.0,0.0,0.0,--.--,--.--,--.--,--.--,--.--,--.--,--.--,--.--,--.--,--.--,--.--,--.--,52.40,55.39,--.--,0,0,0.0,0.0,0.0,0,0,0,180.0,0.0,0.0
2025-01-24 12:31:07.841,-2.5,-0.9,33,0.0,0.0,0.0,0.0,0.0,0.007,-0.0,-0.0,582.9,0.430,0.430,0.000,0.0,00:00:00,0.0,0,--.--,--.--,8.7,0,0000:24:22,0,0,0,47.81,0.00,2506,41,79,--.--,--:--:--,1,0.00,12:31:07,24/01/2025,6.88,--.--,--.--,--.--,--.--,--.--,--.--,--.--,--.--,--.--,--.--,100.00,0,0.000,0.000,0.000,0.000,0.000,0.000,0.000,0.000,0.000,0.000,0.000,0.000,false,false,false,false,false,false,false,false,false,false,false,false,--.--,--.--,--.--,--.--,--.--,--.--,--.--,--.--,-23.2556925,-47.2987445,23KKQ 64823 26311,0.5,0.1,45.0,3,28,--.--,--.--,,--.--,--.--,--.--,0,0,--.--,--.--,0,1.2,-0.4,-1.4,0.0,0.0,0.0,--.--,--.--,--.--,--.--,--.--,--.--,--.--,--.--,--.--,--.--,--.--,--.--,52.48,55.40,--.--,0,0,0.0,0.0,0.0,0,0,0,180.0,0.0,0.0
2025-01-24 12:31:08.865,-2.5,-0.9,33,0.0,0.0,0.0,0.0,0.0,0.008,-0.0,-0.0,582.9,0.410,0.410,0.000,0.0,00:00:01,0.0,0,--.--,--.--,8.5,0,0000:24:22,0,0,0,47.81,0.00,2506,41,79,--.--,--:--:--,1,0.00,12:31:08,24/01/2025,6.90,--.--,--.--,--.--,--.--,--.--,--.--,--.--,--.--,--.--,--.--,100.00,0,0.000,0.000,0.000,0.000,0.000,0.000,0.000,0.000,0.000,0.000,0.000,0.000,false,false,false,false,false,false,false,false,false,false,false,false,--.--,--.--,--.--,--.--,--.--,--.--,--.--,--.--,-23.2556925,-47.2987445,23KKQ 64823 26311,0.5,0.1,45.0,3,28,--.--,--.--,,--.--,--.--,--.--,0,0,--.--,--.--,0,1.2,-0.4,-1.4,0.0,0.0,0.0,--.--,--.--,--.--,--.--,--.--,--.--,--.--,--.--,--.--,--.--,--.--,--.--,52.47,55.43,--.--,0,0,0.0,0.0,0.0,0,0,0,180.0,0.0,0.0
2025-01-24 12:31:09.861,-2.5,-0.9,33,0.0,0.0,0.0,0.0,0.0,0.008,-0.0,-0.0,582.9,0.400,0.400,0.000,0.0,00:00:02,0.1,0,--.--,--.--,8.1,0,0000:24:22,0,0,0,47.81,0.00,2506,41,79,--.--,--:--:--,1,0.00,12:31:09,24/01/2025,6.89,--.--,--.--,--.--,--.--,--.--,--.--,--.--,--.--,--.--,--.--,100.00,0,0.000,0.000,0.000,0.000,0.000,0.000,0.000,0.000,0.000,0.000,0.000,0.000,false,false,false,false,false,false,false,false,false,false,false,false,--.--,--.--,--.--,--.--,--.--,--.--,--.--,--.--,-23.2556927,-47.2987448,23KKQ 64823 26311,0.5,0.1,45.0,3,28,--.--,--.--,,--.--,--.--,--.--,0,0,--.--,--.--,0,1.2,-0.4,-1.4,-0.0,-0.0,0.0,--.--,--.--,--.--,--.--,--.--,--.--,--.--,--.--,--.--,--.--,--.--,--.--,52.46,55.40,--.--,0,0,0.0,0.0,0.0,0,0,0,180.0,0.0,0.0
2025-01-24 12:31:10.863,-2.5,-0.9,33,0.0,0.0,0.0,0.0,0.0,0.009,-0.0,-0.1,582.9,0.390,0.390,0.000,0.0,00:00:03,0.1,0,--.--,--.--,8.0,0,0000:24:22,0,0,0,47.81,0.00,2506,40,79,--.--,--:--:--,1,0.00,12:31:10,24/01/2025,6.89,--.--,--.--,--.--,--.--,--.--,--.--,--.--,--.--,--.--,--.--,100.00,0,0.000,0.000,0.000,0.000,0.000,0.000,0.000,0.000,0.000,0.000,0.000,0.000,false,false,false,false,false,false,false,false,false,false,false,false,--.--,--.--,--.--,--.--,--.--,--.--,--.--,--.--,-23.2556928,-47.2987448,23KKQ 64823 26311,0.5,0.1,0.0,3,28,--.--,--.--,,--.--,--.--,--.--,0,0,--.--,--.--,0,1.1,-0.4,-1.4,0.0,-0.0,0.0,--.--,--.--,--.--,--.--,--.--,--.--,--.--,--.--,--.--,--.--,--.--,--.--,52.46,55.39,--.--,0,0,0.1,0.1,0.1,0,0,0,180.0,0.0,0.0
2025-01-24 12:31:11.870,-2.5,-0.8,33,0.0,0.0,0.0,0.0,0.0,0.016,-0.0,-0.1,582.9,0.370,0.370,0.000,0.0,00:00:04,0.1,0,--.--,--.--,7.8,0,0000:24:22,0,0,0,47.80,0.98,2506,40,79,--.--,--:--:--,1,46.84,12:31:11,24/01/2025,6.95,--.--,--.--,--.--,--.--,--.--,--.--,--.--,--.--,--.--,--.--,100.00,0,0.000,0.000,0.000,0.000,0.000,0.000,0.000,0.000,0.000,0.000,0.000,0.000,false,false,false,false,false,false,false,false,false,false,false,false,--.--,--.--,--.--,--.--,--.--,--.--,--.--,--.--,-23.2556930,-47.2987451,23KKQ 64823 26311,0.5,0.1,225.0,3,28,--.--,--.--,,--.--,--.--,--.--,0,0,--.--,--.--,0,1.1,-0.4,-1.4,0.0,-0.0,0.0,--.--,--.--,--.--,--.--,--.--,--.--,--.--,--.--,--.--,--.--,--.--,--.--,52.46,55.39,--.--,0,0,1.6,0.9,0.9,0,0,0,180.0,0.0,0.0
2025-01-24 12:31:12.864,-2.5,-0.8,33,0.0,0.0,0.0,0.0,0.0,0.027,-0.0,-0.1,582.8,0.360,0.360,0.000,0.0,00:00:05,0.1,0,--.--,--.--,7.6,0,0000:24:22,0,0,0,47.75,5.99,2507,41,79,--.--,--:--:--,1,286.03,12:31:12,24/01/2025,7.02,--.--,--.--,--.--,--.--,--.--,--.--,--.--,--.--,--.--,--.--,100.00,0,0.000,0.000,0.000,0.000,0.000,0.000,0.000,0.000,0.000,0.000,0.000,0.000,false,false,false,false,false,false,false,false,false,false,false,false,--.--,--.--,--.--,--.--,--.--,--.--,--.--,--.--,-23.2556931,-47.2987452,23KKQ 64823 26311,0.5,0.1,243.4,3,28,--.--,--.--,,--.--,--.--,--.--,0,0,--.--,--.--,0,1.1,-0.4,-1.3,0.0,0.0,0.0,--.--,--.--,--.--,--.--,--.--,--.--,--.--,--.--,--.--,--.--,--.--,--.--,52.43,55.42,--.--,0,0,1.5,1.3,0.7,0,0,0,180.0,0.0,0.0
2025-01-24 12:31:13.868,-2.4,-0.9,33,0.0,0.0,0.0,0.0,0.0,0.039,-0.0,-0.1,582.8,0.350,0.350,0.000,0.0,00:00:06,0.1,0,--.--,--.--,7.5,0,0000:24:22,0,0,0,47.75,4.98,2509,41,79,--.--,--:--:--,1,237.77,12:31:13,24/01/2025,7.03,--.--,--.--,--.--,--.--,--.--,--.--,--.--,--.--,--.--,--.--,100.00,0,0.000,0.000,0.000,0.000,0.000,0.000,0.000,0.000,0.000,0.000,0.000,0.000,false,false,false,false,false,false,false,false,false,false,false,false,--.--,--.--,--.--,--.--,--.--,--.--,--.--,--.--,-23.2556932,-47.2987454,23KKQ 64823 26311,0.5,0.1,225.0,3,28,--.--,--.--,,--.--,--.--,--.--,0,0,--.--,--.--,0,1.1,-0.5,-1.3,-0.0,0.0,0.0,--.--,--.--,--.--,--.--,--.--,--.--,--.--,--.--,--.--,--.--,--.--,--.--,52.42,55.46,--.--,0,0,2.1,1.2,0.8,0,0,0,180.0,0.0,0.0
2025-01-24 12:31:14.867,-2.4,-0.8,34,0.0,0.0,0.0,0.0,0.0,0.019,-0.0,-0.1,582.8,0.330,0.330,0.000,0.0,00:00:07,0.2,0,--.--,--.--,7.3,0,0000:24:22,0,0,0,47.73,4.98,2510,41,79,--.--,--:--:--,1,237.71,12:31:14,24/01/2025,7.01,--.--,--.--,--.--,--.--,--.--,--.--,--.--,--.--,--.--,--.--,100.00,0,0.000,0.000,0.000,0.000,0.000,0.000,0.000,0.000,0.000,0.000,0.000,0.000,false,false,false,false,false,false,false,false,false,false,false,false,--.--,--.--,--.--,--.--,--.--,--.--,--.--,--.--,-23.2556933,-47.2987455,23KKQ 64823 26311,0.5,0.1,225.0,3,28,--.--,--.--,,--.--,--.--,--.--,0,0,--.--,--.--,0,1.1,-0.5,-1.3,0.0,-0.0,0.0,--.--,--.--,--.--,--.--,--.--,--.--,--.--,--.--,--.--,--.--,--.--,--.--,52.47,55.44,--.--,0,0,1.4,1.0,0.8,0,0,0,180.0,0.0,0.0
2025-01-24 12:31:15.855,-2.4,-0.9,33,0.0,0.0,0.0,0.0,0.0,0.018,-0.0,-0.1,582.8,0.320,0.320,0.000,0.0,00:00:08,0.2,0,--.--,--.--,7.1,0,0000:24:22,0,0,0,47.74,4.98,2512,41,79,--.--,--:--:--,1,237.73,12:31:15,24/01/2025,7.03,--.--,--.--,--.--,--.--,--.--,--.--,--.--,--.--,--.--,--.--,100.00,0,0.000,0.000,0.000,0.000,0.000,0.000,0.000,0.000,0.000,0.000,0.000,0.000,false,false,false,false,false,false,false,false,false,false,false,false,--.--,--.--,--.--,--.--,--.--,--.--,--.--,--.--,-23.2556934,-47.2987456,23KKQ 64823 26311,0.5,0.1,71.6,3,28,--.--,--.--,,--.--,--.--,--.--,0,0,--.--,--.--,0,1.1,-0.5,-1.3,-0.0,0.0,0.0,--.--,--.--,--.--,--.--,--.--,--.--,--.--,--.--,--.--,--.--,--.--,--.--,52.49,55.44,--.--,0,0,1.5,1.1,0.8,0,0,0,180.0,0.0,0.0
2025-01-24 12:31:16.854,-2.4,-0.8,33,0.0,0.0,0.0,0.0,0.0,0.029,-0.0,-0.1,582.8,0.300,0.300,0.000,0.0,00:00:09,0.2,0,--.--,--.--,7.2,0,0000:24:22,0,0,0,47.72,4.98,2513,40,79,--.--,--:--:--,1,237.66,12:31:16,24/01/2025,7.02,--.--,--.--,--.--,--.--,--.--,--.--,--.--,--.--,--.--,--.--,100.00,0,0.000,0.000,0.000,0.000,0.000,0.000,0.000,0.000,0.000,0.000,0.000,0.000,false,false,false,false,false,false,false,false,false,false,false,false,--.--,--.--,--.--,--.--,--.--,--.--,--.--,--.--,-23.2556935,-47.2987457,23KKQ 64823 26311,0.5,0.1,198.4,3,28,--.--,--.--,,--.--,--.--,--.--,0,0,--.--,--.--,0,1.1,-0.5,-1.3,-0.0,-0.0,0.0,--.--,--.--,--.--,--.--,--.--,--.--,--.--,--.--,--.--,--.--,--.--,--.--,52.49,55.46,--.--,0,0,1.8,1.1,0.8,0,0,0,180.0,0.0,0.0
2025-01-24 12:31:17.861,-2.5,-0.8,33,0.0,0.0,0.0,0.0,0.0,0.020,-0.0,-0.2,582.8,0.280,0.280,0.000,0.0,00:00:10,0.2,0,--.--,--.--,7.3,0,0000:24:22,0,0,0,47.72,4.98,2514,41,79,--.--,--:--:--,1,237.67,12:31:17,24/01/2025,7.04,--.--,--.--,--.--,--.--,--.--,--.--,--.--,--.--,--.--,--.--,100.00,0,0.000,0.000,0.000,0.000,0.000,0.000,0.000,0.000,0.000,0.000,0.000,0.000,false,false,false,false,false,false,false,false,false,false,false,false,--.--,--.--,--.--,--.--,--.--,--.--,--.--,--.--,-23.2556936,-47.2987458,23KKQ 64823 26311,0.5,0.1,90.0,3,28,--.--,--.--,,--.--,--.--,--.--,0,0,--.--,--.--,0,1.1,-0.5,-1.3,0.0,0.0,0.0,--.--,--.--,--.--,--.--,--.--,--.--,--.--,--.--,--.--,--.--,--.--,--.--,52.50,55.46,--.--,0,0,1.9,1.1,0.8,0,0,0,180.0,0.0,0.0
2025-01-24 12:31:18.869,-2.4,-0.9,33,0.0,0.0,0.0,0.0,0.0,0.042,-0.0,-0.2,582.8,0.270,0.270,0.000,0.0,00:00:11,0.2,0,--.--,--.--,7.3,0,0000:24:22,0,0,0,47.72,3.99,2516,41,79,--.--,--:--:--,1,190.42,12:31:18,24/01/2025,7.02,--.--,--.--,--.--,--.--,--.--,--.--,--.--,--.--,--.--,--.--,100.00,0,0.000,0.000,0.000,0.000,0.000,0.000,0.000,0.000,0.000,0.000,0.000,0.000,false,false,false,false,false,false,false,false,false,false,false,false,--.--,--.--,--.--,--.--,--.--,--.--,--.--,--.--,-23.2556937,-47.2987459,23KKQ 64823 26311,0.5,0.1,135.0,3,28,--.--,--.--,,--.--,--.--,--.--,0,0,--.--,--.--,0,1.0,-0.5,-1.2,-0.0,0.0,0.0,--.--,--.--,--.--,--.--,--.--,--.--,--.--,--.--,--.--,--.--,--.--,--.--,52.50,55.45,--.--,0,0,1.7,1.0,0.8,0,0,0,180.0,0.0,0.0
2025-01-24 12:31:19.850,-2.5,-0.8,34,0.0,0.0,0.0,0.0,0.0,0.032,-0.0,-0.2,582.7,0.250,0.250,0.000,0.0,00:00:12,0.2,0,--.--,--.--,7.3,0,0000:24:22,0,0,0,47.71,4.98,2517,40,79,--.--,--:--:--,1,237.62,12:31:19,24/01/2025,7.04,--.--,--.--,--.--,--.--,--.--,--.--,--.--,--.--,--.--,--.--,100.00,0,0.000,0.000,0.000,0.000,0.000,0.000,0.000,0.000,0.000,0.000,0.000,0.000,false,false,false,false,false,false,false,false,false,false,false,false,--.--,--.--,--.--,--.--,--.--,--.--,--.--,--.--,-23.2556937,-47.2987460,23KKQ 64823 26311,0.5,0.1,45.0,3,28,--.--,--.--,,--.--,--.--,--.--,0,0,--.--,--.--,0,1.0,-0.5,-1.2,0.0,-0.1,0.0,--.--,--.--,--.--,--.--,--.--,--.--,--.--,--.--,--.--,--.--,--.--,--.--,52.52,55.47,--.--,0,0,1.7,1.1,0.9,0,0,0,180.0,0.0,0.0
2025-01-24 12:31:20.861,-2.4,-0.9,33,0.0,0.0,0.0,0.0,0.0,0.020,-0.0,-0.2,582.7,0.240,0.240,0.000,0.0,00:00:13,0.3,0,--.--,--.--,7.2,0,0000:24:22,0,0,0,47.71,4.98,2518,40,79,--.--,--:--:--,1,237.60,12:31:20,24/01/2025,7.04,--.--,--.--,--.--,--.--,--.--,--.--,--.--,--.--,--.--,--.--,100.00,0,0.000,0.000,0.000,0.000,0.000,0.000,0.000,0.000,0.000,0.000,0.000,0.000,false,false,false,false,false,false,false,false,false,false,false,false,--.--,--.--,--.--,--.--,--.--,--.--,--.--,--.--,-23.2556938,-47.2987460,23KKQ 64823 26311,0.5,0.1,76.0,3,28,--.--,--.--,,--.--,--.--,--.--,0,0,--.--,--.--,0,1.0,-0.5,-1.2,-0.0,0.0,0.0,--.--,--.--,--.--,--.--,--.--,--.--,--.--,--.--,--.--,--.--,--.--,--.--,52.50,55.48,--.--,0,0,1.5,0.9,0.6,0,0,0,180.0,0.0,0.0
2025-01-24 12:31:21.854,-2.4,-0.8,33,0.0,0.0,0.0,0.0,0.0,0.033,-0.0,-0.2,582.7,0.230,0.230,0.000,0.0,00:00:14,0.3,0,--.--,--.--,7.2,0,0000:24:22,0,0,0,47.72,4.98,2520,40,79,--.--,--:--:--,1,237.64,12:31:21,24/01/2025,7.05,--.--,--.--,--.--,--.--,--.--,--.--,--.--,--.--,--.--,--.--,100.00,0,0.000,0.000,0.000,0.000,0.000,0.000,0.000,0.000,0.000,0.000,0.000,0.000,false,false,false,false,false,false,false,false,false,false,false,false,--.--,--.--,--.--,--.--,--.--,--.--,--.--,--.--,-23.2556938,-47.2987461,23KKQ 64823 26311,0.5,0.1,90.0,3,28,--.--,--.--,,--.--,--.--,--.--,0,0,--.--,--.--,0,1.0,-0.6,-1.2,-0.0,0.0,0.0,--.--,--.--,--.--,--.--,--.--,--.--,--.--,--.--,--.--,--.--,--.--,--.--,52.55,55.47,--.--,0,0,1.8,1.3,1.0,0,0,0,180.0,0.0,0.0
2025-01-24 12:31:22.851,0.7,0.2,33,0.0,0.0,0.0,0.1,0.3,0.250,0.2,-0.2,582.7,0.320,0.406,0.024,0.0,00:00:15,0.3,0,--.--,--.--,7.1,10,0000:24:22,0,0,0,47.69,9.99,2521,40,79,--.--,--:--:--,1,476.46,12:31:22,24/01/2025,7.10,--.--,--.--,--.--,--.--,--.--,--.--,--.--,--.--,--.--,--.--,100.00,0,0.000,0.000,0.000,0.000,0.000,0.000,0.000,0.000,0.000,0.000,0.000,0.000,false,false,false,false,false,false,false,false,false,false,false,false,--.--,--.--,--.--,--.--,--.--,--.--,--.--,--.--,-23.2556938,-47.2987461,23KKQ 64823 26311,0.5,0.1,90.0,3,28,--.--,--.--,,--.--,--.--,--.--,0,0,--.--,--.--,0,1.0,-0.6,-1.2,0.0,-0.0,-0.3,--.--,--.--,--.--,--.--,--.--,--.--,--.--,--.--,--.--,--.--,--.--,--.--,52.52,55.52,--.--,0,0,1.8,2.6,4.5,0,0,0,180.0,0.0,0.0
2025-01-24 12:31:23.869,-1.0,-1.6,34,0.0,0.0,0.0,0.1,0.1,0.094,0.1,-0.0,582.9,0.410,0.529,0.053,0.0,00:00:16,0.4,0,--.--,--.--,7.3,11,0000:24:22,0,0,0,47.43,33.98,2523,40,79,--.--,--:--:--,1,1611.71,12:31:23,24/01/2025,10.13,--.--,--.--,--.--,--.--,--.--,--.--,--.--,--.--,--.--,--.--,100.00,0,0.000,0.000,0.000,0.000,0.000,0.000,0.000,0.000,0.000,0.000,0.000,0.000,false,false,false,false,false,false,false,false,false,false,false,false,--.--,--.--,--.--,--.--,--.--,--.--,--.--,--.--,-23.2556945,-47.2987467,23KKQ 64823 26311,0.5,0.1,149.3,3,28,--.--,--.--,,--.--,--.--,--.--,0,0,--.--,--.--,0,0.9,-0.6,-1.4,-0.1,0.0,-0.0,--.--,--.--,--.--,--.--,--.--,--.--,--.--,--.--,--.--,--.--,--.--,--.--,52.53,55.48,--.--,0,0,1.0,2.6,4.8,0,0,0,180.0,0.0,0.0
2025-01-24 12:31:24.864,-0.5,-1.2,34,0.0,0.0,0.0,0.1,0.1,0.089,-0.0,-0.0,582.9,0.410,0.466,0.035,0.0,00:00:17,0.3,0,--.--,--.--,7.2,11,0000:24:22,0,0,0,47.31,37.98,2534,40,78,--.--,--:--:--,1,1796.72,12:31:24,24/01/2025,10.31,--.--,--.--,--.--,--.--,--.--,--.--,--.--,--.--,--.--,--.--,100.00,0,0.000,0.000,0.000,0.000,0.000,0.000,0.000,0.000,0.000,0.000,0.000,0.000,false,false,false,false,false,false,false,false,false,false,false,false,--.--,--.--,--.--,--.--,--.--,--.--,--.--,--.--,-23.2556949,-47.2987471,23KKQ 64823 26311,0.6,0.1,16.3,3,27,--.--,--.--,,--.--,--.--,--.--,0,0,--.--,--.--,0,0.9,-0.6,-1.4,0.1,0.0,0.0,--.--,--.--,--.--,--.--,--.--,--.--,--.--,--.--,--.--,--.--,--.--,--.--,52.57,55.50,--.--,0,0,1.1,2.1,4.2,0,0,0,180.0,0.0,0.0
2025-01-24 12:31:25.875,-0.1,-0.8,34,0.0,0.0,0.0,0.0,0.1,0.060,0.0,-0.0,582.9,0.400,0.408,0.041,0.0,00:00:18,0.3,0,--.--,--.--,7.2,11,0000:24:22,0,0,0,47.28,37.98,2545,40,78,--.--,--:--:--,1,1795.85,12:31:25,24/01/2025,13.54,--.--,--.--,--.--,--.--,--.--,--.--,--.--,--.--,--.--,--.--,100.00,0,0.000,0.000,0.000,0.000,0.000,0.000,0.000,0.000,0.000,0.000,0.000,0.000,false,false,false,false,false,false,false,false,false,false,false,false,--.--,--.--,--.--,--.--,--.--,--.--,--.--,--.--,-23.2556947,-47.2987477,23KKQ 64823 26311,0.5,0.1,12.6,3,28,--.--,--.--,,--.--,--.--,--.--,0,0,--.--,--.--,0,1.0,-0.6,-1.4,0.1,-0.0,0.0,--.--,--.--,--.--,--.--,--.--,--.--,--.--,--.--,--.--,--.--,--.--,--.--,52.54,55.52,--.--,0,0,1.1,1.7,3.7,0,0,0,180.0,0.0,0.0
2025-01-24 12:31:26.865,0.2,-0.6,34,0.0,0.0,0.0,0.1,0.1,0.142,0.1,-0.0,582.9,0.450,0.421,0.042,0.0,00:00:19,0.3,0,--.--,--.--,7.2,12,0000:24:22,0,0,0,47.26,36.98,2555,40,78,--.--,--:--:--,1,1747.64,12:31:26,24/01/2025,12.40,--.--,--.--,--.--,--.--,--.--,--.--,--.--,--.--,--.--,--.--,100.00,0,0.000,0.000,0.000,0.000,0.000,0.000,0.000,0.000,0.000,0.000,0.000,0.000,false,false,false,false,false,false,false,false,false,false,false,false,--.--,--.--,--.--,--.--,--.--,--.--,--.--,--.--,-23.2556945,-47.2987479,23KKQ 64823 26311,0.5,0.1,0.0,3,28,--.--,--.--,,--.--,--.--,--.--,0,0,--.--,--.--,0,1.0,-0.6,-1.4,0.0,0.0,-0.1,--.--,--.--,--.--,--.--,--.--,--.--,--.--,--.--,--.--,--.--,--.--,--.--,52.52,55.52,--.--,0,0,1.0,3.0,3.7,0,0,0,180.0,0.0,0.0
2025-01-24 12:31:27.869,-0.1,-0.9,34,0.0,0.0,0.0,0.0,0.1,0.111,0.1,0.1,583.0,0.560,0.501,0.019,0.0,00:00:20,0.3,0,--.--,--.--,7.2,11,0000:24:22,0,0,0,47.18,39.98,2566,40,78,--.--,--:--:--,1,1886.14,12:31:27,24/01/2025,21.18,--.--,--.--,--.--,--.--,--.--,--.--,--.--,--.--,--.--,--.--,100.00,0,0.000,0.000,0.000,0.000,0.000,0.000,0.000,0.000,0.000,0.000,0.000,0.000,false,false,false,false,false,false,false,false,false,false,false,false,--.--,--.--,--.--,--.--,--.--,--.--,--.--,--.--,-23.2556940,-47.2987481,23KKQ 64823 26311,0.5,0.1,48.6,3,28,--.--,--.--,,--.--,--.--,--.--,0,0,--.--,--.--,0,1.0,-0.6,-1.5,0.0,0.0,-0.2,--.--,--.--,--.--,--.--,--.--,--.--,--.--,--.--,--.--,--.--,--.--,--.--,52.50,55.53,--.--,0,0,1.4,3.1,4.0,0,0,0,180.0,0.0,0.0
2025-01-24 12:31:28.869,0.2,-1.2,33,0.0,0.0,0.0,0.0,0.2,0.155,0.2,0.2,583.1,0.620,0.541,0.052,0.0,00:00:21,0.3,0,--.--,--.--,7.2,12,0000:24:22,0,0,0,47.14,39.98,2578,40,78,--.--,--:--:--,1,1884.78,12:31:28,24/01/2025,8.21,--.--,--.--,--.--,--.--,--.--,--.--,--.--,--.--,--.--,--.--,100.00,0,0.000,0.000,0.000,0.000,0.000,0.000,0.000,0.000,0.000,0.000,0.000,0.000,false,false,false,false,false,false,false,false,false,false,false,false,--.--,--.--,--.--,--.--,--.--,--.--,--.--,--.--,-23.2556935,-47.2987478,23KKQ 64823 26311,0.5,0.1,21.8,3,28,--.--,--.--,,--.--,--.--,--.--,0,0,--.--,--.--,0,1.0,-0.6,-1.6,0.0,-0.0,-0.1,--.--,--.--,--.--,--.--,--.--,--.--,--.--,--.--,--.--,--.--,--.--,--.--,52.57,55.53,--.--,0,0,1.1,1.9,3.7,0,0,0,180.0,0.0,0.0
2025-01-24 12:31:29.864,0.6,-0.5,34,0.0,0.0,0.0,0.1,0.1,0.105,0.1,0.2,583.2,0.680,0.610,0.051,0.0,00:00:22,0.3,0,--.--,--.--,7.1,13,0000:24:22,0,0,0,47.13,41.99,2589,40,78,--.--,--:--:--,1,1978.99,12:31:29,24/01/2025,16.34,--.--,--.--,--.--,--.--,--.--,--.--,--.--,--.--,--.--,--.--,100.00,0,0.000,0.000,0.000,0.000,0.000,0.000,0.000,0.000,0.000,0.000,0.000,0.000,false,false,false,false,false,false,false,false,false,false,false,false,--.--,--.--,--.--,--.--,--.--,--.--,--.--,--.--,-23.2556934,-47.2987477,23KKQ 64823 26311,0.5,0.1,65.5,3,28,--.--,--.--,,--.--,--.--,--.--,0,0,--.--,--.--,0,1.0,-0.6,-1.7,0.0,0.1,-0.1,--.--,--.--,--.--,--.--,--.--,--.--,--.--,--.--,--.--,--.--,--.--,--.--,52.57,55.53,--.--,0,0,0.9,2.1,2.9,0,0,0,180.0,0.0,0.0
2025-01-24 12:31:30.865,-0.2,-1.1,34,0.0,0.0,0.0,0.0,0.1,0.078,0.1,0.2,583.2,0.690,0.609,0.023,0.0,00:00:23,0.3,0,--.--,--.--,6.9,12,0000:24:22,0,0,0,47.09,39.98,2601,40,78,--.--,--:--:--,1,1882.82,12:31:30,24/01/2025,25.99,--.--,--.--,--.--,--.--,--.--,--.--,--.--,--.--,--.--,--.--,100.00,0,0.000,0.000,0.000,0.000,0.000,0.000,0.000,0.000,0.000,0.000,0.000,0.000,false,false,false,false,false,false,false,false,false,false,false,false,--.--,--.--,--.--,--.--,--.--,--.--,--.--,--.--,-23.2556935,-47.2987478,23KKQ 64823 26311,0.5,0.1,107.0,3,28,--.--,--.--,,--.--,--.--,--.--,0,0,--.--,--.--,0,1.0,-0.6,-1.7,-0.0,0.0,-0.0,--.--,--.--,--.--,--.--,--.--,--.--,--.--,--.--,--.--,--.--,--.--,--.--,52.54,55.47,--.--,0,0,1.4,2.5,4.3,0,0,0,180.0,0.0,0.0
2025-01-24 12:31:31.865,0.8,-1.0,34,0.0,0.0,0.0,0.0,0.1,0.063,0.1,0.2,583.2,0.680,0.590,0.049,0.0,00:00:24,0.3,0,--.--,--.--,7.0,12,0000:24:22,0,0,0,47.04,41.99,2613,40,78,--.--,--:--:--,1,1975.25,12:31:31,24/01/2025,24.38,--.--,--.--,--.--,--.--,--.--,--.--,--.--,--.--,--.--,--.--,100.00,0,0.000,0.000,0.000,0.000,0.000,0.000,0.000,0.000,0.000,0.000,0.000,0.000,false,false,false,false,false,false,false,false,false,false,false,false,--.--,--.--,--.--,--.--,--.--,--.--,--.--,--.--,-23.2556934,-47.2987472,23KKQ 64823 26311,0.5,0.1,21.3,3,28,--.--,--.--,,--.--,--.--,--.--,0,0,--.--,--.--,0,1.0,-0.6,-1.7,0.0,0.0,-0.1,--.--,--.--,--.--,--.--,--.--,--.--,--.--,--.--,--.--,--.--,--.--,--.--,52.58,55.52,--.--,0,0,1.0,3.2,5.1,0,0,0,180.0,0.0,0.0
2025-01-24 12:31:32.867,0.5,-1.6,34,0.0,0.0,0.0,0.1,0.1,0.085,0.0,0.2,583.2,0.680,0.587,0.039,0.0,00:00:25,0.3,0,--.--,--.--,6.5,12,0000:24:22,0,0,0,47.03,40.99,2624,40,78,--.--,--:--:--,1,1927.64,12:31:32,24/01/2025,26.01,--.--,--.--,--.--,--.--,--.--,--.--,--.--,--.--,--.--,--.--,100.00,0,0.000,0.000,0.000,0.000,0.000,0.000,0.000,0.000,0.000,0.000,0.000,0.000,false,false,false,false,false,false,false,false,false,false,false,false,--.--,--.--,--.--,--.--,--.--,--.--,--.--,--.--,-23.2556931,-47.2987470,23KKQ 64823 26311,0.5,0.1,122.0,3,28,--.--,--.--,,--.--,--.--,--.--,0,0,--.--,--.--,0,1.0,-0.6,-1.7,-0.0,0.0,-0.0,--.--,--.--,--.--,--.--,--.--,--.--,--.--,--.--,--.--,--.--,--.--,--.--,52.57,55.51,--.--,0,0,1.1,2.5,4.2,0,0,0,180.0,0.0,0.0
2025-01-24 12:31:33.859,0.2,-0.7,34,0.0,0.0,0.0,0.0,0.1,0.052,0.0,0.2,583.2,0.690,0.610,0.004,0.0,00:00:26,0.3,0,--.--,--.--,6.2,12,0000:24:22,0,0,0,46.99,41.99,2637,40,78,--.--,--:--:--,1,1973.11,12:31:33,24/01/2025,25.17,--.--,--.--,--.--,--.--,--.--,--.--,--.--,--.--,--.--,--.--,100.00,0,0.000,0.000,0.000,0.000,0.000,0.000,0.000,0.000,0.000,0.000,0.000,0.000,false,false,false,false,false,false,false,false,false,false,false,false,--.--,--.--,--.--,--.--,--.--,--.--,--.--,--.--,-23.2556930,-47.2987465,23KKQ 64823 26311,0.5,0.1,83.5,3,28,--.--,--.--,,--.--,--.--,--.--,0,0,--.--,--.--,0,1.0,-0.6,-1.7,0.0,0.1,-0.1,--.--,--.--,--.--,--.--,--.--,--.--,--.--,--.--,--.--,--.--,--.--,--.--,52.53,55.53,--.--,0,0,1.5,3.4,4.2,0,0,0,180.0,0.0,0.0
2025-01-24 12:31:34.862,0.3,-1.0,34,0.0,0.0,0.0,0.0,0.2,0.192,-0.2,0.2,583.1,0.660,0.617,0.019,0.0,00:00:27,0.3,0,--.--,--.--,6.1,11,0000:24:22,0,0,0,46.97,41.99,2649,40,78,--.--,--:--:--,1,1972.31,12:31:34,24/01/2025,26.07,--.--,--.--,--.--,--.--,--.--,--.--,--.--,--.--,--.--,--.--,100.00,0,0.000,0.000,0.000,0.000,0.000,0.000,0.000,0.000,0.000,0.000,0.000,0.000,false,false,false,false,false,false,false,false,false,false,false,false,--.--,--.--,--.--,--.--,--.--,--.--,--.--,--.--,-23.2556928,-47.2987459,23KKQ 64823 26311,0.5,0.1,82.0,3,28,--.--,--.--,,--.--,--.--,--.--,0,0,--.--,--.--,0,1.0,-0.5,-1.7,0.0,0.0,-0.0,--.--,--.--,--.--,--.--,--.--,--.--,--.--,--.--,--.--,--.--,--.--,--.--,52.55,55.53,--.--,0,0,1.7,2.0,5.1,0,0,0,180.0,0.0,0.0
2025-01-24 12:31:35.854,-0.3,-1.0,34,0.0,0.0,0.0,0.1,0.1,0.087,-0.0,0.1,583.0,0.560,0.544,0.013,0.0,00:00:28,0.2,0,--.--,--.--,6.3,11,0000:24:22,0,0,0,46.94,44.99,2661,40,78,--.--,--:--:--,1,2111.79,12:31:35,24/01/2025,26.37,--.--,--.--,--.--,--.--,--.--,--.--,--.--,--.--,--.--,--.--,100.00,0,0.000,0.000,0.000,0.000,0.000,0.000,0.000,0.000,0.000,0.000,0.000,0.000,false,false,false,false,false,false,false,false,false,false,false,false,--.--,--.--,--.--,--.--,--.--,--.--,--.--,--.--,-23.2556925,-47.2987452,23KKQ 64823 26311,0.5,0.1,245.0,3,28,--.--,--.--,,--.--,--.--,--.--,0,0,--.--,--.--,0,1.0,-0.5,-1.5,-0.0,-0.0,0.0,--.--,--.--,--.--,--.--,--.--,--.--,--.--,--.--,--.--,--.--,--.--,--.--,52.57,55.52,--.--,0,0,1.8,2.9,4.4,0,0,0,180.0,0.0,0.0
2025-01-24 12:31:36.863,1.3,-1.2,33,0.0,0.0,0.0,0.0,0.0,0.046,-0.0,-0.0,582.9,0.410,0.404,0.065,0.0,00:00:29,0.3,0,--.--,--.--,6.4,12,0000:24:22,0,0,0,46.93,43.99,2668,40,77,--.--,--:--:--,1,2064.49,12:31:36,24/01/2025,26.04,--.--,--.--,--.--,--.--,--.--,--.--,--.--,--.--,--.--,--.--,100.00,0,0.000,0.000,0.000,0.000,0.000,0.000,0.000,0.000,0.000,0.000,0.000,0.000,false,false,false,false,false,false,false,false,false,false,false,false,--.--,--.--,--.--,--.--,--.--,--.--,--.--,--.--,-23.2556925,-47.2987451,23KKQ 64823 26311,0.5,0.1,276.9,3,28,--.--,--.--,,--.--,--.--,--.--,0,0,--.--,--.--,0,1.0,-0.6,-1.4,0.0,-0.1,0.2,--.--,--.--,--.--,--.--,--.--,--.--,--.--,--.--,--.--,--.--,--.--,--.--,52.55,55.53,--.--,0,0,1.7,4.7,4.9,0,0,0,180.0,0.0,0.0
2025-01-24 12:31:37.867,0.2,-0.4,33,0.0,0.0,0.0,0.1,0.2,0.185,-0.2,-0.1,582.9,0.370,0.414,0.024,0.0,00:00:30,0.2,0,--.--,--.--,6.6,11,0000:24:22,0,0,0,46.92,43.99,2680,40,77,--.--,--:--:--,1,2063.88,12:31:37,24/01/2025,25.49,--.--,--.--,--.--,--.--,--.--,--.--,--.--,--.--,--.--,--.--,100.00,0,0.000,0.000,0.000,0.000,0.000,0.000,0.000,0.000,0.000,0.000,0.000,0.000,false,false,false,false,false,false,false,false,false,false,false,false,--.--,--.--,--.--,--.--,--.--,--.--,--.--,--.--,-23.2556923,-47.2987446,23KKQ 64823 26311,0.5,0.1,92.8,3,28,--.--,--.--,,--.--,--.--,--.--,0,0,--.--,--.--,0,1.0,-0.6,-1.4,-0.0,0.1,0.0,--.--,--.--,--.--,--.--,--.--,--.--,--.--,--.--,--.--,--.--,--.--,--.--,52.58,55.54,--.--,0,0,1.6,2.7,5.3,0,0,0,180.0,0.0,0.0
2025-01-24 12:31:38.864,0.4,-0.6,33,0.0,0.0,0.0,0.0,0.0,0.037,-0.0,-0.2,582.8,0.270,0.313,0.040,0.0,00:00:31,0.2,0,--.--,--.--,6.8,12,0000:24:22,0,0,0,46.91,38.98,2693,40,77,--.--,--:--:--,1,1828.63,12:31:38,24/01/2025,26.12,--.--,--.--,--.--,--.--,--.--,--.--,--.--,--.--,--.--,--.--,100.00,0,0.000,0.000,0.000,0.000,0.000,0.000,0.000,0.000,0.000,0.000,0.000,0.000,false,false,false,false,false,false,false,false,false,false,false,false,--.--,--.--,--.--,--.--,--.--,--.--,--.--,--.--,-23.2556924,-47.2987444,23KKQ 64823 26311,0.5,0.1,127.6,3,28,--.--,--.--,,--.--,--.--,--.--,0,0,--.--,--.--,0,1.0,-0.5,-1.2,-0.0,-0.0,0.1,--.--,--.--,--.--,--.--,--.--,--.--,--.--,--.--,--.--,--.--,--.--,--.--,52.63,55.53,--.--,0,0,1.5,3.2,3.6,0,0,0,180.0,0.0,0.0
2025-01-24 12:31:39.862,0.5,-0.9,33,0.0,0.0,0.0,0.0,0.1,0.062,-0.0,-0.1,582.8,0.300,0.372,0.024,0.0,00:00:32,0.2,0,--.--,--.--,6.8,12,0000:24:22,0,0,0,46.88,42.99,2704,40,77,--.--,--:--:--,1,2015.59,12:31:39,24/01/2025,25.18,--.--,--.--,--.--,--.--,--.--,--.--,--.--,--.--,--.--,--.--,100.00,0,0.000,0.000,0.000,0.000,0.000,0.000,0.000,0.000,0.000,0.000,0.000,0.000,false,false,false,false,false,false,false,false,false,false,false,false,--.--,--.--,--.--,--.--,--.--,--.--,--.--,--.--,-23.2556923,-47.2987434,23KKQ 64823 26311,0.5,0.1,261.7,3,28,--.--,--.--,,--.--,--.--,--.--,0,0,--.--,--.--,0,1.0,-0.5,-1.3,0.0,-0.0,0.0,--.--,--.--,--.--,--.--,--.--,--.--,--.--,--.--,--.--,--.--,--.--,--.--,52.63,55.52,--.--,0,0,2.3,2.2,3.4,0,0,0,180.0,0.0,0.0
2025-01-24 12:31:40.864,0.9,-0.3,34,0.0,0.0,0.0,0.0,0.1,0.067,-0.1,-0.1,582.8,0.310,0.390,0.043,0.0,00:00:33,0.2,0,--.--,--.--,6.9,12,0000:24:22,0,0,0,46.88,40.99,2716,40,77,--.--,--:--:--,1,1921.61,12:31:40,24/01/2025,23.40,--.--,--.--,--.--,--.--,--.--,--.--,--.--,--.--,--.--,--.--,100.00,0,0.000,0.000,0.000,0.000,0.000,0.000,0.000,0.000,0.000,0.000,0.000,0.000,false,false,false,false,false,false,false,false,false,false,false,false,--.--,--.--,--.--,--.--,--.--,--.--,--.--,--.--,-23.2556920,-47.2987431,23KKQ 64823 26311,0.5,0.1,303.7,3,28,--.--,--.--,,--.--,--.--,--.--,0,0,--.--,--.--,0,1.0,-0.5,-1.3,0.0,-0.0,0.1,--.--,--.--,--.--,--.--,--.--,--.--,--.--,--.--,--.--,--.--,--.--,--.--,52.66,55.52,--.--,0,0,2.1,4.0,4.9,0,0,0,180.0,0.0,0.0
2025-01-24 12:31:41.866,0.5,-0.6,34,0.0,0.0,0.0,0.1,0.1,0.086,-0.1,-0.1,582.8,0.330,0.434,0.028,0.0,00:00:34,0.2,0,--.--,--.--,7.1,12,0000:24:22,0,0,0,46.84,42.99,2728,40,77,--.--,--:--:--,1,2013.78,12:31:41,24/01/2025,26.08,--.--,--.--,--.--,--.--,--.--,--.--,--.--,--.--,--.--,--.--,100.00,0,0.000,0.000,0.000,0.000,0.000,0.000,0.000,0.000,0.000,0.000,0.000,0.000,false,false,false,false,false,false,false,false,false,false,false,false,--.--,--.--,--.--,--.--,--.--,--.--,--.--,--.--,-23.2556918,-47.2987433,23KKQ 64823 26311,0.5,0.1,199.7,3,28,--.--,--.--,,--.--,--.--,--.--,0,0,--.--,--.--,0,1.0,-0.6,-1.3,-0.0,-0.0,0.1,--.--,--.--,--.--,--.--,--.--,--.--,--.--,--.--,--.--,--.--,--.--,--.--,52.59,55.52,--.--,0,0,1.6,1.9,3.8,0,0,0,180.0,0.0,0.0
2025-01-24 12:31:42.867,0.4,-0.4,33,0.0,0.0,0.0,0.0,0.0,0.050,-0.0,-0.1,582.8,0.370,0.511,0.022,0.0,00:00:35,0.3,0,--.--,--.--,7.2,11,0000:24:22,0,0,0,46.83,41.99,2740,40,77,--.--,--:--:--,1,1966.35,12:31:42,24/01/2025,14.58,--.--,--.--,--.--,--.--,--.--,--.--,--.--,--.--,--.--,--.--,100.00,0,0.000,0.000,0.000,0.000,0.000,0.000,0.000,0.000,0.000,0.000,0.000,0.000,false,false,false,false,false,false,false,false,false,false,false,false,--.--,--.--,--.--,--.--,--.--,--.--,--.--,--.--,-23.2556926,-47.2987432,23KKQ 64823 26311,0.5,0.1,153.4,3,28,--.--,--.--,,--.--,--.--,--.--,0,0,--.--,--.--,0,1.0,-0.5,-1.3,-0.0,0.0,0.0,--.--,--.--,--.--,--.--,--.--,--.--,--.--,--.--,--.--,--.--,--.--,--.--,52.61,55.52,--.--,0,0,1.4,1.7,3.5,0,0,0,180.0,0.0,0.0
2025-01-24 12:31:43.867,0.5,-0.7,33,0.0,0.0,0.0,0.0,0.1,0.088,-0.1,-0.1,582.9,0.390,0.549,0.049,0.0,00:00:36,0.3,0,--.--,--.--,7.3,11,0000:24:22,0,0,0,46.84,39.98,2752,40,77,--.--,--:--:--,1,1872.70,12:31:43,24/01/2025,11.44,--.--,--.--,--.--,--.--,--.--,--.--,--.--,--.--,--.--,--.--,100.00,0,0.000,0.000,0.000,0.000,0.000,0.000,0.000,0.000,0.000,0.000,0.000,0.000,false,false,false,false,false,false,false,false,false,false,false,false,--.--,--.--,--.--,--.--,--.--,--.--,--.--,--.--,-23.2556936,-47.2987429,23KKQ 64823 26311,0.5,0.1,200.0,3,28,--.--,--.--,,--.--,--.--,--.--,0,0,--.--,--.--,0,1.0,-0.5,-1.4,-0.0,-0.0,0.1,--.--,--.--,--.--,--.--,--.--,--.--,--.--,--.--,--.--,--.--,--.--,--.--,52.62,55.59,--.--,0,0,2.3,2.1,4.7,0,0,0,180.0,0.0,0.0
2025-01-24 12:31:44.866,-0.3,-0.7,33,0.0,0.0,0.0,0.0,0.1,0.078,-0.1,-0.1,582.9,0.380,0.537,0.086,0.0,00:00:37,0.3,0,--.--,--.--,7.3,11,0000:24:22,0,0,0,46.84,39.98,2764,40,77,--.--,--:--:--,1,1872.50,12:31:44,24/01/2025,19.21,--.--,--.--,--.--,--.--,--.--,--.--,--.--,--.--,--.--,--.--,100.00,0,0.000,0.000,0.000,0.000,0.000,0.000,0.000,0.000,0.000,0.000,0.000,0.000,false,false,false,false,false,false,false,false,false,false,false,false,--.--,--.--,--.--,--.--,--.--,--.--,--.--,--.--,-23.2556940,-47.2987426,23KKQ 64823 26311,0.5,0.1,225.0,3,28,--.--,--.--,,--.--,--.--,--.--,0,0,--.--,--.--,0,1.0,-0.5,-1.4,-0.0,-0.0,0.1,--.--,--.--,--.--,--.--,--.--,--.--,--.--,--.--,--.--,--.--,--.--,--.--,52.65,55.54,--.--,0,0,1.2,1.6,3.9,0,0,0,180.0,0.0,0.0
2025-01-24 12:31:45.862,0.2,-1.0,33,0.0,0.0,0.0,0.1,0.1,0.076,0.0,-0.0,582.9,0.440,0.580,0.059,0.0,00:00:38,0.3,0,--.--,--.--,7.4,12,0000:24:22,0,0,0,46.85,37.98,2775,40,77,--.--,--:--:--,1,1779.21,12:31:45,24/01/2025,15.99,--.--,--.--,--.--,--.--,--.--,--.--,--.--,--.--,--.--,--.--,100.00,0,0.000,0.000,0.000,0.000,0.000,0.000,0.000,0.000,0.000,0.000,0.000,0.000,false,false,false,false,false,false,false,false,false,false,false,false,--.--,--.--,--.--,--.--,--.--,--.--,--.--,--.--,-23.2556945,-47.2987431,23KKQ 64823 26311,0.5,0.1,280.8,3,28,--.--,--.--,,--.--,--.--,--.--,0,0,--.--,--.--,0,1.0,-0.5,-1.4,0.0,-0.1,-0.0,--.--,--.--,--.--,--.--,--.--,--.--,--.--,--.--,--.--,--.--,--.--,--.--,52.66,55.58,--.--,0,0,1.2,1.7,4.5,0,0,0,180.0,0.0,0.0
2025-01-24 12:31:46.867,0.4,-1.3,33,0.0,0.0,0.0,0.1,0.3,0.259,0.3,0.1,583.0,0.600,0.679,0.025,0.0,00:00:39,0.3,0,--.--,--.--,7.4,10,0000:24:22,0,0,0,46.82,38.98,2786,40,77,--.--,--:--:--,1,1825.12,12:31:46,24/01/2025,13.49,--.--,--.--,--.--,--.--,--.--,--.--,--.--,--.--,--.--,--.--,100.00,0,0.000,0.000,0.000,0.000,0.000,0.000,0.000,0.000,0.000,0.000,0.000,0.000,false,false,false,false,false,false,false,false,false,false,false,false,--.--,--.--,--.--,--.--,--.--,--.--,--.--,--.--,-23.2556946,-47.2987436,23KKQ 64823 26311,0.5,0.1,295.8,3,28,--.--,--.--,,--.--,--.--,--.--,0,0,--.--,--.--,0,1.0,-0.5,-1.5,0.0,-0.0,-0.2,--.--,--.--,--.--,--.--,--.--,--.--,--.--,--.--,--.--,--.--,--.--,--.--,52.69,55.59,--.--,0,0,1.4,2.2,4.2,0,0,0,180.0,0.0,0.0
2025-01-24 12:31:47.865,0.1,-0.5,33,0.0,0.0,0.0,0.0,0.3,0.333,0.3,0.3,583.3,0.760,0.784,0.007,0.0,00:00:40,0.3,0,--.--,--.--,7.3,12,0000:24:22,0,0,0,46.82,38.98,2797,40,77,--.--,--:--:--,1,1824.97,12:31:47,24/01/2025,15.60,--.--,--.--,--.--,--.--,--.--,--.--,--.--,--.--,--.--,--.--,100.00,0,0.000,0.000,0.000,0.000,0.000,0.000,0.000,0.000,0.000,0.000,0.000,0.000,false,false,false,false,false,false,false,false,false,false,false,false,--.--,--.--,--.--,--.--,--.--,--.--,--.--,--.--,-23.2556947,-47.2987442,23KKQ 64823 26311,0.5,0.1,335.4,3,28,--.--,--.--,,--.--,--.--,--.--,0,0,--.--,--.--,0,1.0,-0.6,-1.6,0.1,-0.0,-0.2,--.--,--.--,--.--,--.--,--.--,--.--,--.--,--.--,--.--,--.--,--.--,--.--,52.67,55.56,--.--,0,0,1.5,4.1,4.5,0,0,0,180.0,0.0,0.0
2025-01-24 12:31:48.865,0.6,-0.6,34,0.0,0.0,0.0,0.0,0.3,0.267,0.3,0.4,583.4,0.920,0.907,0.006,0.0,00:00:41,0.3,0,--.--,--.--,7.3,12,0000:24:22,0,0,0,46.79,42.99,2809,40,76,--.--,--:--:--,1,2011.55,12:31:48,24/01/2025,9.46,--.--,--.--,--.--,--.--,--.--,--.--,--.--,--.--,--.--,--.--,100.00,0,0.000,0.000,0.000,0.000,0.000,0.000,0.000,0.000,0.000,0.000,0.000,0.000,false,false,false,false,false,false,false,false,false,false,false,false,--.--,--.--,--.--,--.--,--.--,--.--,--.--,--.--,-23.2556951,-47.2987452,23KKQ 64823 26311,0.6,0.1,38.1,3,27,--.--,--.--,,--.--,--.--,--.--,0,0,--.--,--.--,0,1.0,-0.6,-1.9,0.0,-0.0,-0.0,--.--,--.--,--.--,--.--,--.--,--.--,--.--,--.--,--.--,--.--,--.--,--.--,52.71,55.55,--.--,0,0,1.7,3.1,4.0,0,0,0,180.0,0.0,0.0
2025-01-24 12:31:49.857,-0.2,-0.6,33,0.0,0.0,0.0,0.0,0.3,0.315,0.3,0.8,583.7,1.230,1.212,0.024,0.0,00:00:42,0.3,0,--.--,--.--,7.4,12,0000:24:22,0,0,0,46.78,42.99,2821,40,76,--.--,--:--:--,1,2011.07,12:31:49,24/01/2025,25.14,--.--,--.--,--.--,--.--,--.--,--.--,--.--,--.--,--.--,--.--,100.00,0,0.000,0.000,0.000,0.000,0.000,0.000,0.000,0.000,0.000,0.000,0.000,0.000,false,false,false,false,false,false,false,false,false,false,false,false,--.--,--.--,--.--,--.--,--.--,--.--,--.--,--.--,-23.2556959,-47.2987461,23KKQ 64823 26310,0.6,0.1,0.0,3,27,--.--,--.--,,--.--,--.--,--.--,0,0,--.--,--.--,0,1.0,-0.5,-2.1,-0.0,0.0,-0.3,--.--,--.--,--.--,--.--,--.--,--.--,--.--,--.--,--.--,--.--,--.--,--.--,52.66,55.57,--.--,0,0,0.9,2.3,4.0,0,0,0,180.0,0.0,0.0
2025-01-24 12:31:50.866,0.1,-1.0,34,0.0,0.0,0.0,0.0,0.3,0.303,0.3,1.0,584.0,1.470,1.394,0.041,0.0,00:00:43,0.3,0,--.--,--.--,7.4,12,0000:24:22,0,0,0,46.73,42.99,2834,40,76,--.--,--:--:--,1,2008.97,12:31:50,24/01/2025,26.21,--.--,--.--,--.--,--.--,--.--,--.--,--.--,--.--,--.--,--.--,100.00,0,0.000,0.000,0.000,0.000,0.000,0.000,0.000,0.000,0.000,0.000,0.000,0.000,false,false,false,false,false,false,false,false,false,false,false,false,--.--,--.--,--.--,--.--,--.--,--.--,--.--,--.--,-23.2556963,-47.2987465,23KKQ 64823 26310,0.5,0.1,10.3,3,28,--.--,--.--,,--.--,--.--,--.--,0,0,--.--,--.--,0,1.0,-0.6,-2.4,0.0,0.0,-0.3,--.--,--.--,--.--,--.--,--.--,--.--,--.--,--.--,--.--,--.--,--.--,--.--,52.70,55.58,--.--,0,0,1.2,3.2,5.9,0,0,0,180.0,0.0,0.0
2025-01-24 12:31:51.860,0.1,-0.8,34,0.0,0.0,0.0,0.1,0.4,0.354,0.3,1.2,584.1,1.760,1.660,0.040,0.0,00:00:44,0.3,0,--.--,--.--,7.4,12,0000:24:22,0,0,0,46.72,42.99,2846,40,76,--.--,--:--:--,1,2008.66,12:31:51,24/01/2025,26.17,--.--,--.--,--.--,--.--,--.--,--.--,--.--,--.--,--.--,--.--,100.00,0,0.000,0.000,0.000,0.000,0.000,0.000,0.000,0.000,0.000,0.000,0.000,0.000,false,false,false,false,false,false,false,false,false,false,false,false,--.--,--.--,--.--,--.--,--.--,--.--,--.--,--.--,-23.2556962,-47.2987464,23KKQ 64823 26310,0.5,0.1,14.3,3,28,--.--,--.--,,--.--,--.--,--.--,0,0,--.--,--.--,0,1.0,-0.6,-2.6,0.0,0.0,-0.4,--.--,--.--,--.--,--.--,--.--,--.--,--.--,--.--,--.--,--.--,--.--,--.--,52.72,55.58,--.--,0,0,1.3,3.6,5.0,0,0,0,180.0,0.0,0.0
2025-01-24 12:31:52.867,-2.5,-0.7,34,0.0,0.0,0.0,0.1,0.1,0.109,0.1,1.5,584.4,1.930,1.839,0.000,0.0,00:00:45,0.3,0,--.--,--.--,7.4,12,0000:24:22,0,0,0,46.68,43.99,2858,40,76,--.--,--:--:--,1,2053.59,12:31:52,24/01/2025,27.20,--.--,--.--,--.--,--.--,--.--,--.--,--.--,--.--,--.--,--.--,100.00,0,0.000,0.000,0.000,0.000,0.000,0.000,0.000,0.000,0.000,0.000,0.000,0.000,false,false,false,false,false,false,false,false,false,false,false,false,--.--,--.--,--.--,--.--,--.--,--.--,--.--,--.--,-23.2556956,-47.2987460,23KKQ 64823 26310,0.6,0.1,9.5,3,27,--.--,--.--,,--.--,--.--,--.--,0,0,--.--,--.--,0,1.0,-0.5,-2.9,0.1,-0.0,-0.1,--.--,--.--,--.--,--.--,--.--,--.--,--.--,--.--,--.--,--.--,--.--,--.--,52.66,55.58,--.--,0,0,1.0,3.1,4.0,0,0,0,180.0,0.0,0.0
2025-01-24 12:31:53.865,4.7,-0.2,33,0.0,0.0,0.0,0.8,0.8,0.791,0.0,1.5,584.4,1.920,1.818,0.021,0.0,00:00:46,0.7,0,--.--,--.--,6.8,12,0000:24:22,0,0,0,46.71,42.99,2865,40,76,--.--,--:--:--,1,2008.23,12:31:53,24/01/2025,27.94,--.--,--.--,--.--,--.--,--.--,--.--,--.--,--.--,--.--,--.--,100.00,0,0.000,0.000,0.000,0.000,0.000,0.000,0.000,0.000,0.000,0.000,0.000,0.000,false,false,false,false,false,false,false,false,false,false,false,false,--.--,--.--,--.--,--.--,--.--,--.--,--.--,--.--,-23.2556925,-47.2987493,23KKQ 64823 26311,0.5,0.1,305.6,3,28,--.--,--.--,,--.--,--.--,--.--,0,0,--.--,--.--,0,1.2,-0.8,-2.9,0.5,-0.7,-0.0,--.--,--.--,--.--,--.--,--.--,--.--,--.--,--.--,--.--,--.--,--.--,--.--,52.63,55.58,--.--,0,0,2.5,2.9,6.4,0,0,0,180.0,0.0,0.0
2025-01-24 12:31:54.864,2.8,-0.3,33,0.0,0.0,0.0,0.4,0.4,0.387,0.0,1.5,584.4,1.940,1.862,0.002,0.0,00:00:47,0.8,0,--.--,--.--,6.8,12,0000:24:22,0,0,0,46.67,44.99,2878,40,76,--.--,--:--:--,1,2099.68,12:31:54,24/01/2025,22.91,--.--,--.--,--.--,--.--,--.--,--.--,--.--,--.--,--.--,--.--,100.00,0,0.000,0.000,0.000,0.000,0.000,0.000,0.000,0.000,0.000,0.000,0.000,0.000,false,false,false,false,false,false,false,false,false,false,false,false,--.--,--.--,--.--,--.--,--.--,--.--,--.--,--.--,-23.2556910,-47.2987509,23KKQ 64822 26311,0.5,0.1,125.3,3,28,--.--,--.--,,--.--,--.--,--.--,0,0,--.--,--.--,0,1.5,-1.2,-2.9,-0.1,0.1,-0.0,--.--,--.--,--.--,--.--,--.--,--.--,--.--,--.--,--.--,--.--,--.--,--.--,52.64,55.58,--.--,0,0,1.0,2.1,3.0,0,0,0,180.0,0.0,0.0
2025-01-24 12:31:55.876,-1.4,-0.3,33,0.0,0.0,0.0,0.3,0.3,0.276,0.0,1.5,584.5,1.980,1.936,0.026,0.0,00:00:48,0.4,0,--.--,--.--,7.2,12,0000:24:22,0,0,0,46.66,44.99,2890,40,76,--.--,--:--:--,1,2099.19,12:31:55,24/01/2025,24.47,--.--,--.--,--.--,--.--,--.--,--.--,--.--,--.--,--.--,--.--,100.00,0,0.000,0.000,0.000,0.000,0.000,0.000,0.000,0.000,0.000,0.000,0.000,0.000,false,false,false,false,false,false,false,false,false,false,false,false,--.--,--.--,--.--,--.--,--.--,--.--,--.--,--.--,-23.2556923,-47.2987482,23KKQ 64823 26311,0.5,0.1,131.9,3,28,--.--,--.--,,--.--,--.--,--.--,0,0,--.--,--.--,0,1.2,-0.8,-2.9,-0.2,0.3,-0.0,--.--,--.--,--.--,--.--,--.--,--.--,--.--,--.--,--.--,--.--,--.--,--.--,52.70,55.63,--.--,0,0,2.4,2.4,5.1,0,0,0,180.0,0.0,0.0
2025-01-24 12:31:56.873,-0.8,-0.6,47,0.0,0.0,0.0,0.1,0.1,0.103,0.0,1.5,584.5,1.980,1.941,0.029,0.0,00:00:49,0.4,0,--.--,--.--,7.2,12,0000:24:22,0,0,0,46.66,42.99,2903,40,76,--.--,--:--:--,1,2005.96,12:31:56,24/01/2025,27.78,--.--,--.--,--.--,--.--,--.--,--.--,--.--,--.--,--.--,--.--,100.00,0,0.000,0.000,0.000,0.000,0.000,0.000,0.000,0.000,0.000,0.000,0.000,0.000,false,false,false,false,false,false,false,false,false,false,false,false,--.--,--.--,--.--,--.--,--.--,--.--,--.--,--.--,-23.2556922,-47.2987481,23KKQ 64823 26311,0.5,0.1,302.4,3,28,--.--,--.--,,--.--,--.--,--.--,0,0,--.--,--.--,0,1.1,-0.7,-3.0,0.0,0.0,-0.0,--.--,--.--,--.--,--.--,--.--,--.--,--.--,--.--,--.--,--.--,--.--,--.--,52.70,55.59,--.--,0,0,0.9,2.0,5.5,0,0,0,180.0,0.0,0.0
2025-01-24 12:31:57.859,1.4,-0.4,62,0.0,0.0,0.0,0.0,0.0,0.046,0.0,1.5,584.5,1.990,1.958,0.011,0.0,00:00:50,0.5,0,--.--,--.--,7.1,12,0000:24:22,0,0,0,46.65,42.99,2915,40,76,--.--,--:--:--,1,2005.48,12:31:57,24/01/2025,27.84,--.--,--.--,--.--,--.--,--.--,--.--,--.--,--.--,--.--,--.--,100.00,0,0.000,0.000,0.000,0.000,0.000,0.000,0.000,0.000,0.000,0.000,0.000,0.000,false,false,false,false,false,false,false,false,false,false,false,false,--.--,--.--,--.--,--.--,--.--,--.--,--.--,--.--,-23.2556910,-47.2987494,23KKQ 64822 26311,0.5,0.1,302.9,3,28,--.--,--.--,,--.--,--.--,--.--,0,0,--.--,--.--,0,1.2,-0.8,-3.0,0.1,-0.1,-0.0,--.--,--.--,--.--,--.--,--.--,--.--,--.--,--.--,--.--,--.--,--.--,--.--,52.69,55.58,--.--,0,0,2.2,2.0,4.4,0,0,0,180.0,0.0,0.0
2025-01-24 12:31:58.864,-0.3,-1.1,78,0.0,0.0,0.0,0.0,0.0,0.030,0.0,1.5,584.5,1.990,1.953,0.026,0.0,00:00:51,0.5,0,--.--,--.--,7.1,12,0000:24:22,0,0,0,46.63,43.99,2927,40,76,--.--,--:--:--,1,2051.30,12:31:58,24/01/2025,26.95,--.--,--.--,--.--,--.--,--.--,--.--,--.--,--.--,--.--,--.--,100.00,0,0.000,0.000,0.000,0.000,0.000,0.000,0.000,0.000,0.000,0.000,0.000,0.000,false,false,false,false,false,false,false,false,false,false,false,false,--.--,--.--,--.--,--.--,--.--,--.--,--.--,--.--,-23.2556908,-47.2987498,23KKQ 64822 26311,0.5,0.1,254.7,3,28,--.--,--.--,,--.--,--.--,--.--,0,0,--.--,--.--,0,1.2,-0.8,-3.0,-0.0,-0.0,-0.0,--.--,--.--,--.--,--.--,--.--,--.--,--.--,--.--,--.--,--.--,--.--,--.--,52.71,55.62,--.--,0,0,1.3,2.8,2.3,0,0,0,180.0,0.0,0.0
2025-01-24 12:31:59.852,0.7,-1.1,96,0.0,0.0,0.0,0.0,0.1,0.053,0.0,1.5,584.5,1.970,1.920,0.014,0.0,00:00:52,0.5,0,--.--,--.--,7.1,12,0000:24:22,0,0,0,46.63,42.99,2940,40,76,--.--,--:--:--,1,2004.45,12:31:59,24/01/2025,16.92,--.--,--.--,--.--,--.--,--.--,--.--,--.--,--.--,--.--,--.--,100.00,0,0.000,0.000,0.000,0.000,0.000,0.000,0.000,0.000,0.000,0.000,0.000,0.000,false,false,false,false,false,false,false,false,false,false,false,false,--.--,--.--,--.--,--.--,--.--,--.--,--.--,--.--,-23.2556902,-47.2987525,23KKQ 64822 26311,0.5,0.1,325.3,3,28,--.--,--.--,,--.--,--.--,--.--,0,0,--.--,--.--,0,1.2,-0.8,-3.0,0.0,0.0,-0.0,--.--,--.--,--.--,--.--,--.--,--.--,--.--,--.--,--.--,--.--,--.--,--.--,52.75,55.63,--.--,0,0,0.9,2.0,4.0,0,0,0,180.0,0.0,0.0
2025-01-24 12:32:00.863,-0.2,-0.6,115,0.0,0.0,0.0,0.0,0.1,0.052,0.0,1.5,584.4,1.920,1.822,0.020,0.0,00:00:53,0.5,0,--.--,--.--,7.1,12,0000:24:22,0,0,0,46.61,42.99,2953,40,76,--.--,--:--:--,1,2003.94,12:32:00,24/01/2025,20.37,--.--,--.--,--.--,--.--,--.--,--.--,--.--,--.--,--.--,--.--,100.00,0,0.000,0.000,0.000,0.000,0.000,0.000,0.000,0.000,0.000,0.000,0.000,0.000,false,false,false,false,false,false,false,false,false,false,false,false,--.--,--.--,--.--,--.--,--.--,--.--,--.--,--.--,-23.2556893,-47.2987527,23KKQ 64822 26311,0.5,0.1,239.9,3,28,--.--,--.--,,--.--,--.--,--.--,0,0,--.--,--.--,0,1.2,-0.8,-2.9,-0.1,0.0,-0.0,--.--,--.--,--.--,--.--,--.--,--.--,--.--,--.--,--.--,--.--,--.--,--.--,52.74,55.59,--.--,0,0,1.4,1.8,4.8,0,0,0,180.0,0.0,0.0
2025-01-24 12:32:01.858,0.1,-0.6,115,0.0,0.0,0.0,0.0,0.1,0.089,0.1,1.4,584.4,1.890,1.757,0.043,0.0,00:00:54,0.5,0,--.--,--.--,7.1,12,0000:24:22,0,0,0,46.60,43.99,2965,40,76,--.--,--:--:--,1,2050.15,12:32:01,24/01/2025,26.79,--.--,--.--,--.--,--.--,--.--,--.--,--.--,--.--,--.--,--.--,100.00,0,0.000,0.000,0.000,0.000,0.000,0.000,0.000,0.000,0.000,0.000,0.000,0.000,false,false,false,false,false,false,false,false,false,false,false,false,--.--,--.--,--.--,--.--,--.--,--.--,--.--,--.--,-23.2556893,-47.2987530,23KKQ 64822 26311,0.5,0.1,121.2,3,28,--.--,--.--,,--.--,--.--,--.--,0,0,--.--,--.--,0,1.2,-0.8,-2.9,-0.0,0.0,-0.1,--.--,--.--,--.--,--.--,--.--,--.--,--.--,--.--,--.--,--.--,--.--,--.--,52.74,55.61,--.--,0,0,1.2,2.5,4.3,0,0,0,180.0,0.0,0.0
2025-01-24 12:32:02.865,0.2,-0.9,118,0.0,0.0,0.0,0.0,0.1,0.120,0.1,1.4,584.3,1.850,1.676,0.061,0.0,00:00:55,0.5,0,--.--,--.--,7.1,12,0000:24:22,0,0,0,46.60,43.99,2977,40,76,--.--,--:--:--,1,2049.89,12:32:02,24/01/2025,26.81,--.--,--.--,--.--,--.--,--.--,--.--,--.--,--.--,--.--,--.--,100.00,0,0.000,0.000,0.000,0.000,0.000,0.000,0.000,0.000,0.000,0.000,0.000,0.000,false,false,false,false,false,false,false,false,false,false,false,false,--.--,--.--,--.--,--.--,--.--,--.--,--.--,--.--,-23.2556894,-47.2987530,23KKQ 64822 26311,0.5,0.1,112.1,3,28,--.--,--.--,,--.--,--.--,--.--,0,0,--.--,--.--,0,1.2,-0.8,-2.8,0.0,0.0,-0.1,--.--,--.--,--.--,--.--,--.--,--.--,--.--,--.--,--.--,--.--,--.--,--.--,52.75,55.63,--.--,0,0,1.7,2.5,7.2,0,0,0,180.0,0.0,0.0
2025-01-24 12:32:03.863,0.2,-0.5,120,0.0,0.0,0.0,0.0,0.1,0.114,0.1,1.4,584.3,1.850,1.675,0.065,0.0,00:00:56,0.5,0,--.--,--.--,7.1,12,0000:24:22,0,0,0,46.58,43.99,2990,40,76,--.--,--:--:--,1,2049.10,12:32:03,24/01/2025,45.31,--.--,--.--,--.--,--.--,--.--,--.--,--.--,--.--,--.--,--.--,100.00,0,0.000,0.000,0.000,0.000,0.000,0.000,0.000,0.000,0.000,0.000,0.000,0.000,false,false,false,false,false,false,false,false,false,false,false,false,--.--,--.--,--.--,--.--,--.--,--.--,--.--,--.--,-23.2556895,-47.2987527,23KKQ 64822 26311,0.5,0.1,87.2,3,28,--.--,--.--,,--.--,--.--,--.--,0,0,--.--,--.--,0,1.2,-0.8,-2.8,-0.0,0.0,-0.1,--.--,--.--,--.--,--.--,--.--,--.--,--.--,--.--,--.--,--.--,--.--,--.--,52.72,55.66,--.--,0,0,1.2,3.3,6.7,0,0,0,180.0,0.0,0.0
2025-01-24 12:32:04.869,0.4,-1.4,120,0.0,0.0,0.0,0.1,0.1,0.107,0.1,1.4,584.3,1.860,1.698,0.049,0.0,00:00:57,0.5,0,--.--,--.--,7.1,12,0000:24:22,0,0,0,46.57,43.99,3003,40,76,--.--,--:--:--,1,2048.79,12:32:04,24/01/2025,53.21,--.--,--.--,--.--,--.--,--.--,--.--,--.--,--.--,--.--,--.--,100.00,0,0.000,0.000,0.000,0.000,0.000,0.000,0.000,0.000,0.000,0.000,0.000,0.000,false,false,false,false,false,false,false,false,false,false,false,false,--.--,--.--,--.--,--.--,--.--,--.--,--.--,--.--,-23.2556900,-47.2987526,23KKQ 64822 26311,0.5,0.1,161.1,3,28,--.--,--.--,,--.--,--.--,--.--,0,0,--.--,--.--,0,1.2,-0.8,-2.8,-0.1,0.0,-0.1,--.--,--.--,--.--,--.--,--.--,--.--,--.--,--.--,--.--,--.--,--.--,--.--,52.70,55.66,--.--,0,0,1.5,1.8,4.0,0,0,0,180.0,0.0,0.0
2025-01-24 12:32:05.873,-0.8,-1.2,121,0.0,0.0,0.0,0.1,0.1,0.108,0.1,1.4,584.4,1.880,1.748,0.046,0.0,00:00:58,0.5,0,--.--,--.--,7.2,12,0000:24:22,0,0,0,46.56,43.99,3016,41,76,--.--,--:--:--,1,2048.35,12:32:05,24/01/2025,53.13,--.--,--.--,--.--,--.--,--.--,--.--,--.--,--.--,--.--,--.--,100.00,0,0.000,0.000,0.000,0.000,0.000,0.000,0.000,0.000,0.000,0.000,0.000,0.000,false,false,false,false,false,false,false,false,false,false,false,false,--.--,--.--,--.--,--.--,--.--,--.--,--.--,--.--,-23.2556909,-47.2987524,23KKQ 64822 26311,0.5,0.1,164.4,3,28,--.--,--.--,,--.--,--.--,--.--,0,0,--.--,--.--,0,1.1,-0.8,-2.9,-0.0,0.1,-0.1,--.--,--.--,--.--,--.--,--.--,--.--,--.--,--.--,--.--,--.--,--.--,--.--,52.74,55.61,--.--,0,0,1.2,2.8,6.7,0,0,0,180.0,0.0,0.0
2025-01-24 12:32:06.860,0.5,-0.4,122,0.0,0.0,0.0,0.1,0.1,0.107,0.1,1.5,584.4,1.950,1.879,0.014,0.0,00:00:59,0.4,0,--.--,--.--,7.2,12,0000:24:22,0,0,0,46.56,43.99,3028,41,76,--.--,--:--:--,1,2048.26,12:32:06,24/01/2025,53.10,--.--,--.--,--.--,--.--,--.--,--.--,--.--,--.--,--.--,--.--,100.00,0,0.000,0.000,0.000,0.000,0.000,0.000,0.000,0.000,0.000,0.000,0.000,0.000,false,false,false,false,false,false,false,false,false,false,false,false,--.--,--.--,--.--,--.--,--.--,--.--,--.--,--.--,-23.2556919,-47.2987517,23KKQ 64822 26311,0.5,0.1,106.4,3,28,--.--,--.--,,--.--,--.--,--.--,0,0,--.--,--.--,0,1.2,-0.8,-2.9,0.1,0.0,-0.1,--.--,--.--,--.--,--.--,--.--,--.--,--.--,--.--,--.--,--.--,--.--,--.--,52.72,55.66,--.--,0,0,1.2,2.6,5.8,0,0,0,180.0,0.0,0.0
2025-01-24 12:32:07.867,0.6,-0.8,122,0.0,0.0,0.0,0.0,0.0,0.036,0.0,1.5,584.5,1.990,1.956,0.021,0.0,00:01:00,0.4,0,--.--,--.--,7.1,12,0000:24:22,0,0,0,46.57,41.99,3040,41,76,--.--,--:--:--,1,1955.35,12:32:07,24/01/2025,53.07,--.--,--.--,--.--,--.--,--.--,--.--,--.--,--.--,--.--,--.--,100.00,0,0.000,0.000,0.000,0.000,0.000,0.000,0.000,0.000,0.000,0.000,0.000,0.000,false,false,false,false,false,false,false,false,false,false,false,false,--.--,--.--,--.--,--.--,--.--,--.--,--.--,--.--,-23.2556919,-47.2987510,23KKQ 64822 26311,0.5,0.1,31.3,3,28,--.--,--.--,,--.--,--.--,--.--,0,0,--.--,--.--,0,1.2,-0.8,-3.0,-0.0,-0.0,-0.0,--.--,--.--,--.--,--.--,--.--,--.--,--.--,--.--,--.--,--.--,--.--,--.--,52.74,55.64,--.--,0,0,2.1,4.2,5.9,0,0,0,180.0,0.0,0.0
2025-01-24 12:32:08.863,-0.2,-0.9,122,0.0,0.0,0.0,0.0,0.0,0.042,0.0,1.6,584.5,2.010,2.002,0.023,0.0,00:01:01,0.5,0,--.--,--.--,7.1,12,0000:24:22,0,0,0,46.53,44.99,3052,41,76,--.--,--:--:--,1,2093.43,12:32:08,24/01/2025,53.06,--.--,--.--,--.--,--.--,--.--,--.--,--.--,--.--,--.--,--.--,100.00,0,0.000,0.000,0.000,0.000,0.000,0.000,0.000,0.000,0.000,0.000,0.000,0.000,false,false,false,false,false,false,false,false,false,false,false,false,--.--,--.--,--.--,--.--,--.--,--.--,--.--,--.--,-23.2556919,-47.2987509,23KKQ 64822 26311,0.5,0.1,319.6,3,28,--.--,--.--,,--.--,--.--,--.--,0,0,--.--,--.--,0,1.2,-0.8,-3.0,-0.0,-0.0,-0.0,--.--,--.--,--.--,--.--,--.--,--.--,--.--,--.--,--.--,--.--,--.--,--.--,52.70,55.67,--.--,0,0,1.3,2.4,3.4,0,0,0,180.0,0.0,0.0
2025-01-24 12:32:09.834,-0.1,-1.2,122,0.0,0.0,0.0,0.0,0.0,0.039,-0.0,1.6,584.5,2.050,2.075,0.042,0.0,00:01:02,0.5,0,--.--,--.--,7.1,12,0000:24:22,0,0,0,46.54,42.99,3066,41,76,--.--,--:--:--,1,2000.97,12:32:09,24/01/2025,53.11,--.--,--.--,--.--,--.--,--.--,--.--,--.--,--.--,--.--,--.--,100.00,0,0.000,0.000,0.000,0.000,0.000,0.000,0.000,0.000,0.000,0.000,0.000,0.000,false,false,false,false,false,false,false,false,false,false,false,false,--.--,--.--,--.--,--.--,--.--,--.--,--.--,--.--,-23.2556926,-47.2987509,23KKQ 64822 26311,0.5,0.1,205.5,3,28,--.--,--.--,,--.--,--.--,--.--,0,0,--.--,--.--,0,1.1,-0.8,-3.0,0.0,0.0,-0.0,--.--,--.--,--.--,--.--,--.--,--.--,--.--,--.--,--.--,--.--,--.--,--.--,52.74,55.66,--.--,0,0,2.0,2.0,5.0,0,0,0,180.0,0.0,0.0
2025-01-24 12:32:10.864,0.4,-0.5,122,0.0,0.0,0.0,0.0,0.0,0.050,-0.0,1.6,584.5,2.070,2.082,0.043,0.0,00:01:03,0.5,0,--.--,--.--,6.6,12,0000:24:22,0,0,0,46.53,42.99,3078,41,76,--.--,--:--:--,1,2000.15,12:32:10,24/01/2025,53.04,--.--,--.--,--.--,--.--,--.--,--.--,--.--,--.--,--.--,--.--,100.00,0,0.000,0.000,0.000,0.000,0.000,0.000,0.000,0.000,0.000,0.000,0.000,0.000,false,false,false,false,false,false,false,false,false,false,false,false,--.--,--.--,--.--,--.--,--.--,--.--,--.--,--.--,-23.2556929,-47.2987507,23KKQ 64822 26311,0.5,0.1,73.6,3,28,--.--,--.--,,--.--,--.--,--.--,0,0,--.--,--.--,0,1.1,-0.8,-3.0,-0.0,-0.0,0.0,--.--,--.--,--.--,--.--,--.--,--.--,--.--,--.--,--.--,--.--,--.--,--.--,52.76,55.68,--.--,0,0,1.7,2.9,5.4,0,0,0,180.0,0.0,0.0
2025-01-24 12:32:11.855,0.1,-0.6,122,0.0,0.0,0.0,0.0,0.1,0.050,-0.0,1.6,584.6,2.090,2.154,0.018,0.0,00:01:04,0.5,0,--.--,--.--,5.8,12,0000:24:22,0,0,0,46.52,43.99,3090,41,76,--.--,--:--:--,1,2046.33,12:32:11,24/01/2025,53.05,--.--,--.--,--.--,--.--,--.--,--.--,--.--,--.--,--.--,--.--,100.00,0,0.000,0.000,0.000,0.000,0.000,0.000,0.000,0.000,0.000,0.000,0.000,0.000,false,false,false,false,false,false,false,false,false,false,false,false,--.--,--.--,--.--,--.--,--.--,--.--,--.--,--.--,-23.2556927,-47.2987502,23KKQ 64822 26311,0.5,0.1,46.2,3,28,--.--,--.--,,--.--,--.--,--.--,0,0,--.--,--.--,0,1.1,-0.8,-3.1,0.1,-0.0,0.0,--.--,--.--,--.--,--.--,--.--,--.--,--.--,--.--,--.--,--.--,--.--,--.--,52.84,55.65,--.--,0,0,1.7,3.7,5.9,0,0,0,180.0,0.0,0.0
2025-01-24 12:32:12.855,-0.0,-0.9,121,0.0,0.0,0.0,0.0,0.0,0.047,-0.0,1.6,584.5,2.070,2.121,0.006,0.0,00:01:05,0.4,0,--.--,--.--,5.3,12,0000:24:22,0,0,0,46.51,43.99,3103,41,76,--.--,--:--:--,1,2045.89,12:32:12,24/01/2025,53.11,--.--,--.--,--.--,--.--,--.--,--.--,--.--,--.--,--.--,--.--,100.00,0,0.000,0.000,0.000,0.000,0.000,0.000,0.000,0.000,0.000,0.000,0.000,0.000,false,false,false,false,false,false,false,false,false,false,false,false,--.--,--.--,--.--,--.--,--.--,--.--,--.--,--.--,-23.2556925,-47.2987501,23KKQ 64822 26311,0.5,0.1,3.0,3,28,--.--,--.--,,--.--,--.--,--.--,0,0,--.--,--.--,0,1.2,-0.8,-3.0,0.1,0.0,0.0,--.--,--.--,--.--,--.--,--.--,--.--,--.--,--.--,--.--,--.--,--.--,--.--,52.80,55.64,--.--,0,0,1.2,2.8,6.0,0,0,0,180.0,0.0,0.0
2025-01-24 12:32:13.862,0.3,-0.8,121,0.0,0.0,0.0,0.0,0.1,0.098,0.1,1.7,584.6,2.120,2.157,0.016,0.0,00:01:06,0.4,0,--.--,--.--,5.1,11,0000:24:22,0,0,0,46.50,43.99,3115,41,76,--.--,--:--:--,1,2045.36,12:32:13,24/01/2025,53.16,--.--,--.--,--.--,--.--,--.--,--.--,--.--,--.--,--.--,--.--,100.00,0,0.000,0.000,0.000,0.000,0.000,0.000,0.000,0.000,0.000,0.000,0.000,0.000,false,false,false,false,false,false,false,false,false,false,false,false,--.--,--.--,--.--,--.--,--.--,--.--,--.--,--.--,-23.2556924,-47.2987502,23KKQ 64822 26311,0.5,0.1,355.6,3,28,--.--,--.--,,--.--,--.--,--.--,0,0,--.--,--.--,0,1.2,-0.8,-3.1,0.0,0.0,-0.1,--.--,--.--,--.--,--.--,--.--,--.--,--.--,--.--,--.--,--.--,--.--,--.--,52.83,55.66,--.--,0,0,1.8,2.7,6.1,0,0,0,180.0,0.0,0.0
2025-01-24 12:32:14.868,-0.0,-0.6,121,0.0,0.0,0.0,0.1,0.1,0.136,-0.0,1.7,584.6,2.120,2.137,0.004,0.0,00:01:07,0.5,0,--.--,--.--,5.0,12,0000:24:22,0,0,0,46.49,43.99,3128,41,76,--.--,--:--:--,1,2045.32,12:32:14,24/01/2025,53.17,--.--,--.--,--.--,--.--,--.--,--.--,--.--,--.--,--.--,--.--,100.00,0,0.000,0.000,0.000,0.000,0.000,0.000,0.000,0.000,0.000,0.000,0.000,0.000,false,false,false,false,false,false,false,false,false,false,false,false,--.--,--.--,--.--,--.--,--.--,--.--,--.--,--.--,-23.2556921,-47.2987500,23KKQ 64822 26311,0.5,0.1,10.9,3,28,--.--,--.--,,--.--,--.--,--.--,0,0,--.--,--.--,0,1.1,-0.8,-3.1,-0.1,-0.1,-0.0,--.--,--.--,--.--,--.--,--.--,--.--,--.--,--.--,--.--,--.--,--.--,--.--,52.83,55.67,--.--,0,0,1.8,3.3,6.5,0,0,0,180.0,0.0,0.0
2025-01-24 12:32:15.855,-0.2,-2.5,121,0.0,0.0,0.0,0.1,0.1,0.093,-0.0,1.7,584.6,2.120,2.140,0.024,0.0,00:01:08,0.5,0,--.--,--.--,4.9,12,0000:24:22,0,0,0,46.48,42.99,3140,41,76,--.--,--:--:--,1,1998.30,12:32:15,24/01/2025,53.14,--.--,--.--,--.--,--.--,--.--,--.--,--.--,--.--,--.--,--.--,100.00,0,0.000,0.000,0.000,0.000,0.000,0.000,0.000,0.000,0.000,0.000,0.000,0.000,false,false,false,false,false,false,false,false,false,false,false,false,--.--,--.--,--.--,--.--,--.--,--.--,--.--,--.--,-23.2556925,-47.2987501,23KKQ 64822 26311,0.5,0.1,213.7,3,28,--.--,--.--,,--.--,--.--,--.--,0,0,--.--,--.--,0,1.1,-0.8,-3.1,-0.0,0.1,0.0,--.--,--.--,--.--,--.--,--.--,--.--,--.--,--.--,--.--,--.--,--.--,--.--,52.77,55.66,--.--,0,0,1.7,2.4,5.2,0,0,0,180.0,0.0,0.0
2025-01-24 12:32:16.866,0.7,-2.2,121,0.0,0.0,0.0,0.2,0.2,0.209,-0.0,1.7,584.6,2.140,2.178,0.007,0.0,00:01:09,0.4,0,--.--,--.--,4.7,12,0000:24:22,0,0,0,46.49,42.99,3153,41,76,--.--,--:--:--,1,1998.61,12:32:16,24/01/2025,53.14,--.--,--.--,--.--,--.--,--.--,--.--,--.--,--.--,--.--,--.--,100.00,0,0.000,0.000,0.000,0.000,0.000,0.000,0.000,0.000,0.000,0.000,0.000,0.000,false,false,false,false,false,false,false,false,false,false,false,false,--.--,--.--,--.--,--.--,--.--,--.--,--.--,--.--,-23.2556924,-47.2987497,23KKQ 64822 26311,0.5,0.1,91.2,3,28,--.--,--.--,,--.--,--.--,--.--,0,0,--.--,--.--,0,1.1,-0.7,-3.1,-0.1,0.2,0.0,--.--,--.--,--.--,--.--,--.--,--.--,--.--,--.--,--.--,--.--,--.--,--.--,52.78,55.65,--.--,0,0,1.3,2.8,4.5,0,0,0,180.0,0.0,0.0
2025-01-24 12:32:17.854,0.0,-1.5,121,0.0,0.0,0.0,0.3,0.3,0.342,-0.0,1.7,584.6,2.140,2.179,0.020,0.0,00:01:10,0.3,0,--.--,--.--,4.8,12,0000:24:22,0,0,0,46.49,42.99,3165,41,75,--.--,--:--:--,1,1998.39,12:32:17,24/01/2025,52.93,--.--,--.--,--.--,--.--,--.--,--.--,--.--,--.--,--.--,--.--,100.00,0,0.000,0.000,0.000,0.000,0.000,0.000,0.000,0.000,0.000,0.000,0.000,0.000,false,false,false,false,false,false,false,false,false,false,false,false,--.--,--.--,--.--,--.--,--.--,--.--,--.--,--.--,-23.2556926,-47.2987487,23KKQ 64823 26311,0.5,0.1,122.0,3,28,--.--,--.--,,--.--,--.--,--.--,0,0,--.--,--.--,0,0.9,-0.5,-3.1,-0.2,0.3,0.0,--.--,--.--,--.--,--.--,--.--,--.--,--.--,--.--,--.--,--.--,--.--,--.--,52.84,55.62,--.--,0,0,2.0,2.5,3.8,0,0,0,180.0,0.0,0.0
2025-01-24 12:32:18.867,0.1,-1.2,121,0.0,0.0,0.0,0.3,0.3,0.311,-0.0,1.7,584.6,2.120,2.141,0.021,0.0,00:01:11,0.5,0,--.--,--.--,4.9,12,0000:24:22,0,0,0,46.48,41.99,3177,41,75,--.--,--:--:--,1,1951.53,12:32:18,24/01/2025,52.54,--.--,--.--,--.--,--.--,--.--,--.--,--.--,--.--,--.--,--.--,100.00,0,0.000,0.000,0.000,0.000,0.000,0.000,0.000,0.000,0.000,0.000,0.000,0.000,false,false,false,false,false,false,false,false,false,false,false,false,--.--,--.--,--.--,--.--,--.--,--.--,--.--,--.--,-23.2556939,-47.2987464,23KKQ 64823 26311,0.5,0.1,127.1,3,28,--.--,--.--,,--.--,--.--,--.--,0,0,--.--,--.--,0,0.7,-0.2,-3.1,-0.1,0.3,0.0,--.--,--.--,--.--,--.--,--.--,--.--,--.--,--.--,--.--,--.--,--.--,--.--,52.81,55.68,--.--,0,0,1.0,2.6,4.5,0,0,0,180.0,0.0,0.0
2025-01-24 12:32:19.855,0.2,-1.9,121,0.0,0.0,0.0,0.4,0.4,0.358,-0.0,1.7,584.6,2.120,2.141,0.002,0.0,00:01:12,0.8,0,--.--,--.--,4.9,12,0000:24:22,0,0,0,46.47,41.99,3183,41,75,--.--,--:--:--,1,1951.49,12:32:19,24/01/2025,52.24,--.--,--.--,--.--,--.--,--.--,--.--,--.--,--.--,--.--,--.--,100.00,0,0.000,0.000,0.000,0.000,0.000,0.000,0.000,0.000,0.000,0.000,0.000,0.000,false,false,false,false,false,false,false,false,false,false,false,false,--.--,--.--,--.--,--.--,--.--,--.--,--.--,--.--,-23.2556954,-47.2987437,23KKQ 64823 26310,0.5,0.1,119.6,3,28,--.--,--.--,,--.--,--.--,--.--,0,0,--.--,--.--,0,0.6,0.1,-3.1,-0.2,0.3,0.0,--.--,--.--,--.--,--.--,--.--,--.--,--.--,--.--,--.--,--.--,--.--,--.--,52.83,55.67,--.--,0,0,1.1,2.2,4.6,0,0,0,180.0,0.0,0.0
2025-01-24 12:32:20.864,0.2,-1.6,121,0.0,0.0,0.0,0.4,0.4,0.427,-0.0,1.7,584.6,2.130,2.161,0.009,0.0,00:01:13,1.1,0,--.--,315,4.9,12,0000:24:22,0,0,0,46.47,41.99,3195,41,75,--.--,--:--:--,1,1951.28,12:32:20,24/01/2025,52.06,--.--,--.--,--.--,--.--,--.--,--.--,--.--,--.--,--.--,--.--,100.00,0,0.000,0.000,0.000,0.000,0.000,0.000,0.000,0.000,0.000,0.000,0.000,0.000,false,false,false,false,false,false,false,false,false,false,false,false,--.--,--.--,--.--,--.--,--.--,--.--,--.--,--.--,-23.2556970,-47.2987406,23KKQ 64823 26310,0.5,0.1,123.6,3,28,--.--,--.--,,--.--,--.--,--.--,0,0,--.--,--.--,0,0.4,0.5,-3.1,-0.2,0.4,-0.0,--.--,--.--,--.--,--.--,--.--,--.--,--.--,--.--,--.--,--.--,--.--,--.--,52.83,55.65,--.--,0,0,1.1,2.3,5.2,0,0,0,180.0,0.0,0.0
2025-01-24 12:32:21.862,-0.1,-2.0,121,0.0,0.0,0.0,0.5,0.5,0.473,-0.0,1.7,584.6,2.120,2.139,0.013,0.0,00:01:14,1.6,0,--.--,312,5.1,12,0000:24:22,0,0,0,46.47,41.99,3207,41,75,--.--,--:--:--,1,1951.40,12:32:21,24/01/2025,51.59,--.--,--.--,--.--,--.--,--.--,--.--,--.--,--.--,--.--,--.--,100.00,0,0.000,0.000,0.000,0.000,0.000,0.000,0.000,0.000,0.000,0.000,0.000,0.000,false,false,false,false,false,false,false,false,false,false,false,false,--.--,--.--,--.--,--.--,--.--,--.--,--.--,--.--,-23.2556989,-47.2987372,23KKQ 64824 26310,0.5,0.1,122.1,3,28,--.--,--.--,,--.--,--.--,--.--,0,0,--.--,--.--,0,0.1,0.8,-3.1,-0.2,0.4,0.0,--.--,--.--,--.--,--.--,--.--,--.--,--.--,--.--,--.--,--.--,--.--,--.--,52.83,55.66,--.--,0,0,1.2,2.9,5.1,0,0,0,180.0,0.0,0.0
