Timestamp,roll,pitch,heading,rollRate,pitchRate,yawRate,groundSpeed,airSpeed,airSpeedSetpoint,climbRate,altitudeRelative,altitudeAMSL,altitudeTuning,altitudeTuningSetpoint,xTrackError,flightDistance,flightTime,distanceToHome,missionItemIndex,headingToNextWP,headingToHome,distanceToGCS,throttlePct,hobbs,battery0.id,battery0.batteryFunction,battery0.batteryType,battery0.voltage,battery0.current,battery0.mahConsumed,battery0.temperature,battery0.percentRemaining,battery0.timeRemaining,battery0.timeRemainingStr,battery0.chargeState,battery0.instantPower,clock.currentTime,clock.currentDate,distanceSensor.rotationNone,distanceSensor.rotationYaw45,distanceSensor.rotationYaw90,distanceSensor.rotationYaw135,distanceSensor.rotationYaw180,distanceSensor.rotationYaw225,distanceSensor.rotationYaw270,distanceSensor.rotationYaw315,distanceSensor.rotationPitch90,distanceSensor.rotationPitch270,distanceSensor.minDistance,distanceSensor.maxDistance,escStatus.index,escStatus.rpm1,escStatus.rpm2,escStatus.rpm3,escStatus.rpm4,escStatus.current1,escStatus.current2,escStatus.current3,escStatus.current4,escStatus.voltage1,escStatus.voltage2,escStatus.voltage3,escStatus.voltage4,estimatorStatus.goodAttitudeEsimate,estimatorStatus.goodHorizVelEstimate,estimatorStatus.goodVertVelEstimate,estimatorStatus.goodHorizPosRelEstimate,estimatorStatus.goodHorizPosAbsEstimate,estimatorStatus.goodVertPosAbsEstimate,estimatorStatus.goodVertPosAGLEstimate,estimatorStatus.goodConstPosModeEstimate,estimatorStatus.goodPredHorizPosRelEstimate,estimatorStatus.goodPredHorizPosAbsEstimate,estimatorStatus.gpsGlitch,estimatorStatus.accelError,estimatorStatus.velRatio,estimatorStatus.horizPosRatio,estimatorStatus.vertPosRatio,estimatorStatus.magRatio,estimatorStatus.haglRatio,estimatorStatus.tasRatio,estimatorStatus.horizPosAccuracy,estimatorStatus.vertPosAccuracy,gps.lat,gps.lon,gps.mgrs,gps.hdop,gps.vdop,gps.courseOverGround,gps.lock,gps.count,gps2.lat,gps2.lon,gps2.mgrs,gps2.hdop,gps2.vdop,gps2.courseOverGround,gps2.lock,gps2.count,hygrometer.temperature,hygrometer.humidity,hygrometer.hygrometerid,localPosition.x,localPosition.y,localPosition.z,localPosition.vx,localPosition.vy,localPosition.vz,localPositionSetpoint.x,localPositionSetpoint.y,localPositionSetpoint.z,localPositionSetpoint.vx,localPositionSetpoint.vy,localPositionSetpoint.vz,setpoint.roll,setpoint.pitch,setpoint.yaw,setpoint.rollRate,setpoint.pitchRate,setpoint.yawRate,temperature.temperature1,temperature.temperature2,temperature.temperature3,terrain.blocksPending,terrain.blocksLoaded,vibration.xAxis,vibration.yAxis,vibration.zAxis,vibration.clipCount1,vibration.clipCount2,vibration.clipCount3,wind.direction,wind.speed,wind.verticalSpeed
2025-01-29 14:08:35.017,0.1,-0.5,134,0.0,0.0,0.0,0.0,0.0,0.007,-0.0,0.0,532.4,-0.070,-0.070,0.000,0.0,00:00:00,0.0,0,--.--,--.--,--.--,0,0000:42:12,0,0,0,45.69,0.00,6384,38,52,--.--,--:--:--,1,0.00,14:08:34,29/01/2025,0.60,--.--,--.--,--.--,--.--,--.--,--.--,--.--,--.--,--.--,--.--,100.00,0,0.000,0.000,0.000,0.000,0.000,0.000,0.000,0.000,0.000,0.000,0.000,0.000,false,false,false,false,false,false,false,false,false,false,false,false,--.--,--.--,--.--,--.--,--.--,--.--,--.--,--.--,-16.6966635,-54.6723327,21KYB 48216 52551,0.5,0.1,90.0,3,28,--.--,--.--,,--.--,--.--,--.--,0,0,--.--,--.--,0,-24.1,-47.8,-6.4,0.0,0.0,0.0,--.--,--.--,--.--,--.--,--.--,--.--,--.--,--.--,--.--,--.--,--.--,--.--,56.38,57.99,--.--,0,0,0.0,0.0,0.0,0,0,0,180.0,0.0,0.0
2025-01-29 14:08:35.875,0.1,-0.5,134,0.0,0.0,0.0,0.0,0.0,0.007,-0.0,-0.0,532.4,-0.080,-0.080,0.000,0.0,00:00:01,0.0,0,--.--,--.--,--.--,0,0000:42:12,0,0,0,45.69,0.00,6384,38,52,--.--,--:--:--,1,0.00,14:08:35,29/01/2025,0.60,--.--,--.--,--.--,--.--,--.--,--.--,--.--,--.--,--.--,--.--,100.00,0,0.000,0.000,0.000,0.000,0.000,0.000,0.000,0.000,0.000,0.000,0.000,0.000,false,false,false,false,false,false,false,false,false,false,false,false,--.--,--.--,--.--,--.--,--.--,--.--,--.--,--.--,-16.6966634,-54.6723328,21KYB 48216 52551,0.5,0.1,90.0,3,28,--.--,--.--,,--.--,--.--,--.--,0,0,--.--,--.--,0,-24.1,-47.8,-6.4,-0.0,0.0,0.0,--.--,--.--,--.--,--.--,--.--,--.--,--.--,--.--,--.--,--.--,--.--,--.--,56.38,58.04,--.--,0,0,0.0,0.0,0.0,0,0,0,180.0,0.0,0.0
2025-01-29 14:08:36.879,0.1,-0.5,134,0.0,0.0,0.0,0.0,0.0,0.006,-0.0,-0.0,532.4,-0.080,-0.080,0.000,0.0,00:00:02,0.0,0,--.--,--.--,--.--,0,0000:42:12,0,0,0,45.69,0.00,6384,38,52,--.--,--:--:--,1,0.00,14:08:36,29/01/2025,0.55,--.--,--.--,--.--,--.--,--.--,--.--,--.--,--.--,--.--,--.--,100.00,0,0.000,0.000,0.000,0.000,0.000,0.000,0.000,0.000,0.000,0.000,0.000,0.000,false,false,false,false,false,false,false,false,false,false,false,false,--.--,--.--,--.--,--.--,--.--,--.--,--.--,--.--,-16.6966633,-54.6723328,21KYB 48216 52551,0.5,0.1,45.0,3,28,--.--,--.--,,--.--,--.--,--.--,0,0,--.--,--.--,0,-24.1,-47.8,-6.4,0.0,0.0,0.0,--.--,--.--,--.--,--.--,--.--,--.--,--.--,--.--,--.--,--.--,--.--,--.--,56.39,58.02,--.--,0,0,0.0,0.0,0.0,0,0,0,180.0,0.0,0.0
2025-01-29 14:08:37.894,0.1,-0.5,134,0.0,0.0,0.0,0.0,0.0,0.007,-0.0,-0.0,532.4,-0.090,-0.090,0.000,0.0,00:00:03,0.0,0,--.--,--.--,--.--,0,0000:42:12,0,0,0,45.68,0.00,6384,38,52,--.--,--:--:--,1,0.00,14:08:37,29/01/2025,0.76,--.--,--.--,--.--,--.--,--.--,--.--,--.--,--.--,--.--,--.--,100.00,0,0.000,0.000,0.000,0.000,0.000,0.000,0.000,0.000,0.000,0.000,0.000,0.000,false,false,false,false,false,false,false,false,false,false,false,false,--.--,--.--,--.--,--.--,--.--,--.--,--.--,--.--,-16.6966632,-54.6723329,21KYB 48216 52551,0.5,0.1,0.0,3,28,--.--,--.--,,--.--,--.--,--.--,0,0,--.--,--.--,0,-24.1,-47.8,-6.4,0.0,0.0,0.0,--.--,--.--,--.--,--.--,--.--,--.--,--.--,--.--,--.--,--.--,--.--,--.--,56.41,58.03,--.--,0,0,0.1,0.1,0.1,0,0,0,180.0,0.0,0.0
2025-01-29 14:08:38.894,0.1,-0.5,134,0.0,0.0,0.0,0.0,0.0,0.007,-0.0,-0.0,532.4,-0.100,-0.090,0.000,0.0,00:00:04,0.1,0,--.--,--.--,--.--,0,0000:42:12,0,0,0,45.68,0.00,6384,38,52,--.--,--:--:--,1,0.00,14:08:38,29/01/2025,0.81,--.--,--.--,--.--,--.--,--.--,--.--,--.--,--.--,--.--,--.--,100.00,0,0.000,0.000,0.000,0.000,0.000,0.000,0.000,0.000,0.000,0.000,0.000,0.000,false,false,false,false,false,false,false,false,false,false,false,false,--.--,--.--,--.--,--.--,--.--,--.--,--.--,--.--,-16.6966631,-54.6723330,21KYB 48216 52551,0.5,0.1,26.6,3,28,--.--,--.--,,--.--,--.--,--.--,0,0,--.--,--.--,0,-24.1,-47.8,-6.4,0.0,0.0,0.0,--.--,--.--,--.--,--.--,--.--,--.--,--.--,--.--,--.--,--.--,--.--,--.--,56.40,58.02,--.--,0,0,0.1,0.1,0.1,0,0,0,180.0,0.0,0.0
2025-01-29 14:08:39.903,0.0,-0.5,134,0.0,0.0,0.0,0.0,0.0,0.034,-0.0,-0.0,532.4,-0.100,-0.100,0.000,0.0,00:00:05,0.1,0,--.--,--.--,--.--,0,0000:42:12,0,0,0,45.64,2.99,6384,38,52,--.--,--:--:--,1,136.46,14:08:39,29/01/2025,0.78,--.--,--.--,--.--,--.--,--.--,--.--,--.--,--.--,--.--,--.--,100.00,0,0.000,0.000,0.000,0.000,0.000,0.000,0.000,0.000,0.000,0.000,0.000,0.000,false,false,false,false,false,false,false,false,false,false,false,false,--.--,--.--,--.--,--.--,--.--,--.--,--.--,--.--,-16.6966630,-54.6723331,21KYB 48216 52551,0.5,0.1,0.0,3,28,--.--,--.--,,--.--,--.--,--.--,0,0,--.--,--.--,0,-24.1,-47.8,-6.4,-0.0,0.0,0.0,--.--,--.--,--.--,--.--,--.--,--.--,--.--,--.--,--.--,--.--,--.--,--.--,56.40,58.05,--.--,0,0,2.3,2.1,1.4,0,0,0,180.0,0.0,0.0
2025-01-29 14:08:40.889,0.1,-0.5,134,0.0,0.0,0.0,0.0,0.0,0.037,-0.0,-0.0,532.4,-0.100,-0.100,0.000,0.0,00:00:06,0.1,0,--.--,--.--,--.--,0,0000:42:12,0,0,0,45.62,4.98,6385,38,52,--.--,--:--:--,1,227.17,14:08:40,29/01/2025,0.96,--.--,--.--,--.--,--.--,--.--,--.--,--.--,--.--,--.--,--.--,100.00,0,0.000,0.000,0.000,0.000,0.000,0.000,0.000,0.000,0.000,0.000,0.000,0.000,false,false,false,false,false,false,false,false,false,false,false,false,--.--,--.--,--.--,--.--,--.--,--.--,--.--,--.--,-16.6966630,-54.6723332,21KYB 48216 52551,0.5,0.1,26.6,3,28,--.--,--.--,,--.--,--.--,--.--,0,0,--.--,--.--,0,-24.0,-47.8,-6.4,0.0,0.0,0.0,--.--,--.--,--.--,--.--,--.--,--.--,--.--,--.--,--.--,--.--,--.--,--.--,56.42,58.00,--.--,0,0,2.0,2.0,1.6,0,0,0,180.0,0.0,0.0
2025-01-29 14:08:41.895,0.2,-0.5,133,0.0,0.0,0.0,0.0,0.0,0.013,-0.0,-0.0,532.4,-0.100,-0.100,0.000,0.0,00:00:07,0.1,0,--.--,--.--,9.6,0,0000:42:12,0,0,0,45.62,4.98,6387,38,52,--.--,--:--:--,1,227.21,14:08:41,29/01/2025,0.83,--.--,--.--,--.--,--.--,--.--,--.--,--.--,--.--,--.--,--.--,100.00,0,0.000,0.000,0.000,0.000,0.000,0.000,0.000,0.000,0.000,0.000,0.000,0.000,false,false,false,false,false,false,false,false,false,false,false,false,--.--,--.--,--.--,--.--,--.--,--.--,--.--,--.--,-16.6966629,-54.6723333,21KYB 48216 52551,0.5,0.1,26.6,3,28,--.--,--.--,,--.--,--.--,--.--,0,0,--.--,--.--,0,-24.0,-47.8,-6.4,-0.0,-0.0,-0.0,--.--,--.--,--.--,--.--,--.--,--.--,--.--,--.--,--.--,--.--,--.--,--.--,56.42,58.00,--.--,0,0,1.1,2.3,1.3,0,0,0,180.0,0.0,0.0
2025-01-29 14:08:42.891,0.1,-0.5,134,0.0,0.0,0.0,0.0,0.0,0.019,-0.0,-0.0,532.4,-0.100,-0.100,0.000,0.0,00:00:08,0.1,0,--.--,--.--,8.8,0,0000:42:12,0,0,0,45.60,3.99,6388,38,52,--.--,--:--:--,1,181.96,14:08:42,29/01/2025,0.78,--.--,--.--,--.--,--.--,--.--,--.--,--.--,--.--,--.--,--.--,100.00,0,0.000,0.000,0.000,0.000,0.000,0.000,0.000,0.000,0.000,0.000,0.000,0.000,false,false,false,false,false,false,false,false,false,false,false,false,--.--,--.--,--.--,--.--,--.--,--.--,--.--,--.--,-16.6966628,-54.6723334,21KYB 48216 52551,0.5,0.1,45.0,3,28,--.--,--.--,,--.--,--.--,--.--,0,0,--.--,--.--,0,-24.0,-47.8,-6.4,0.0,0.0,0.0,--.--,--.--,--.--,--.--,--.--,--.--,--.--,--.--,--.--,--.--,--.--,--.--,56.39,58.01,--.--,0,0,1.0,1.1,1.0,0,0,0,180.0,0.0,0.0
2025-01-29 14:08:43.897,0.2,-0.6,133,0.0,0.0,0.0,0.0,0.0,0.020,-0.0,-0.0,532.4,-0.100,-0.100,0.000,0.0,00:00:09,0.1,0,--.--,--.--,7.3,0,0000:42:12,0,0,0,45.60,4.98,6389,38,52,--.--,--:--:--,1,227.08,14:08:43,29/01/2025,0.81,--.--,--.--,--.--,--.--,--.--,--.--,--.--,--.--,--.--,--.--,100.00,0,0.000,0.000,0.000,0.000,0.000,0.000,0.000,0.000,0.000,0.000,0.000,0.000,false,false,false,false,false,false,false,false,false,false,false,false,--.--,--.--,--.--,--.--,--.--,--.--,--.--,--.--,-16.6966628,-54.6723335,21KYB 48216 52551,0.5,0.1,90.0,3,28,--.--,--.--,,--.--,--.--,--.--,0,0,--.--,--.--,0,-24.0,-47.8,-6.4,-0.0,0.0,0.0,--.--,--.--,--.--,--.--,--.--,--.--,--.--,--.--,--.--,--.--,--.--,--.--,56.41,58.00,--.--,0,0,1.1,2.1,1.5,0,0,0,180.0,0.0,0.0
2025-01-29 14:08:44.892,0.1,-0.5,134,0.0,0.0,0.0,0.0,0.0,0.024,-0.0,-0.0,532.4,-0.100,-0.110,0.000,0.0,00:00:10,0.1,0,--.--,--.--,7.8,0,0000:42:12,0,0,0,45.59,4.98,6390,38,52,--.--,--:--:--,1,227.03,14:08:44,29/01/2025,0.87,--.--,--.--,--.--,--.--,--.--,--.--,--.--,--.--,--.--,--.--,100.00,0,0.000,0.000,0.000,0.000,0.000,0.000,0.000,0.000,0.000,0.000,0.000,0.000,false,false,false,false,false,false,false,false,false,false,false,false,--.--,--.--,--.--,--.--,--.--,--.--,--.--,--.--,-16.6966627,-54.6723336,21KYB 48216 52552,0.5,0.1,0.0,3,28,--.--,--.--,,--.--,--.--,--.--,0,0,--.--,--.--,0,-24.0,-47.8,-6.4,-0.0,-0.0,0.0,--.--,--.--,--.--,--.--,--.--,--.--,--.--,--.--,--.--,--.--,--.--,--.--,56.39,57.98,--.--,0,0,1.5,1.8,1.0,0,0,0,180.0,0.0,0.0
2025-01-29 14:08:45.892,0.1,-0.6,133,0.0,0.0,0.0,0.0,0.0,0.021,0.0,-0.0,532.4,-0.110,-0.110,0.000,0.0,00:00:11,0.1,0,--.--,--.--,9.3,0,0000:42:12,0,0,0,45.60,4.98,6392,38,52,--.--,--:--:--,1,227.09,14:08:45,29/01/2025,0.80,--.--,--.--,--.--,--.--,--.--,--.--,--.--,--.--,--.--,--.--,100.00,0,0.000,0.000,0.000,0.000,0.000,0.000,0.000,0.000,0.000,0.000,0.000,0.000,false,false,false,false,false,false,false,false,false,false,false,false,--.--,--.--,--.--,--.--,--.--,--.--,--.--,--.--,-16.6966626,-54.6723337,21KYB 48216 52552,0.5,0.1,90.0,3,28,--.--,--.--,,--.--,--.--,--.--,0,0,--.--,--.--,0,-24.0,-47.8,-6.4,-0.0,0.0,-0.0,--.--,--.--,--.--,--.--,--.--,--.--,--.--,--.--,--.--,--.--,--.--,--.--,56.39,58.02,--.--,0,0,1.2,2.0,1.6,0,0,0,180.0,0.0,0.0
2025-01-29 14:08:46.889,0.1,-0.5,134,0.0,0.0,0.0,0.0,0.0,0.030,-0.0,-0.0,532.4,-0.100,-0.110,0.000,0.0,00:00:12,0.2,0,--.--,--.--,9.5,0,0000:42:12,0,0,0,45.59,3.99,6393,38,52,--.--,--:--:--,1,181.88,14:08:46,29/01/2025,0.84,--.--,--.--,--.--,--.--,--.--,--.--,--.--,--.--,--.--,--.--,100.00,0,0.000,0.000,0.000,0.000,0.000,0.000,0.000,0.000,0.000,0.000,0.000,0.000,false,false,false,false,false,false,false,false,false,false,false,false,--.--,--.--,--.--,--.--,--.--,--.--,--.--,--.--,-16.6966626,-54.6723338,21KYB 48216 52552,0.5,0.1,0.0,3,28,--.--,--.--,,--.--,--.--,--.--,0,0,--.--,--.--,0,-24.0,-47.8,-6.4,-0.0,-0.0,0.0,--.--,--.--,--.--,--.--,--.--,--.--,--.--,--.--,--.--,--.--,--.--,--.--,56.39,57.98,--.--,0,0,1.3,2.4,2.0,0,0,0,180.0,0.0,0.0
2025-01-29 14:08:47.886,0.2,-0.4,133,0.0,0.0,0.0,0.0,0.0,0.043,-0.0,-0.0,532.4,-0.110,-0.124,0.004,0.0,00:00:13,0.2,0,--.--,--.--,9.0,5,0000:42:12,0,0,0,45.60,4.98,6394,38,52,--.--,--:--:--,1,227.08,14:08:47,29/01/2025,0.89,--.--,--.--,--.--,--.--,--.--,--.--,--.--,--.--,--.--,--.--,100.00,0,0.000,0.000,0.000,0.000,0.000,0.000,0.000,0.000,0.000,0.000,0.000,0.000,false,false,false,false,false,false,false,false,false,false,false,false,--.--,--.--,--.--,--.--,--.--,--.--,--.--,--.--,-16.6966625,-54.6723338,21KYB 48216 52552,0.5,0.1,135.0,3,28,--.--,--.--,,--.--,--.--,--.--,0,0,--.--,--.--,0,-24.0,-47.8,-6.4,-0.0,-0.0,-0.0,--.--,--.--,--.--,--.--,--.--,--.--,--.--,--.--,--.--,--.--,--.--,--.--,56.38,58.03,--.--,0,0,2.2,2.3,3.3,0,0,0,180.0,0.0,0.0
2025-01-29 14:08:48.891,0.0,3.9,134,0.0,0.0,0.0,0.1,0.1,0.078,0.0,-0.0,532.4,-0.100,-0.183,0.018,0.0,00:00:14,0.2,0,--.--,--.--,8.7,9,0000:42:12,0,0,0,45.37,18.99,6397,38,52,--.--,--:--:--,1,861.54,14:08:48,29/01/2025,1.05,--.--,--.--,--.--,--.--,--.--,--.--,--.--,--.--,--.--,--.--,100.00,0,0.000,0.000,0.000,0.000,0.000,0.000,0.000,0.000,0.000,0.000,0.000,0.000,false,false,false,false,false,false,false,false,false,false,false,false,--.--,--.--,--.--,--.--,--.--,--.--,--.--,--.--,-16.6966624,-54.6723339,21KYB 48216 52552,0.5,0.1,341.6,3,28,--.--,--.--,,--.--,--.--,--.--,0,0,--.--,--.--,0,-23.9,-47.9,-6.4,0.1,-0.1,-0.1,--.--,--.--,--.--,--.--,--.--,--.--,--.--,--.--,--.--,--.--,--.--,--.--,56.40,58.00,--.--,0,0,5.5,2.5,4.1,0,0,0,180.0,0.0,0.0
2025-01-29 14:08:49.895,-0.8,-0.1,135,0.0,0.0,0.0,0.3,0.3,0.382,0.1,0.0,532.4,-0.070,-0.229,0.032,0.0,00:00:15,0.5,0,--.--,--.--,8.8,9,0000:42:12,0,0,0,45.28,29.99,6403,38,52,--.--,--:--:--,1,1357.95,14:08:49,29/01/2025,1.45,--.--,--.--,--.--,--.--,--.--,--.--,--.--,--.--,--.--,--.--,100.00,0,0.000,0.000,0.000,0.000,0.000,0.000,0.000,0.000,0.000,0.000,0.000,0.000,false,false,false,false,false,false,false,false,false,false,false,false,--.--,--.--,--.--,--.--,--.--,--.--,--.--,--.--,-16.6966620,-54.6723343,21KYB 48216 52552,0.5,0.1,306.4,3,28,--.--,--.--,,--.--,--.--,--.--,0,0,--.--,--.--,0,-23.9,-48.0,-6.4,0.2,-0.3,-0.0,--.--,--.--,--.--,--.--,--.--,--.--,--.--,--.--,--.--,--.--,--.--,--.--,56.40,58.03,--.--,0,0,1.7,1.8,4.7,0,0,0,180.0,0.0,0.0
2025-01-29 14:08:50.890,-1.4,-2.4,135,0.0,0.0,0.0,0.0,0.0,0.123,0.0,0.1,532.5,-0.010,-0.113,0.083,0.0,00:00:16,0.6,0,--.--,--.--,9.0,11,0000:42:12,0,0,0,45.12,38.98,6413,38,52,--.--,--:--:--,1,1758.62,14:08:50,29/01/2025,1.49,--.--,--.--,--.--,--.--,--.--,--.--,--.--,--.--,--.--,--.--,100.00,0,0.000,0.000,0.000,0.000,0.000,0.000,0.000,0.000,0.000,0.000,0.000,0.000,false,false,false,false,false,false,false,false,false,false,false,false,--.--,--.--,--.--,--.--,--.--,--.--,--.--,--.--,-16.6966602,-54.6723371,21KYB 48216 52552,0.5,0.1,303.9,3,28,--.--,--.--,,--.--,--.--,--.--,0,0,--.--,--.--,0,-23.7,-48.2,-6.5,0.1,-0.1,-0.0,--.--,--.--,--.--,--.--,--.--,--.--,--.--,--.--,--.--,--.--,--.--,--.--,56.37,58.02,--.--,0,0,2.0,3.4,4.6,0,0,0,180.0,0.0,0.0
2025-01-29 14:08:51.891,-1.5,-0.4,134,0.0,0.0,0.0,0.1,0.1,0.150,0.0,0.1,532.5,0.040,0.001,0.074,0.0,00:00:17,0.5,0,--.--,--.--,8.9,10,0000:42:12,0,0,0,45.10,37.98,6424,38,52,--.--,--:--:--,1,1712.97,14:08:51,29/01/2025,1.48,--.--,--.--,--.--,--.--,--.--,--.--,--.--,--.--,--.--,--.--,100.00,0,0.000,0.000,0.000,0.000,0.000,0.000,0.000,0.000,0.000,0.000,0.000,0.000,false,false,false,false,false,false,false,false,false,false,false,false,--.--,--.--,--.--,--.--,--.--,--.--,--.--,--.--,-16.6966600,-54.6723379,21KYB 48216 52552,0.5,0.1,144.6,3,28,--.--,--.--,,--.--,--.--,--.--,0,0,--.--,--.--,0,-23.8,-48.2,-6.5,-0.1,0.1,-0.0,--.--,--.--,--.--,--.--,--.--,--.--,--.--,--.--,--.--,--.--,--.--,--.--,56.40,58.02,--.--,0,0,2.4,3.0,4.1,0,0,0,180.0,0.0,0.0
2025-01-29 14:08:52.892,-1.4,-0.1,134,0.0,0.0,0.0,0.1,0.1,0.139,0.0,0.1,532.5,0.070,0.062,0.059,0.0,00:00:18,0.5,0,--.--,--.--,8.9,10,0000:42:12,0,0,0,45.10,37.98,6435,38,52,--.--,--:--:--,1,1713.05,14:08:52,29/01/2025,1.44,--.--,--.--,--.--,--.--,--.--,--.--,--.--,--.--,--.--,--.--,100.00,0,0.000,0.000,0.000,0.000,0.000,0.000,0.000,0.000,0.000,0.000,0.000,0.000,false,false,false,false,false,false,false,false,false,false,false,false,--.--,--.--,--.--,--.--,--.--,--.--,--.--,--.--,-16.6966604,-54.6723377,21KYB 48216 52552,0.5,0.1,112.4,3,28,--.--,--.--,,--.--,--.--,--.--,0,0,--.--,--.--,0,-23.8,-48.1,-6.6,-0.1,0.1,-0.0,--.--,--.--,--.--,--.--,--.--,--.--,--.--,--.--,--.--,--.--,--.--,--.--,56.41,58.02,--.--,0,0,1.2,3.9,3.4,0,0,0,180.0,0.0,0.0
2025-01-29 14:08:53.893,-1.0,-0.7,134,0.0,0.0,0.0,0.0,0.0,0.063,-0.0,0.1,532.5,0.070,0.088,0.008,0.0,00:00:19,0.5,0,--.--,--.--,8.8,10,0000:42:12,0,0,0,45.08,37.98,6446,38,51,--.--,--:--:--,1,1712.10,14:08:53,29/01/2025,1.63,--.--,--.--,--.--,--.--,--.--,--.--,--.--,--.--,--.--,--.--,100.00,0,0.000,0.000,0.000,0.000,0.000,0.000,0.000,0.000,0.000,0.000,0.000,0.000,false,false,false,false,false,false,false,false,false,false,false,false,--.--,--.--,--.--,--.--,--.--,--.--,--.--,--.--,-16.6966600,-54.6723373,21KYB 48216 52552,0.5,0.1,87.4,3,28,--.--,--.--,,--.--,--.--,--.--,0,0,--.--,--.--,0,-23.8,-48.1,-6.6,0.0,0.0,-0.0,--.--,--.--,--.--,--.--,--.--,--.--,--.--,--.--,--.--,--.--,--.--,--.--,56.38,58.02,--.--,0,0,2.2,3.5,5.1,0,0,0,180.0,0.0,0.0
2025-01-29 14:08:54.885,-1.2,-0.3,134,0.0,0.0,0.0,0.1,0.1,0.050,-0.0,0.1,532.5,0.060,0.068,0.056,0.0,00:00:20,0.5,0,--.--,--.--,8.8,11,0000:42:12,0,0,0,45.05,37.98,6456,38,51,--.--,--:--:--,1,1711.11,14:08:54,29/01/2025,1.60,--.--,--.--,--.--,--.--,--.--,--.--,--.--,--.--,--.--,--.--,100.00,0,0.000,0.000,0.000,0.000,0.000,0.000,0.000,0.000,0.000,0.000,0.000,0.000,false,false,false,false,false,false,false,false,false,false,false,false,--.--,--.--,--.--,--.--,--.--,--.--,--.--,--.--,-16.6966598,-54.6723374,21KYB 48216 52552,0.5,0.1,136.6,3,28,--.--,--.--,,--.--,--.--,--.--,0,0,--.--,--.--,0,-23.8,-48.1,-6.6,-0.0,0.0,0.0,--.--,--.--,--.--,--.--,--.--,--.--,--.--,--.--,--.--,--.--,--.--,--.--,56.38,57.98,--.--,0,0,1.2,2.2,3.5,0,0,0,180.0,0.0,0.0
2025-01-29 14:08:55.898,-1.0,-0.2,134,0.0,0.0,0.0,0.0,0.0,0.048,-0.0,0.1,532.5,0.070,0.081,0.041,0.0,00:00:21,0.5,0,--.--,--.--,8.8,10,0000:42:12,0,0,0,45.02,38.98,6468,38,51,--.--,--:--:--,1,1754.84,14:08:55,29/01/2025,1.60,--.--,--.--,--.--,--.--,--.--,--.--,--.--,--.--,--.--,--.--,100.00,0,0.000,0.000,0.000,0.000,0.000,0.000,0.000,0.000,0.000,0.000,0.000,0.000,false,false,false,false,false,false,false,false,false,false,false,false,--.--,--.--,--.--,--.--,--.--,--.--,--.--,--.--,-16.6966597,-54.6723372,21KYB 48216 52552,0.5,0.1,104.8,3,28,--.--,--.--,,--.--,--.--,--.--,0,0,--.--,--.--,0,-23.8,-48.1,-6.6,-0.0,0.0,0.0,--.--,--.--,--.--,--.--,--.--,--.--,--.--,--.--,--.--,--.--,--.--,--.--,56.37,57.99,--.--,0,0,1.0,2.9,3.3,0,0,0,180.0,0.0,0.0
2025-01-29 14:08:56.888,-1.1,-0.7,134,0.0,0.0,0.0,0.1,0.1,0.039,-0.0,0.1,532.5,0.070,0.089,0.058,0.0,00:00:22,0.5,0,--.--,--.--,8.8,10,0000:42:12,0,0,0,45.00,38.98,6479,38,51,--.--,--:--:--,1,1754.10,14:08:56,29/01/2025,1.63,--.--,--.--,--.--,--.--,--.--,--.--,--.--,--.--,--.--,--.--,100.00,0,0.000,0.000,0.000,0.000,0.000,0.000,0.000,0.000,0.000,0.000,0.000,0.000,false,false,false,false,false,false,false,false,false,false,false,false,--.--,--.--,--.--,--.--,--.--,--.--,--.--,--.--,-16.6966595,-54.6723371,21KYB 48216 52552,0.5,0.1,122.5,3,28,--.--,--.--,,--.--,--.--,--.--,0,0,--.--,--.--,0,-23.7,-48.1,-6.6,-0.0,0.1,0.0,--.--,--.--,--.--,--.--,--.--,--.--,--.--,--.--,--.--,--.--,--.--,--.--,56.39,58.01,--.--,0,0,1.0,3.7,3.5,0,0,0,180.0,0.0,0.0
2025-01-29 14:08:57.894,-1.4,-0.5,134,0.0,0.0,0.0,0.1,0.1,0.089,0.1,0.2,532.6,0.120,0.112,0.031,0.0,00:00:23,0.5,0,--.--,--.--,8.2,10,0000:42:12,0,0,0,45.00,38.98,6490,38,51,--.--,--:--:--,1,1754.14,14:08:57,29/01/2025,1.56,--.--,--.--,--.--,--.--,--.--,--.--,--.--,--.--,--.--,--.--,100.00,0,0.000,0.000,0.000,0.000,0.000,0.000,0.000,0.000,0.000,0.000,0.000,0.000,false,false,false,false,false,false,false,false,false,false,false,false,--.--,--.--,--.--,--.--,--.--,--.--,--.--,--.--,-16.6966597,-54.6723371,21KYB 48216 52552,0.5,0.1,164.1,3,28,--.--,--.--,,--.--,--.--,--.--,0,0,--.--,--.--,0,-23.8,-48.1,-6.6,-0.1,0.0,-0.1,--.--,--.--,--.--,--.--,--.--,--.--,--.--,--.--,--.--,--.--,--.--,--.--,56.36,58.03,--.--,0,0,1.0,3.3,4.4,0,0,0,180.0,0.0,0.0
2025-01-29 14:08:58.883,-1.4,-1.2,134,0.0,0.0,0.0,0.0,0.2,0.145,0.2,0.3,532.7,0.250,0.202,0.072,0.0,00:00:24,0.5,0,--.--,--.--,8.8,11,0000:42:12,0,0,0,44.99,39.98,6501,38,51,--.--,--:--:--,1,1798.62,14:08:58,29/01/2025,1.66,--.--,--.--,--.--,--.--,--.--,--.--,--.--,--.--,--.--,--.--,100.00,0,0.000,0.000,0.000,0.000,0.000,0.000,0.000,0.000,0.000,0.000,0.000,0.000,false,false,false,false,false,false,false,false,false,false,false,false,--.--,--.--,--.--,--.--,--.--,--.--,--.--,--.--,-16.6966602,-54.6723374,21KYB 48216 52552,0.5,0.1,209.2,3,28,--.--,--.--,,--.--,--.--,--.--,0,0,--.--,--.--,0,-23.8,-48.1,-6.7,-0.0,-0.0,-0.1,--.--,--.--,--.--,--.--,--.--,--.--,--.--,--.--,--.--,--.--,--.--,--.--,56.37,58.01,--.--,0,0,1.5,3.7,3.7,0,0,0,180.0,0.0,0.0
2025-01-29 14:08:59.889,-1.3,-0.9,134,0.0,0.0,0.0,0.1,0.2,0.172,0.2,0.5,532.9,0.410,0.339,0.084,0.0,00:00:25,0.5,0,--.--,--.--,8.9,11,0000:42:12,0,0,0,44.96,40.99,6507,38,51,--.--,--:--:--,1,1842.87,14:08:59,29/01/2025,2.36,--.--,--.--,--.--,--.--,--.--,--.--,--.--,--.--,--.--,--.--,100.00,0,0.000,0.000,0.000,0.000,0.000,0.000,0.000,0.000,0.000,0.000,0.000,0.000,false,false,false,false,false,false,false,false,false,false,false,false,--.--,--.--,--.--,--.--,--.--,--.--,--.--,--.--,-16.6966603,-54.6723375,21KYB 48216 52552,0.5,0.1,139.2,3,28,--.--,--.--,,--.--,--.--,--.--,0,0,--.--,--.--,0,-23.8,-48.1,-6.9,0.0,0.1,-0.2,--.--,--.--,--.--,--.--,--.--,--.--,--.--,--.--,--.--,--.--,--.--,--.--,56.44,57.97,--.--,0,0,1.7,2.5,3.8,0,0,0,180.0,0.0,0.0
2025-01-29 14:09:00.900,-0.6,-1.1,134,0.0,0.0,0.0,0.1,0.2,0.187,0.2,0.7,533.0,0.570,0.494,0.041,0.0,00:00:26,0.5,0,--.--,--.--,8.7,11,0000:42:12,0,0,0,44.92,40.99,6519,38,51,--.--,--:--:--,1,1841.23,14:09:00,29/01/2025,1.80,--.--,--.--,--.--,--.--,--.--,--.--,--.--,--.--,--.--,--.--,100.00,0,0.000,0.000,0.000,0.000,0.000,0.000,0.000,0.000,0.000,0.000,0.000,0.000,false,false,false,false,false,false,false,false,false,false,false,false,--.--,--.--,--.--,--.--,--.--,--.--,--.--,--.--,-16.6966600,-54.6723371,21KYB 48216 52552,0.5,0.1,90.8,3,28,--.--,--.--,,--.--,--.--,--.--,0,0,--.--,--.--,0,-23.8,-48.1,-7.1,-0.0,0.1,-0.2,--.--,--.--,--.--,--.--,--.--,--.--,--.--,--.--,--.--,--.--,--.--,--.--,56.37,57.98,--.--,0,0,1.6,2.9,5.4,0,0,0,180.0,0.0,0.0
2025-01-29 14:09:01.899,-1.6,-0.6,134,0.0,0.0,0.0,0.0,0.2,0.211,0.2,0.9,533.2,0.770,0.656,0.022,0.0,00:00:27,0.4,0,--.--,--.--,8.6,11,0000:42:12,0,0,0,44.91,41.99,6530,38,51,--.--,--:--:--,1,1885.60,14:09:01,29/01/2025,1.66,--.--,--.--,--.--,--.--,--.--,--.--,--.--,--.--,--.--,--.--,100.00,0,0.000,0.000,0.000,0.000,0.000,0.000,0.000,0.000,0.000,0.000,0.000,0.000,false,false,false,false,false,false,false,false,false,false,false,false,--.--,--.--,--.--,--.--,--.--,--.--,--.--,--.--,-16.6966599,-54.6723366,21KYB 48216 52552,0.5,0.1,118.2,3,28,--.--,--.--,,--.--,--.--,--.--,0,0,--.--,--.--,0,-23.8,-48.1,-7.3,-0.0,0.0,-0.2,--.--,--.--,--.--,--.--,--.--,--.--,--.--,--.--,--.--,--.--,--.--,--.--,56.39,57.97,--.--,0,0,2.2,4.1,4.7,0,0,0,180.0,0.0,0.0
2025-01-29 14:09:02.888,-0.7,-0.6,134,0.0,0.0,0.0,0.0,0.3,0.331,0.3,1.2,533.5,1.080,0.975,0.007,0.0,00:00:28,0.5,0,--.--,--.--,9.8,11,0000:42:12,0,0,0,44.91,42.99,6542,38,51,--.--,--:--:--,1,1930.59,14:09:02,29/01/2025,1.65,--.--,--.--,--.--,--.--,--.--,--.--,--.--,--.--,--.--,--.--,100.00,0,0.000,0.000,0.000,0.000,0.000,0.000,0.000,0.000,0.000,0.000,0.000,0.000,false,false,false,false,false,false,false,false,false,false,false,false,--.--,--.--,--.--,--.--,--.--,--.--,--.--,--.--,-16.6966602,-54.6723365,21KYB 48216 52552,0.5,0.1,125.1,3,28,--.--,--.--,,--.--,--.--,--.--,0,0,--.--,--.--,0,-23.8,-48.1,-7.5,0.0,0.0,-0.3,--.--,--.--,--.--,--.--,--.--,--.--,--.--,--.--,--.--,--.--,--.--,--.--,56.34,57.93,--.--,0,0,1.5,2.7,5.2,0,0,0,180.0,0.0,0.0
2025-01-29 14:09:03.886,-2.4,-0.7,134,0.0,0.0,0.0,0.0,0.3,0.235,0.3,1.4,533.8,1.350,1.284,0.043,0.0,00:00:29,0.5,0,--.--,--.--,9.2,11,0000:42:12,0,0,0,44.90,41.99,6555,38,50,--.--,--:--:--,1,1885.43,14:09:03,29/01/2025,1.69,--.--,--.--,--.--,--.--,--.--,--.--,--.--,--.--,--.--,--.--,100.00,0,0.000,0.000,0.000,0.000,0.000,0.000,0.000,0.000,0.000,0.000,0.000,0.000,false,false,false,false,false,false,false,false,false,false,false,false,--.--,--.--,--.--,--.--,--.--,--.--,--.--,--.--,-16.6966603,-54.6723367,21KYB 48216 52552,0.5,0.1,223.4,3,28,--.--,--.--,,--.--,--.--,--.--,0,0,--.--,--.--,0,-23.8,-48.1,-7.9,-0.0,0.0,-0.2,--.--,--.--,--.--,--.--,--.--,--.--,--.--,--.--,--.--,--.--,--.--,--.--,56.37,57.98,--.--,0,0,1.9,4.1,5.0,0,0,0,180.0,0.0,0.0
2025-01-29 14:09:04.874,-1.2,-0.6,134,0.0,0.0,0.0,0.1,0.1,0.245,0.0,1.7,534.0,1.580,1.567,0.044,0.0,00:00:30,0.5,0,--.--,--.--,8.6,11,0000:42:12,0,0,0,44.86,41.99,6567,38,50,--.--,--:--:--,1,1883.76,14:09:04,29/01/2025,1.69,--.--,--.--,--.--,--.--,--.--,--.--,--.--,--.--,--.--,--.--,100.00,0,0.000,0.000,0.000,0.000,0.000,0.000,0.000,0.000,0.000,0.000,0.000,0.000,false,false,false,false,false,false,false,false,false,false,false,false,--.--,--.--,--.--,--.--,--.--,--.--,--.--,--.--,-16.6966605,-54.6723367,21KYB 48216 52552,0.5,0.1,45.0,3,28,--.--,--.--,,--.--,--.--,--.--,0,0,--.--,--.--,0,-23.8,-48.1,-8.1,0.0,0.1,-0.1,--.--,--.--,--.--,--.--,--.--,--.--,--.--,--.--,--.--,--.--,--.--,--.--,56.38,57.99,--.--,0,0,1.2,2.9,5.4,0,0,0,180.0,0.0,0.0
2025-01-29 14:09:05.897,-3.6,0.3,133,0.0,0.0,0.0,0.3,0.3,0.132,-0.0,1.6,534.0,1.570,1.578,0.002,0.0,00:00:31,0.5,0,--.--,--.--,8.5,11,0000:42:12,0,0,0,44.90,39.98,6578,38,50,--.--,--:--:--,1,1795.18,14:09:05,29/01/2025,1.65,--.--,--.--,--.--,--.--,--.--,--.--,--.--,--.--,--.--,--.--,100.00,0,0.000,0.000,0.000,0.000,0.000,0.000,0.000,0.000,0.000,0.000,0.000,0.000,false,false,false,false,false,false,false,false,false,false,false,false,--.--,--.--,--.--,--.--,--.--,--.--,--.--,--.--,-16.6966603,-54.6723361,21KYB 48216 52552,0.5,0.1,84.2,3,28,--.--,--.--,,--.--,--.--,--.--,0,0,--.--,--.--,0,-23.7,-48.0,-8.1,0.2,0.2,0.0,--.--,--.--,--.--,--.--,--.--,--.--,--.--,--.--,--.--,--.--,--.--,--.--,56.35,57.98,--.--,0,0,1.5,2.4,5.2,0,0,0,180.0,0.0,0.0
2025-01-29 14:09:06.882,-1.5,-0.4,133,0.0,0.0,0.0,0.4,0.4,0.348,-0.0,1.6,534.0,1.570,1.562,0.005,0.0,00:00:32,0.6,0,--.--,--.--,8.6,11,0000:42:12,0,0,0,44.86,41.99,6590,38,50,--.--,--:--:--,1,1883.50,14:09:06,29/01/2025,1.58,--.--,--.--,--.--,--.--,--.--,--.--,--.--,--.--,--.--,--.--,100.00,0,0.000,0.000,0.000,0.000,0.000,0.000,0.000,0.000,0.000,0.000,0.000,0.000,false,false,false,false,false,false,false,false,false,false,false,false,--.--,--.--,--.--,--.--,--.--,--.--,--.--,--.--,-16.6966591,-54.6723345,21KYB 48216 52552,0.5,0.1,44.7,3,28,--.--,--.--,,--.--,--.--,--.--,0,0,--.--,--.--,0,-23.6,-47.8,-8.1,0.2,0.3,0.0,--.--,--.--,--.--,--.--,--.--,--.--,--.--,--.--,--.--,--.--,--.--,--.--,56.40,57.94,--.--,0,0,2.1,3.3,5.5,0,0,0,180.0,0.0,0.0
2025-01-29 14:09:07.889,-1.0,-0.3,133,0.0,0.0,0.0,0.3,0.3,0.319,-0.0,1.7,534.0,1.580,1.562,0.019,0.0,00:00:33,0.9,0,--.--,--.--,8.1,11,0000:42:12,0,0,0,44.86,40.99,6602,38,50,--.--,--:--:--,1,1838.77,14:09:07,29/01/2025,1.56,--.--,--.--,--.--,--.--,--.--,--.--,--.--,--.--,--.--,--.--,100.00,0,0.000,0.000,0.000,0.000,0.000,0.000,0.000,0.000,0.000,0.000,0.000,0.000,false,false,false,false,false,false,false,false,false,false,false,false,--.--,--.--,--.--,--.--,--.--,--.--,--.--,--.--,-16.6966569,-54.6723325,21KYB 48216 52552,0.5,0.1,43.0,3,28,--.--,--.--,,--.--,--.--,--.--,0,0,--.--,--.--,0,-23.2,-47.6,-8.1,0.2,0.2,-0.0,--.--,--.--,--.--,--.--,--.--,--.--,--.--,--.--,--.--,--.--,--.--,--.--,56.36,57.99,--.--,0,0,1.8,2.8,5.3,0,0,0,180.0,0.0,0.0
2025-01-29 14:09:08.884,-0.2,-0.9,136,0.0,0.0,0.0,0.1,0.1,0.066,-0.0,1.6,534.0,1.570,1.577,0.057,0.0,00:00:34,1.0,0,--.--,--.--,7.3,11,0000:42:12,0,0,0,44.84,40.99,6619,38,50,--.--,--:--:--,1,1837.95,14:09:08,29/01/2025,1.78,--.--,--.--,--.--,--.--,--.--,--.--,--.--,--.--,--.--,--.--,100.00,0,0.000,0.000,0.000,0.000,0.000,0.000,0.000,0.000,0.000,0.000,0.000,0.000,false,false,false,false,false,false,false,false,false,false,false,false,--.--,--.--,--.--,--.--,--.--,--.--,--.--,--.--,-16.6966552,-54.6723311,21KYB 48217 52552,0.5,0.1,33.9,3,28,--.--,--.--,,--.--,--.--,--.--,0,0,--.--,--.--,0,-23.2,-47.5,-8.1,-0.1,-0.1,-0.0,--.--,--.--,--.--,--.--,--.--,--.--,--.--,--.--,--.--,--.--,--.--,--.--,56.36,57.98,--.--,0,0,2.4,3.2,7.7,0,0,0,180.0,0.0,0.0
2025-01-29 14:09:09.895,-2.6,0.0,143,0.0,0.0,0.0,0.1,0.1,0.114,-0.0,1.7,534.0,1.580,1.583,0.057,0.0,00:00:35,0.8,0,--.--,--.--,7.1,11,0000:42:12,0,0,0,44.86,40.99,6626,38,50,--.--,--:--:--,1,1838.81,14:09:09,29/01/2025,1.70,--.--,--.--,--.--,--.--,--.--,--.--,--.--,--.--,--.--,--.--,100.00,0,0.000,0.000,0.000,0.000,0.000,0.000,0.000,0.000,0.000,0.000,0.000,0.000,false,false,false,false,false,false,false,false,false,false,false,false,--.--,--.--,--.--,--.--,--.--,--.--,--.--,--.--,-16.6966553,-54.6723317,21KYB 48217 52552,0.5,0.1,225.0,3,28,--.--,--.--,,--.--,--.--,--.--,0,0,--.--,--.--,0,-23.3,-47.6,-8.1,-0.1,0.1,-0.0,--.--,--.--,--.--,--.--,--.--,--.--,--.--,--.--,--.--,--.--,--.--,--.--,56.37,57.94,--.--,0,0,1.2,4.4,7.0,0,0,0,180.0,0.0,0.0
2025-01-29 14:09:10.884,-3.2,0.8,142,0.0,0.0,0.0,0.2,0.2,0.138,0.0,1.7,534.0,1.590,1.601,0.065,0.0,00:00:36,0.9,0,--.--,--.--,7.1,11,0000:42:12,0,0,0,44.83,40.99,6638,38,50,--.--,--:--:--,1,1837.66,14:09:10,29/01/2025,1.70,--.--,--.--,--.--,--.--,--.--,--.--,--.--,--.--,--.--,--.--,100.00,0,0.000,0.000,0.000,0.000,0.000,0.000,0.000,0.000,0.000,0.000,0.000,0.000,false,false,false,false,false,false,false,false,false,false,false,false,--.--,--.--,--.--,--.--,--.--,--.--,--.--,--.--,-16.6966561,-54.6723314,21KYB 48217 52552,0.5,0.1,116.8,3,28,--.--,--.--,,--.--,--.--,--.--,0,0,--.--,--.--,0,-23.3,-47.5,-8.1,0.1,0.2,-0.0,--.--,--.--,--.--,--.--,--.--,--.--,--.--,--.--,--.--,--.--,--.--,--.--,56.37,57.95,--.--,0,0,3.1,3.9,7.2,0,0,0,180.0,0.0,0.0
2025-01-29 14:09:11.900,-1.4,-0.2,142,0.0,0.0,0.0,0.2,0.3,0.298,0.1,1.7,534.1,1.630,1.572,0.006,0.0,00:00:37,1.1,0,--.--,202,7.2,11,0000:42:12,0,0,0,44.83,41.99,6650,38,50,--.--,--:--:--,1,1882.20,14:09:11,29/01/2025,63.57,--.--,--.--,--.--,--.--,--.--,--.--,--.--,--.--,--.--,--.--,100.00,0,0.000,0.000,0.000,0.000,0.000,0.000,0.000,0.000,0.000,0.000,0.000,0.000,false,false,false,false,false,false,false,false,false,false,false,false,--.--,--.--,--.--,--.--,--.--,--.--,--.--,--.--,-16.6966553,-54.6723300,21KYB 48217 52552,0.5,0.1,49.6,3,28,--.--,--.--,,--.--,--.--,--.--,0,0,--.--,--.--,0,-23.1,-47.4,-8.1,0.2,0.2,-0.1,--.--,--.--,--.--,--.--,--.--,--.--,--.--,--.--,--.--,--.--,--.--,--.--,56.37,57.93,--.--,0,0,2.2,3.7,8.1,0,0,0,180.0,0.0,0.0
2025-01-29 14:09:12.887,-2.7,0.5,142,0.0,0.0,0.0,0.3,0.3,0.248,-0.0,1.7,534.1,1.670,1.665,0.005,0.0,00:00:38,1.3,0,--.--,207,7.3,11,0000:42:12,0,0,0,44.83,41.99,6662,38,50,--.--,--:--:--,1,1882.29,14:09:12,29/01/2025,5.18,--.--,--.--,--.--,--.--,--.--,--.--,--.--,--.--,--.--,--.--,100.00,0,0.000,0.000,0.000,0.000,0.000,0.000,0.000,0.000,0.000,0.000,0.000,0.000,false,false,false,false,false,false,false,false,false,false,false,false,--.--,--.--,--.--,--.--,--.--,--.--,--.--,--.--,-16.6966543,-54.6723286,21KYB 48217 52552,0.5,0.1,59.3,3,28,--.--,--.--,,--.--,--.--,--.--,0,0,--.--,--.--,0,-23.0,-47.2,-8.2,0.2,0.2,-0.0,--.--,--.--,--.--,--.--,--.--,--.--,--.--,--.--,--.--,--.--,--.--,--.--,56.35,57.94,--.--,0,0,2.1,4.7,6.0,0,0,0,180.0,0.0,0.0
2025-01-29 14:09:13.894,-3.3,-0.1,142,0.0,0.0,0.0,0.4,0.4,0.377,-0.0,1.7,534.1,1.660,1.640,0.015,0.0,00:00:39,1.6,0,--.--,210,7.2,11,0000:42:12,0,0,0,44.82,39.98,6673,38,50,--.--,--:--:--,1,1791.90,14:09:13,29/01/2025,2.11,--.--,--.--,--.--,--.--,--.--,--.--,--.--,--.--,--.--,--.--,100.00,0,0.000,0.000,0.000,0.000,0.000,0.000,0.000,0.000,0.000,0.000,0.000,0.000,false,false,false,false,false,false,false,false,false,false,false,false,--.--,--.--,--.--,--.--,--.--,--.--,--.--,--.--,-16.6966534,-54.6723269,21KYB 48217 52553,0.5,0.1,44.9,3,28,--.--,--.--,,--.--,--.--,--.--,0,0,--.--,--.--,0,-22.8,-46.9,-8.2,0.3,0.3,0.0,--.--,--.--,--.--,--.--,--.--,--.--,--.--,--.--,--.--,--.--,--.--,--.--,56.37,57.92,--.--,0,0,2.5,6.8,6.5,0,0,0,180.0,0.0,0.0
2025-01-29 14:09:14.898,-1.2,-0.3,142,0.0,0.0,0.0,0.5,0.6,0.584,0.2,1.8,534.2,1.710,1.634,0.035,2.1,00:00:40,2.1,0,--.--,216,6.6,11,0000:42:12,0,0,0,44.82,40.99,6679,38,49,--.--,--:--:--,1,1837.05,14:09:14,29/01/2025,1.97,--.--,--.--,--.--,--.--,--.--,--.--,--.--,--.--,--.--,--.--,100.00,0,0.000,0.000,0.000,0.000,0.000,0.000,0.000,0.000,0.000,0.000,0.000,0.000,false,false,false,false,false,false,false,false,false,false,false,false,--.--,--.--,--.--,--.--,--.--,--.--,--.--,--.--,-16.6966515,-54.6723242,21KYB 48217 52553,0.5,0.1,50.9,3,28,--.--,--.--,,--.--,--.--,--.--,0,0,--.--,--.--,0,-22.5,-46.5,-8.2,0.3,0.5,-0.2,--.--,--.--,--.--,--.--,--.--,--.--,--.--,--.--,--.--,--.--,--.--,--.--,56.38,57.93,--.--,0,0,1.9,4.0,6.9,0,0,0,180.0,0.0,0.0
2025-01-29 14:09:15.903,-2.3,1.0,142,0.0,0.0,0.0,0.4,0.5,0.523,0.3,2.1,534.5,2.000,1.907,0.034,2.1,00:00:41,2.4,0,--.--,220,6.2,11,0000:42:12,0,0,0,44.81,40.99,6691,38,49,--.--,--:--:--,1,1836.84,14:09:15,29/01/2025,2.33,--.--,--.--,--.--,--.--,--.--,--.--,--.--,--.--,--.--,--.--,100.00,0,0.000,0.000,0.000,0.000,0.000,0.000,0.000,0.000,0.000,0.000,0.000,0.000,false,false,false,false,false,false,false,false,false,false,false,false,--.--,--.--,--.--,--.--,--.--,--.--,--.--,--.--,-16.6966495,-54.6723203,21KYB 48218 52553,0.5,0.1,65.7,3,28,--.--,--.--,,--.--,--.--,--.--,0,0,--.--,--.--,0,-22.3,-46.2,-8.5,0.2,0.3,-0.3,--.--,--.--,--.--,--.--,--.--,--.--,--.--,--.--,--.--,--.--,--.--,--.--,56.38,57.92,--.--,0,0,1.6,4.3,8.4,0,0,0,180.0,0.0,0.0
2025-01-29 14:09:16.892,-1.6,0.6,142,0.0,0.0,0.0,0.4,0.5,0.520,0.3,2.3,534.7,2.260,2.205,0.052,2.1,00:00:42,2.8,0,--.--,222,6.0,11,0000:42:12,0,0,0,44.80,40.99,6703,38,49,--.--,--:--:--,1,1836.47,14:09:16,29/01/2025,2.41,--.--,--.--,--.--,--.--,--.--,--.--,--.--,--.--,--.--,--.--,100.00,0,0.000,0.000,0.000,0.000,0.000,0.000,0.000,0.000,0.000,0.000,0.000,0.000,false,false,false,false,false,false,false,false,false,false,false,false,--.--,--.--,--.--,--.--,--.--,--.--,--.--,--.--,-16.6966480,-54.6723172,21KYB 48218 52553,0.5,0.1,54.5,3,28,--.--,--.--,,--.--,--.--,--.--,0,0,--.--,--.--,0,-22.1,-46.0,-8.7,0.3,0.4,-0.3,--.--,--.--,--.--,--.--,--.--,--.--,--.--,--.--,--.--,--.--,--.--,--.--,56.34,57.88,--.--,0,0,1.7,3.9,6.1,0,0,0,180.0,0.0,0.0
2025-01-29 14:09:17.894,-1.7,0.1,142,0.0,0.0,0.0,0.4,0.5,0.488,0.2,2.6,535.0,2.530,2.465,0.000,2.1,00:00:43,3.2,0,--.--,222,5.6,10,0000:42:12,0,0,0,44.79,40.99,6715,38,49,--.--,--:--:--,1,1835.90,14:09:17,29/01/2025,1.88,--.--,--.--,--.--,--.--,--.--,--.--,--.--,--.--,--.--,--.--,100.00,0,0.000,0.000,0.000,0.000,0.000,0.000,0.000,0.000,0.000,0.000,0.000,0.000,false,false,false,false,false,false,false,false,false,false,false,false,--.--,--.--,--.--,--.--,--.--,--.--,--.--,--.--,-16.6966456,-54.6723143,21KYB 48218 52553,0.5,0.1,43.2,3,28,--.--,--.--,,--.--,--.--,--.--,0,0,--.--,--.--,0,-21.7,-45.6,-9.0,0.3,0.3,-0.2,--.--,--.--,--.--,--.--,--.--,--.--,--.--,--.--,--.--,--.--,--.--,--.--,56.38,57.91,--.--,0,0,1.9,4.1,5.6,0,0,0,180.0,0.0,0.0
2025-01-29 14:09:18.889,-4.4,0.3,142,0.0,0.0,0.0,0.5,0.5,0.438,-0.0,2.6,535.0,2.560,2.574,0.020,2.1,00:00:44,3.5,0,--.--,223,5.5,11,0000:42:12,0,0,0,44.81,39.98,6726,38,49,--.--,--:--:--,1,1791.66,14:09:18,29/01/2025,2.19,--.--,--.--,--.--,--.--,--.--,--.--,--.--,--.--,--.--,--.--,100.00,0,0.000,0.000,0.000,0.000,0.000,0.000,0.000,0.000,0.000,0.000,0.000,0.000,false,false,false,false,false,false,false,false,false,false,false,false,--.--,--.--,--.--,--.--,--.--,--.--,--.--,--.--,-16.6966433,-54.6723116,21KYB 48219 52554,0.5,0.1,52.5,3,28,--.--,--.--,,--.--,--.--,--.--,0,0,--.--,--.--,0,-21.6,-45.4,-9.1,0.3,0.4,0.0,--.--,--.--,--.--,--.--,--.--,--.--,--.--,--.--,--.--,--.--,--.--,--.--,56.40,57.90,--.--,0,0,2.5,2.9,7.7,0,0,0,180.0,0.0,0.0
2025-01-29 14:09:19.897,-3.4,1.2,142,0.0,0.0,0.0,0.9,0.9,0.807,-0.0,2.7,535.0,2.580,2.589,0.018,4.1,00:00:45,4.3,0,--.--,226,5.4,11,0000:42:12,0,0,0,44.81,39.98,6743,38,49,--.--,--:--:--,1,1791.46,14:09:19,29/01/2025,1.78,--.--,--.--,--.--,--.--,--.--,--.--,--.--,--.--,--.--,--.--,100.00,0,0.000,0.000,0.000,0.000,0.000,0.000,0.000,0.000,0.000,0.000,0.000,0.000,false,false,false,false,false,false,false,false,false,false,false,false,--.--,--.--,--.--,--.--,--.--,--.--,--.--,--.--,-16.6966406,-54.6723074,21KYB 48219 52554,0.5,0.1,56.5,3,28,--.--,--.--,,--.--,--.--,--.--,0,0,--.--,--.--,0,-21.1,-44.7,-9.1,0.5,0.7,0.0,--.--,--.--,--.--,--.--,--.--,--.--,--.--,--.--,--.--,--.--,--.--,--.--,56.37,57.89,--.--,0,0,3.4,4.2,7.6,0,0,0,180.0,0.0,0.0
2025-01-29 14:09:20.896,-0.3,2.1,142,0.0,0.0,0.0,0.7,0.7,0.800,-0.0,2.7,535.0,2.580,2.608,0.119,4.1,00:00:46,5.1,0,--.--,226,5.4,11,0000:42:12,0,0,0,44.80,39.98,6749,38,49,--.--,--:--:--,1,1791.22,14:09:20,29/01/2025,1.52,--.--,--.--,--.--,--.--,--.--,--.--,--.--,--.--,--.--,--.--,100.00,0,0.000,0.000,0.000,0.000,0.000,0.000,0.000,0.000,0.000,0.000,0.000,0.000,false,false,false,false,false,false,false,false,false,false,false,false,--.--,--.--,--.--,--.--,--.--,--.--,--.--,--.--,-16.6966365,-54.6723012,21KYB 48220 52554,0.5,0.1,53.1,3,28,--.--,--.--,,--.--,--.--,--.--,0,0,--.--,--.--,0,-20.6,-44.1,-9.1,0.5,0.4,0.0,--.--,--.--,--.--,--.--,--.--,--.--,--.--,--.--,--.--,--.--,--.--,--.--,56.33,57.88,--.--,0,0,4.3,3.8,8.5,0,0,0,180.0,0.0,0.0
2025-01-29 14:09:21.889,-5.4,-0.7,142,0.0,0.0,0.0,0.6,0.6,0.628,-0.0,2.6,535.0,2.570,2.595,0.091,4.1,00:00:47,5.6,0,--.--,224,5.9,11,0000:42:12,0,0,0,44.80,39.98,6766,38,49,--.--,--:--:--,1,1790.90,14:09:21,29/01/2025,1.52,--.--,--.--,--.--,--.--,--.--,--.--,--.--,--.--,--.--,--.--,100.00,0,0.000,0.000,0.000,0.000,0.000,0.000,0.000,0.000,0.000,0.000,0.000,0.000,false,false,false,false,false,false,false,false,false,false,false,false,--.--,--.--,--.--,--.--,--.--,--.--,--.--,--.--,-16.6966318,-54.6722972,21KYB 48220 52555,0.5,0.1,26.4,3,28,--.--,--.--,,--.--,--.--,--.--,0,0,--.--,--.--,0,-20.1,-43.8,-9.1,0.5,0.3,0.0,--.--,--.--,--.--,--.--,--.--,--.--,--.--,--.--,--.--,--.--,--.--,--.--,56.38,57.91,--.--,0,0,2.2,4.4,7.6,0,0,0,180.0,0.0,0.0
2025-01-29 14:09:22.890,-5.0,0.2,142,0.0,0.0,0.0,1.1,1.1,0.964,-0.0,2.6,535.0,2.550,2.536,0.055,6.2,00:00:48,6.5,0,--.--,225,6.2,11,0000:42:12,0,0,0,44.77,40.99,6772,38,49,--.--,--:--:--,1,1835.16,14:09:22,29/01/2025,87.62,--.--,--.--,--.--,--.--,--.--,--.--,--.--,--.--,--.--,--.--,100.00,0,0.000,0.000,0.000,0.000,0.000,0.000,0.000,0.000,0.000,0.000,0.000,0.000,false,false,false,false,false,false,false,false,false,false,false,false,--.--,--.--,--.--,--.--,--.--,--.--,--.--,--.--,-16.6966268,-54.6722937,21KYB 48221 52555,0.5,0.1,43.1,3,28,--.--,--.--,,--.--,--.--,--.--,0,0,--.--,--.--,0,-19.7,-43.5,-9.0,0.6,0.7,-0.0,--.--,--.--,--.--,--.--,--.--,--.--,--.--,--.--,--.--,--.--,--.--,--.--,56.32,57.89,--.--,0,0,2.1,5.1,5.7,0,0,0,180.0,0.0,0.0
2025-01-29 14:09:23.867,-3.8,1.6,142,0.0,0.0,0.0,1.2,1.2,1.209,0.0,2.6,535.0,2.550,2.533,0.029,6.2,00:00:49,7.7,0,--.--,226,6.5,11,0000:42:12,0,0,0,44.78,40.99,6783,38,49,--.--,--:--:--,1,1835.57,14:09:23,29/01/2025,87.62,--.--,--.--,--.--,--.--,--.--,--.--,--.--,--.--,--.--,--.--,100.00,0,0.000,0.000,0.000,0.000,0.000,0.000,0.000,0.000,0.000,0.000,0.000,0.000,false,false,false,false,false,false,false,false,false,false,false,false,--.--,--.--,--.--,--.--,--.--,--.--,--.--,--.--,-16.6966210,-54.6722858,21KYB 48222 52556,0.5,0.1,54.2,3,28,--.--,--.--,,--.--,--.--,--.--,0,0,--.--,--.--,0,-18.8,-42.2,-9.0,0.7,1.0,0.0,--.--,--.--,--.--,--.--,--.--,--.--,--.--,--.--,--.--,--.--,--.--,--.--,56.34,57.91,--.--,0,0,2.5,5.2,9.3,0,0,0,180.0,0.0,0.0
2025-01-29 14:09:24.878,-3.8,1.6,142,0.0,0.0,0.0,1.2,1.2,1.203,0.0,2.6,535.0,2.560,2.568,0.034,8.5,00:00:50,8.8,0,--.--,227,7.6,11,0000:42:12,0,0,0,44.78,39.98,6795,38,49,--.--,--:--:--,1,1790.34,14:09:24,29/01/2025,87.62,--.--,--.--,--.--,--.--,--.--,--.--,--.--,--.--,--.--,--.--,100.00,0,0.000,0.000,0.000,0.000,0.000,0.000,0.000,0.000,0.000,0.000,0.000,0.000,false,false,false,false,false,false,false,false,false,false,false,false,--.--,--.--,--.--,--.--,--.--,--.--,--.--,--.--,-16.6966148,-54.6722771,21KYB 48222 52557,0.5,0.1,53.0,3,28,--.--,--.--,,--.--,--.--,--.--,0,0,--.--,--.--,0,-18.3,-41.6,-9.1,0.7,1.0,-0.0,--.--,--.--,--.--,--.--,--.--,--.--,--.--,--.--,--.--,--.--,--.--,--.--,56.32,57.89,--.--,0,0,2.8,5.2,9.6,0,0,0,180.0,0.0,0.0
2025-01-29 14:09:25.891,-4.1,1.5,142,0.0,0.0,0.0,1.2,1.2,1.216,-0.0,2.6,535.0,2.570,2.574,0.034,8.5,00:00:51,9.6,0,--.--,227,8.3,11,0000:42:12,0,0,0,44.77,39.98,6806,38,49,--.--,--:--:--,1,1790.10,14:09:25,29/01/2025,87.62,--.--,--.--,--.--,--.--,--.--,--.--,--.--,--.--,--.--,--.--,100.00,0,0.000,0.000,0.000,0.000,0.000,0.000,0.000,0.000,0.000,0.000,0.000,0.000,false,false,false,false,false,false,false,false,false,false,false,false,--.--,--.--,--.--,--.--,--.--,--.--,--.--,--.--,-16.6966083,-54.6722684,21KYB 48223 52557,0.5,0.1,51.7,3,28,--.--,--.--,,--.--,--.--,--.--,0,0,--.--,--.--,0,-17.6,-40.7,-9.1,0.7,1.0,0.0,--.--,--.--,--.--,--.--,--.--,--.--,--.--,--.--,--.--,--.--,--.--,--.--,56.36,57.84,--.--,0,0,4.0,3.9,8.2,0,0,0,180.0,0.0,0.0
2025-01-29 14:09:26.878,-3.8,1.9,142,0.0,0.0,0.0,1.2,1.2,1.223,-0.0,2.6,535.0,2.550,2.550,0.035,10.9,00:00:52,11.2,0,--.--,228,8.8,11,0000:42:12,0,0,0,44.79,38.98,6817,38,48,--.--,--:--:--,1,1745.99,14:09:26,29/01/2025,87.62,--.--,--.--,--.--,--.--,--.--,--.--,--.--,--.--,--.--,--.--,100.00,0,0.000,0.000,0.000,0.000,0.000,0.000,0.000,0.000,0.000,0.000,0.000,0.000,false,false,false,false,false,false,false,false,false,false,false,false,--.--,--.--,--.--,--.--,--.--,--.--,--.--,--.--,-16.6966016,-54.6722596,21KYB 48224 52558,0.5,0.1,51.6,3,28,--.--,--.--,,--.--,--.--,--.--,0,0,--.--,--.--,0,-16.6,-39.4,-9.0,0.8,0.9,-0.0,--.--,--.--,--.--,--.--,--.--,--.--,--.--,--.--,--.--,--.--,--.--,--.--,56.34,57.86,--.--,0,0,3.1,3.9,9.6,0,0,0,180.0,0.0,0.0
2025-01-29 14:09:27.886,-4.1,0.7,141,0.0,0.0,0.0,1.2,1.2,1.238,-0.2,2.6,535.0,2.490,2.527,0.001,10.9,00:00:53,12.4,0,--.--,228,9.7,10,0000:42:12,0,0,0,44.75,40.99,6829,38,48,--.--,--:--:--,1,1834.26,14:09:27,29/01/2025,53.43,--.--,--.--,--.--,--.--,--.--,--.--,--.--,--.--,--.--,--.--,100.00,0,0.000,0.000,0.000,0.000,0.000,0.000,0.000,0.000,0.000,0.000,0.000,0.000,false,false,false,false,false,false,false,false,false,false,false,false,--.--,--.--,--.--,--.--,--.--,--.--,--.--,--.--,-16.6965948,-54.6722510,21KYB 48225 52559,0.5,0.1,51.6,3,28,--.--,--.--,,--.--,--.--,--.--,0,0,--.--,--.--,0,-15.9,-38.5,-9.0,0.8,1.0,0.3,--.--,--.--,--.--,--.--,--.--,--.--,--.--,--.--,--.--,--.--,--.--,--.--,56.32,57.80,--.--,0,0,2.9,4.5,9.4,0,0,0,180.0,0.0,0.0
2025-01-29 14:09:28.896,-4.1,2.0,142,0.0,0.0,0.0,1.2,1.2,1.189,0.0,2.4,534.7,2.280,2.239,0.008,13.3,00:00:54,13.6,0,--.--,229,10.2,10,0000:42:12,0,0,0,44.79,34.98,6840,38,48,--.--,--:--:--,1,1566.79,14:09:28,29/01/2025,53.43,--.--,--.--,--.--,--.--,--.--,--.--,--.--,--.--,--.--,--.--,100.00,0,0.000,0.000,0.000,0.000,0.000,0.000,0.000,0.000,0.000,0.000,0.000,0.000,false,false,false,false,false,false,false,false,false,false,false,false,--.--,--.--,--.--,--.--,--.--,--.--,--.--,--.--,-16.6965879,-54.6722424,21KYB 48226 52560,0.5,0.1,52.4,3,28,--.--,--.--,,--.--,--.--,--.--,0,0,--.--,--.--,0,-15.2,-37.5,-8.8,0.7,1.0,0.0,--.--,--.--,--.--,--.--,--.--,--.--,--.--,--.--,--.--,--.--,--.--,--.--,56.33,57.87,--.--,0,0,2.4,5.0,9.2,0,0,0,180.0,0.0,0.0
2025-01-29 14:09:29.887,-4.5,2.5,142,0.0,0.0,0.0,1.2,1.3,1.265,-0.4,2.2,534.6,2.030,2.112,0.049,13.3,00:00:55,14.4,0,--.--,229,10.1,10,0000:42:12,0,0,0,44.81,36.98,6850,38,48,--.--,--:--:--,1,1656.93,14:09:29,29/01/2025,53.43,--.--,--.--,--.--,--.--,--.--,--.--,--.--,--.--,--.--,--.--,100.00,0,0.000,0.000,0.000,0.000,0.000,0.000,0.000,0.000,0.000,0.000,0.000,0.000,false,false,false,false,false,false,false,false,false,false,false,false,--.--,--.--,--.--,--.--,--.--,--.--,--.--,--.--,-16.6965819,-54.6722336,21KYB 48227 52560,0.5,0.1,54.4,3,28,--.--,--.--,,--.--,--.--,--.--,0,0,--.--,--.--,0,-14.7,-36.9,-8.6,0.7,1.0,0.4,--.--,--.--,--.--,--.--,--.--,--.--,--.--,--.--,--.--,--.--,--.--,--.--,56.32,57.84,--.--,0,0,5.4,3.1,10.5,0,0,0,180.0,0.0,0.0
2025-01-29 14:09:30.882,-4.7,2.7,142,0.0,0.0,0.0,1.2,1.2,1.221,0.0,2.0,534.3,1.880,1.835,0.046,15.6,00:00:56,16.0,0,--.--,229,10.7,10,0000:42:12,0,0,0,44.78,37.98,6861,38,48,--.--,--:--:--,1,1700.90,14:09:30,29/01/2025,53.43,--.--,--.--,--.--,--.--,--.--,--.--,--.--,--.--,--.--,--.--,100.00,0,0.000,0.000,0.000,0.000,0.000,0.000,0.000,0.000,0.000,0.000,0.000,0.000,false,false,false,false,false,false,false,false,false,false,false,false,--.--,--.--,--.--,--.--,--.--,--.--,--.--,--.--,-16.6965755,-54.6722249,21KYB 48228 52561,0.5,0.1,51.5,3,28,--.--,--.--,,--.--,--.--,--.--,0,0,--.--,--.--,0,-13.7,-35.6,-8.4,0.7,1.0,-0.0,--.--,--.--,--.--,--.--,--.--,--.--,--.--,--.--,--.--,--.--,--.--,--.--,56.34,57.86,--.--,0,0,5.6,5.0,12.1,0,0,0,180.0,0.0,0.0
2025-01-29 14:09:31.896,4.3,2.9,142,0.0,0.0,0.0,0.9,0.9,1.233,-0.0,2.0,534.4,1.890,1.921,0.041,15.6,00:00:57,17.2,0,--.--,230,11.6,10,0000:42:12,0,0,0,44.80,34.98,6872,38,48,--.--,--:--:--,1,1567.07,14:09:31,29/01/2025,16.04,--.--,--.--,--.--,--.--,--.--,--.--,--.--,--.--,--.--,--.--,100.00,0,0.000,0.000,0.000,0.000,0.000,0.000,0.000,0.000,0.000,0.000,0.000,0.000,false,false,false,false,false,false,false,false,false,false,false,false,--.--,--.--,--.--,--.--,--.--,--.--,--.--,--.--,-16.6965689,-54.6722159,21KYB 48229 52562,0.5,0.1,51.9,3,28,--.--,--.--,,--.--,--.--,--.--,0,0,--.--,--.--,0,-13.0,-34.7,-8.4,0.5,0.7,0.0,--.--,--.--,--.--,--.--,--.--,--.--,--.--,--.--,--.--,--.--,--.--,--.--,56.29,57.86,--.--,0,0,3.0,4.1,10.7,0,0,0,180.0,0.0,0.0
2025-01-29 14:09:32.867,-2.3,3.1,142,0.0,0.0,0.0,0.5,0.5,0.284,-0.1,1.9,534.2,1.780,1.829,0.073,15.6,00:00:58,17.1,0,--.--,230,11.5,10,0000:42:12,0,0,0,44.82,33.98,6882,38,48,--.--,--:--:--,1,1522.92,14:09:32,29/01/2025,16.04,--.--,--.--,--.--,--.--,--.--,--.--,--.--,--.--,--.--,--.--,100.00,0,0.000,0.000,0.000,0.000,0.000,0.000,0.000,0.000,0.000,0.000,0.000,0.000,false,false,false,false,false,false,false,false,false,false,false,false,--.--,--.--,--.--,--.--,--.--,--.--,--.--,--.--,-16.6965648,-54.6722100,21KYB 48230 52562,0.5,0.1,51.5,3,28,--.--,--.--,,--.--,--.--,--.--,0,0,--.--,--.--,0,-13.0,-34.7,-8.3,-0.2,-0.4,0.1,--.--,--.--,--.--,--.--,--.--,--.--,--.--,--.--,--.--,--.--,--.--,--.--,56.28,57.82,--.--,0,0,2.9,4.3,10.6,0,0,0,180.0,0.0,0.0
2025-01-29 14:09:33.891,-7.2,2.1,142,0.0,0.0,0.0,0.1,0.2,0.265,-0.2,1.7,534.1,1.600,1.669,0.010,15.6,00:00:59,16.9,0,--.--,229,11.2,10,0000:42:12,0,0,0,44.80,35.98,6892,38,48,--.--,--:--:--,1,1611.80,14:09:33,29/01/2025,15.92,--.--,--.--,--.--,--.--,--.--,--.--,--.--,--.--,--.--,--.--,100.00,0,0.000,0.000,0.000,0.000,0.000,0.000,0.000,0.000,0.000,0.000,0.000,0.000,false,false,false,false,false,false,false,false,false,false,false,false,--.--,--.--,--.--,--.--,--.--,--.--,--.--,--.--,-16.6965659,-54.6722123,21KYB 48229 52562,0.5,0.1,251.8,3,28,--.--,--.--,,--.--,--.--,--.--,0,0,--.--,--.--,0,-13.1,-34.9,-8.1,0.1,0.0,0.2,--.--,--.--,--.--,--.--,--.--,--.--,--.--,--.--,--.--,--.--,--.--,--.--,56.28,57.83,--.--,0,0,4.1,6.3,10.5,0,0,0,180.0,0.0,0.0
2025-01-29 14:09:34.895,-2.6,1.8,142,0.0,0.0,0.0,0.3,0.4,0.365,-0.2,1.6,534.0,1.530,1.539,0.045,15.6,00:01:00,17.2,0,--.--,229,11.6,9,0000:42:12,0,0,0,44.79,36.98,6897,38,48,--.--,--:--:--,1,1656.48,14:09:34,29/01/2025,15.96,--.--,--.--,--.--,--.--,--.--,--.--,--.--,--.--,--.--,--.--,100.00,0,0.000,0.000,0.000,0.000,0.000,0.000,0.000,0.000,0.000,0.000,0.000,0.000,false,false,false,false,false,false,false,false,false,false,false,false,--.--,--.--,--.--,--.--,--.--,--.--,--.--,--.--,-16.6965645,-54.6722113,21KYB 48230 52562,0.5,0.1,45.5,3,28,--.--,--.--,,--.--,--.--,--.--,0,0,--.--,--.--,0,-12.9,-34.7,-8.0,0.2,0.3,0.1,--.--,--.--,--.--,--.--,--.--,--.--,--.--,--.--,--.--,--.--,--.--,--.--,56.30,57.77,--.--,0,0,3.6,3.8,12.1,0,0,0,180.0,0.0,0.0
2025-01-29 14:09:35.881,-1.9,2.5,142,0.0,0.0,0.0,0.1,0.1,0.331,-0.1,1.3,533.7,1.220,1.269,0.023,15.6,00:01:01,17.5,0,--.--,229,12.0,10,0000:42:12,0,0,0,44.80,33.98,6912,38,48,--.--,--:--:--,1,1522.44,14:09:35,29/01/2025,15.96,--.--,--.--,--.--,--.--,--.--,--.--,--.--,--.--,--.--,--.--,100.00,0,0.000,0.000,0.000,0.000,0.000,0.000,0.000,0.000,0.000,0.000,0.000,0.000,false,false,false,false,false,false,false,false,false,false,false,false,--.--,--.--,--.--,--.--,--.--,--.--,--.--,--.--,-16.6965631,-54.6722089,21KYB 48230 52562,0.5,0.1,69.3,3,28,--.--,--.--,,--.--,--.--,--.--,0,0,--.--,--.--,0,-12.8,-34.4,-7.7,0.0,0.1,0.1,--.--,--.--,--.--,--.--,--.--,--.--,--.--,--.--,--.--,--.--,--.--,--.--,56.29,57.81,--.--,0,0,2.6,4.9,11.3,0,0,0,180.0,0.0,0.0
2025-01-29 14:09:36.883,-4.0,2.5,142,0.0,0.0,0.0,0.0,0.2,0.239,-0.2,1.1,533.5,1.060,1.147,0.013,15.6,00:01:02,17.4,0,--.--,230,12.0,11,0000:42:12,0,0,0,44.82,35.98,6923,38,47,--.--,--:--:--,1,1612.80,14:09:36,29/01/2025,15.96,--.--,--.--,--.--,--.--,--.--,--.--,--.--,--.--,--.--,--.--,100.00,0,0.000,0.000,0.000,0.000,0.000,0.000,0.000,0.000,0.000,0.000,0.000,0.000,false,false,false,false,false,false,false,false,false,false,false,false,--.--,--.--,--.--,--.--,--.--,--.--,--.--,--.--,-16.6965631,-54.6722082,21KYB 48230 52562,0.5,0.1,174.8,3,28,--.--,--.--,,--.--,--.--,--.--,0,0,--.--,--.--,0,-12.8,-34.5,-7.6,0.0,-0.0,0.2,--.--,--.--,--.--,--.--,--.--,--.--,--.--,--.--,--.--,--.--,--.--,--.--,56.29,57.81,--.--,0,0,2.9,5.2,11.4,0,0,0,180.0,0.0,0.0
2025-01-29 14:09:37.904,-3.3,2.0,142,0.0,0.0,0.0,0.1,0.1,0.054,0.0,1.1,533.5,1.050,1.023,0.117,15.6,00:01:03,17.5,0,--.--,229,12.1,10,0000:42:12,0,0,0,44.80,35.98,6933,38,47,--.--,--:--:--,1,1611.98,14:09:37,29/01/2025,15.96,--.--,--.--,--.--,--.--,--.--,--.--,--.--,--.--,--.--,--.--,100.00,0,0.000,0.000,0.000,0.000,0.000,0.000,0.000,0.000,0.000,0.000,0.000,0.000,false,false,false,false,false,false,false,false,false,false,false,false,--.--,--.--,--.--,--.--,--.--,--.--,--.--,--.--,-16.6965628,-54.6722080,21KYB 48230 52562,0.5,0.1,27.8,3,28,--.--,--.--,,--.--,--.--,--.--,0,0,--.--,--.--,0,-12.7,-34.5,-7.5,0.0,0.1,0.0,--.--,--.--,--.--,--.--,--.--,--.--,--.--,--.--,--.--,--.--,--.--,--.--,56.30,57.75,--.--,0,0,1.9,3.4,8.5,0,0,0,180.0,0.0,0.0
2025-01-29 14:09:38.888,-3.1,1.4,142,0.0,0.0,0.0,0.2,0.2,0.162,-0.0,1.1,533.5,1.050,1.084,0.045,15.6,00:01:04,17.5,0,--.--,230,12.3,10,0000:42:12,0,0,0,44.80,36.98,6944,38,47,--.--,--:--:--,1,1656.59,14:09:38,29/01/2025,15.96,--.--,--.--,--.--,--.--,--.--,--.--,--.--,--.--,--.--,--.--,100.00,0,0.000,0.000,0.000,0.000,0.000,0.000,0.000,0.000,0.000,0.000,0.000,0.000,false,false,false,false,false,false,false,false,false,false,false,false,--.--,--.--,--.--,--.--,--.--,--.--,--.--,--.--,-16.6965625,-54.6722074,21KYB 48230 52562,0.5,0.1,110.7,3,28,--.--,--.--,,--.--,--.--,--.--,0,0,--.--,--.--,0,-12.8,-34.3,-7.5,-0.2,0.2,0.0,--.--,--.--,--.--,--.--,--.--,--.--,--.--,--.--,--.--,--.--,--.--,--.--,56.29,57.73,--.--,0,0,4.0,4.7,11.6,0,0,0,180.0,0.0,0.0
2025-01-29 14:09:39.884,-4.0,2.3,142,0.0,0.0,0.0,0.2,0.2,0.238,0.0,1.1,533.5,1.010,0.998,0.082,15.6,00:01:05,17.5,0,--.--,231,12.5,10,0000:42:12,0,0,0,44.80,36.98,6949,38,47,--.--,--:--:--,1,1656.81,14:09:39,29/01/2025,15.96,--.--,--.--,--.--,--.--,--.--,--.--,--.--,--.--,--.--,--.--,100.00,0,0.000,0.000,0.000,0.000,0.000,0.000,0.000,0.000,0.000,0.000,0.000,0.000,false,false,false,false,false,false,false,false,false,false,false,false,--.--,--.--,--.--,--.--,--.--,--.--,--.--,--.--,-16.6965641,-54.6722061,21KYB 48230 52562,0.5,0.1,138.7,3,28,--.--,--.--,,--.--,--.--,--.--,0,0,--.--,--.--,0,-13.1,-34.2,-7.5,-0.2,0.2,-0.0,--.--,--.--,--.--,--.--,--.--,--.--,--.--,--.--,--.--,--.--,--.--,--.--,56.32,57.76,--.--,0,0,3.6,4.9,11.3,0,0,0,180.0,0.0,0.0
2025-01-29 14:09:40.882,-3.4,2.0,142,0.0,0.0,0.0,0.4,0.4,0.360,0.0,1.1,533.5,1.020,0.966,0.057,17.7,00:01:06,17.5,0,--.--,232,12.6,10,0000:42:12,0,0,0,44.80,37.98,6960,38,47,--.--,--:--:--,1,1701.39,14:09:40,29/01/2025,15.96,--.--,--.--,--.--,--.--,--.--,--.--,--.--,--.--,--.--,--.--,100.00,0,0.000,0.000,0.000,0.000,0.000,0.000,0.000,0.000,0.000,0.000,0.000,0.000,false,false,false,false,false,false,false,false,false,false,false,false,--.--,--.--,--.--,--.--,--.--,--.--,--.--,--.--,-16.6965655,-54.6722046,21KYB 48230 52562,0.5,0.1,131.0,3,28,--.--,--.--,,--.--,--.--,--.--,0,0,--.--,--.--,0,-13.3,-34.0,-7.5,-0.3,0.3,-0.0,--.--,--.--,--.--,--.--,--.--,--.--,--.--,--.--,--.--,--.--,--.--,--.--,56.28,57.72,--.--,0,0,3.3,5.2,11.2,0,0,0,180.0,0.0,0.0
2025-01-29 14:09:41.889,-2.8,4.6,142,0.0,0.0,0.0,0.4,0.4,0.461,0.0,1.1,533.5,1.040,1.041,0.014,17.7,00:01:07,17.6,0,--.--,233,12.9,9,0000:42:12,0,0,0,44.76,37.98,6971,38,47,--.--,--:--:--,1,1699.98,14:09:41,29/01/2025,15.96,--.--,--.--,--.--,--.--,--.--,--.--,--.--,--.--,--.--,--.--,100.00,0,0.000,0.000,0.000,0.000,0.000,0.000,0.000,0.000,0.000,0.000,0.000,0.000,false,false,false,false,false,false,false,false,false,false,false,false,--.--,--.--,--.--,--.--,--.--,--.--,--.--,--.--,-16.6965676,-54.6722022,21KYB 48231 52562,0.5,0.1,135.0,3,28,--.--,--.--,,--.--,--.--,--.--,0,0,--.--,--.--,0,-13.5,-33.7,-7.5,-0.3,0.3,-0.0,--.--,--.--,--.--,--.--,--.--,--.--,--.--,--.--,--.--,--.--,--.--,--.--,56.32,57.70,--.--,0,0,4.1,5.0,10.9,0,0,0,180.0,0.0,0.0
2025-01-29 14:09:42.885,-7.4,4.3,143,0.0,0.0,0.0,0.3,0.3,0.176,0.0,1.1,533.5,1.050,1.061,0.015,17.7,00:01:08,17.7,0,--.--,233,12.8,10,0000:42:12,0,0,0,44.77,37.98,6982,38,47,--.--,--:--:--,1,1700.21,14:09:42,29/01/2025,15.96,--.--,--.--,--.--,--.--,--.--,--.--,--.--,--.--,--.--,--.--,100.00,0,0.000,0.000,0.000,0.000,0.000,0.000,0.000,0.000,0.000,0.000,0.000,0.000,false,false,false,false,false,false,false,false,false,false,false,false,--.--,--.--,--.--,--.--,--.--,--.--,--.--,--.--,-16.6965697,-54.6722001,21KYB 48231 52562,0.5,0.1,122.0,3,28,--.--,--.--,,--.--,--.--,--.--,0,0,--.--,--.--,0,-13.5,-33.6,-7.5,0.2,0.2,0.0,--.--,--.--,--.--,--.--,--.--,--.--,--.--,--.--,--.--,--.--,--.--,--.--,56.27,57.75,--.--,0,0,3.1,4.6,10.0,0,0,0,180.0,0.0,0.0
2025-01-29 14:09:43.905,-4.3,3.2,142,0.0,0.0,0.0,0.7,0.7,0.660,0.0,1.1,533.5,1.050,1.080,0.093,17.7,00:01:09,18.3,0,--.--,233,13.2,9,0000:42:12,0,0,0,44.78,36.98,6993,38,46,--.--,--:--:--,1,1656.15,14:09:43,29/01/2025,15.96,--.--,--.--,--.--,--.--,--.--,--.--,--.--,--.--,--.--,--.--,100.00,0,0.000,0.000,0.000,0.000,0.000,0.000,0.000,0.000,0.000,0.000,0.000,0.000,false,false,false,false,false,false,false,false,false,false,false,false,--.--,--.--,--.--,--.--,--.--,--.--,--.--,--.--,-16.6965678,-54.6721971,21KYB 48231 52562,0.5,0.1,47.5,3,28,--.--,--.--,,--.--,--.--,--.--,0,0,--.--,--.--,0,-13.2,-33.1,-7.5,0.4,0.5,0.0,--.--,--.--,--.--,--.--,--.--,--.--,--.--,--.--,--.--,--.--,--.--,--.--,56.32,57.69,--.--,0,0,5.9,6.0,12.5,0,0,0,180.0,0.0,0.0
2025-01-29 14:09:44.888,-3.7,2.9,142,0.0,0.0,0.0,0.6,0.6,0.601,-0.0,1.1,533.5,1.040,1.039,0.094,17.7,00:01:10,18.9,0,--.--,233,13.6,10,0000:42:12,0,0,0,44.79,35.98,7003,38,46,--.--,--:--:--,1,1611.40,14:09:44,29/01/2025,15.96,--.--,--.--,--.--,--.--,--.--,--.--,--.--,--.--,--.--,--.--,100.00,0,0.000,0.000,0.000,0.000,0.000,0.000,0.000,0.000,0.000,0.000,0.000,0.000,false,false,false,false,false,false,false,false,false,false,false,false,--.--,--.--,--.--,--.--,--.--,--.--,--.--,--.--,-16.6965647,-54.6721923,21KYB 48232 52562,0.5,0.1,55.3,3,28,--.--,--.--,,--.--,--.--,--.--,0,0,--.--,--.--,0,-12.8,-32.6,-7.5,0.3,0.5,0.0,--.--,--.--,--.--,--.--,--.--,--.--,--.--,--.--,--.--,--.--,--.--,--.--,56.32,57.70,--.--,0,0,1.7,3.5,11.8,0,0,0,180.0,0.0,0.0
2025-01-29 14:09:45.886,-4.1,3.4,142,0.0,0.0,0.0,0.6,0.7,0.634,-0.4,1.0,533.3,0.870,1.003,0.056,19.7,00:01:11,19.4,0,--.--,233,13.7,10,0000:42:12,0,0,0,44.79,36.98,7013,38,46,--.--,--:--:--,1,1656.48,14:09:45,29/01/2025,15.96,--.--,--.--,--.--,--.--,--.--,--.--,--.--,--.--,--.--,--.--,100.00,0,0.000,0.000,0.000,0.000,0.000,0.000,0.000,0.000,0.000,0.000,0.000,0.000,false,false,false,false,false,false,false,false,false,false,false,false,--.--,--.--,--.--,--.--,--.--,--.--,--.--,--.--,-16.6965622,-54.6721880,21KYB 48232 52562,0.5,0.1,57.3,3,28,--.--,--.--,,--.--,--.--,--.--,0,0,--.--,--.--,0,-12.5,-32.2,-7.4,0.4,0.5,0.4,--.--,--.--,--.--,--.--,--.--,--.--,--.--,--.--,--.--,--.--,--.--,--.--,56.29,57.69,--.--,0,0,4.4,6.7,9.7,0,0,0,180.0,0.0,0.0
2025-01-29 14:09:46.894,-4.0,1.9,142,0.0,0.0,0.0,0.6,0.6,0.623,0.0,0.7,533.1,0.650,0.630,0.037,19.7,00:01:12,20.0,0,--.--,233,14.0,10,0000:42:12,0,0,0,44.70,38.98,7024,38,46,--.--,--:--:--,1,1742.29,14:09:46,29/01/2025,3.13,--.--,--.--,--.--,--.--,--.--,--.--,--.--,--.--,--.--,--.--,100.00,0,0.000,0.000,0.000,0.000,0.000,0.000,0.000,0.000,0.000,0.000,0.000,0.000,false,false,false,false,false,false,false,false,false,false,false,false,--.--,--.--,--.--,--.--,--.--,--.--,--.--,--.--,-16.6965597,-54.6721836,21KYB 48232 52563,0.5,0.1,49.1,3,28,--.--,--.--,,--.--,--.--,--.--,0,0,--.--,--.--,0,-12.2,-31.7,-7.1,0.4,0.5,0.1,--.--,--.--,--.--,--.--,--.--,--.--,--.--,--.--,--.--,--.--,--.--,--.--,56.30,57.70,--.--,0,0,3.5,5.7,9.9,0,0,0,180.0,0.0,0.0
2025-01-29 14:09:47.890,-4.2,2.1,142,0.0,0.0,0.0,0.9,0.9,0.765,0.0,0.8,533.1,0.680,0.701,0.027,19.7,00:01:13,20.7,0,--.--,233,14.2,9,0000:42:12,0,0,0,44.76,38.98,7035,38,46,--.--,--:--:--,1,1744.67,14:09:47,29/01/2025,3.13,--.--,--.--,--.--,--.--,--.--,--.--,--.--,--.--,--.--,--.--,100.00,0,0.000,0.000,0.000,0.000,0.000,0.000,0.000,0.000,0.000,0.000,0.000,0.000,false,false,false,false,false,false,false,false,false,false,false,false,--.--,--.--,--.--,--.--,--.--,--.--,--.--,--.--,-16.6965564,-54.6721789,21KYB 48233 52563,0.5,0.1,52.9,3,28,--.--,--.--,,--.--,--.--,--.--,0,0,--.--,--.--,0,-11.7,-31.1,-7.2,0.5,0.7,-0.0,--.--,--.--,--.--,--.--,--.--,--.--,--.--,--.--,--.--,--.--,--.--,--.--,56.30,57.69,--.--,0,0,2.7,4.5,11.0,0,0,0,180.0,0.0,0.0
2025-01-29 14:09:48.895,-0.4,3.1,142,0.0,0.0,0.0,0.8,0.8,0.864,-0.0,0.8,533.1,0.680,0.721,0.013,21.9,00:01:14,21.6,0,--.--,233,14.2,10,0000:42:12,0,0,0,44.78,36.98,7046,38,46,--.--,--:--:--,1,1655.82,14:09:48,29/01/2025,3.13,--.--,--.--,--.--,--.--,--.--,--.--,--.--,--.--,--.--,--.--,100.00,0,0.000,0.000,0.000,0.000,0.000,0.000,0.000,0.000,0.000,0.000,0.000,0.000,false,false,false,false,false,false,false,false,false,false,false,false,--.--,--.--,--.--,--.--,--.--,--.--,--.--,--.--,-16.6965521,-54.6721726,21KYB 48234 52564,0.5,0.1,53.2,3,28,--.--,--.--,,--.--,--.--,--.--,0,0,--.--,--.--,0,-11.2,-30.4,-7.2,0.5,0.6,0.0,--.--,--.--,--.--,--.--,--.--,--.--,--.--,--.--,--.--,--.--,--.--,--.--,56.32,57.67,--.--,0,0,2.7,4.2,10.0,0,0,0,180.0,0.0,0.0
2025-01-29 14:09:49.890,1.5,1.0,142,0.0,0.0,0.0,0.2,0.2,0.104,-0.0,0.7,533.1,0.670,0.696,0.040,21.9,00:01:15,21.8,0,--.--,233,13.4,10,0000:42:12,0,0,0,44.77,35.98,7056,38,46,--.--,--:--:--,1,1610.82,14:09:49,29/01/2025,3.13,--.--,--.--,--.--,--.--,--.--,--.--,--.--,--.--,--.--,--.--,100.00,0,0.000,0.000,0.000,0.000,0.000,0.000,0.000,0.000,0.000,0.000,0.000,0.000,false,false,false,false,false,false,false,false,false,false,false,false,--.--,--.--,--.--,--.--,--.--,--.--,--.--,--.--,-16.6965483,-54.6721677,21KYB 48234 52564,0.5,0.1,43.0,3,28,--.--,--.--,,--.--,--.--,--.--,0,0,--.--,--.--,0,-11.1,-30.2,-7.2,-0.1,-0.1,0.0,--.--,--.--,--.--,--.--,--.--,--.--,--.--,--.--,--.--,--.--,--.--,--.--,56.28,57.65,--.--,0,0,3.6,4.2,7.4,0,0,0,180.0,0.0,0.0
