Timestamp,roll,pitch,heading,rollRate,pitchRate,yawRate,groundSpeed,airSpeed,airSpeedSetpoint,climbRate,altitudeRelative,altitudeAMSL,altitudeTuning,altitudeTuningSetpoint,xTrackError,flightDistance,flightTime,distanceToHome,missionItemIndex,headingToNextWP,headingToHome,distanceToGCS,throttlePct,hobbs,battery0.id,battery0.batteryFunction,battery0.batteryType,battery0.voltage,battery0.current,battery0.mahConsumed,battery0.temperature,battery0.percentRemaining,battery0.timeRemaining,battery0.timeRemainingStr,battery0.chargeState,battery0.instantPower,clock.currentTime,clock.currentDate,distanceSensor.rotationNone,distanceSensor.rotationYaw45,distanceSensor.rotationYaw90,distanceSensor.rotationYaw135,distanceSensor.rotationYaw180,distanceSensor.rotationYaw225,distanceSensor.rotationYaw270,distanceSensor.rotationYaw315,distanceSensor.rotationPitch90,distanceSensor.rotationPitch270,distanceSensor.minDistance,distanceSensor.maxDistance,escStatus.index,escStatus.rpm1,escStatus.rpm2,escStatus.rpm3,escStatus.rpm4,escStatus.current1,escStatus.current2,escStatus.current3,escStatus.current4,escStatus.voltage1,escStatus.voltage2,escStatus.voltage3,escStatus.voltage4,estimatorStatus.goodAttitudeEsimate,estimatorStatus.goodHorizVelEstimate,estimatorStatus.goodVertVelEstimate,estimatorStatus.goodHorizPosRelEstimate,estimatorStatus.goodHorizPosAbsEstimate,estimatorStatus.goodVertPosAbsEstimate,estimatorStatus.goodVertPosAGLEstimate,estimatorStatus.goodConstPosModeEstimate,estimatorStatus.goodPredHorizPosRelEstimate,estimatorStatus.goodPredHorizPosAbsEstimate,estimatorStatus.gpsGlitch,estimatorStatus.accelError,estimatorStatus.velRatio,estimatorStatus.horizPosRatio,estimatorStatus.vertPosRatio,estimatorStatus.magRatio,estimatorStatus.haglRatio,estimatorStatus.tasRatio,estimatorStatus.horizPosAccuracy,estimatorStatus.vertPosAccuracy,gps.lat,gps.lon,gps.mgrs,gps.hdop,gps.vdop,gps.courseOverGround,gps.lock,gps.count,gps2.lat,gps2.lon,gps2.mgrs,gps2.hdop,gps2.vdop,gps2.courseOverGround,gps2.lock,gps2.count,hygrometer.temperature,hygrometer.humidity,hygrometer.hygrometerid,localPosition.x,localPosition.y,localPosition.z,localPosition.vx,localPosition.vy,localPosition.vz,localPositionSetpoint.x,localPositionSetpoint.y,localPositionSetpoint.z,localPositionSetpoint.vx,localPositionSetpoint.vy,localPositionSetpoint.vz,setpoint.roll,setpoint.pitch,setpoint.yaw,setpoint.rollRate,setpoint.pitchRate,setpoint.yawRate,temperature.temperature1,temperature.temperature2,temperature.temperature3,terrain.blocksPending,terrain.blocksLoaded,vibration.xAxis,vibration.yAxis,vibration.zAxis,vibration.clipCount1,vibration.clipCount2,vibration.clipCount3,wind.direction,wind.speed,wind.verticalSpeed
2025-01-24 15:38:57.919,-0.3,-1.0,298,0.0,0.0,0.0,0.0,0.0,0.003,-0.0,0.0,584.4,-0.290,-0.280,0.000,0.0,00:00:00,0.0,0,--.--,--.--,4.5,0,0000:32:01,0,0,0,45.76,0.00,0,38,67,--.--,--:--:--,1,0.00,15:38:57,24/01/2025,5.86,--.--,--.--,--.--,--.--,--.--,--.--,--.--,--.--,--.--,--.--,100.00,0,0.000,0.000,0.000,0.000,0.000,0.000,0.000,0.000,0.000,0.000,0.000,0.000,false,false,false,false,false,false,false,false,false,false,false,false,--.--,--.--,--.--,--.--,--.--,--.--,--.--,--.--,-23.2556805,-47.2987475,23KKQ 64823 26312,0.5,0.1,90.0,3,28,--.--,--.--,,--.--,--.--,--.--,0,0,--.--,--.--,0,-0.5,-0.5,3.3,0.0,0.0,0.0,--.--,--.--,--.--,--.--,--.--,--.--,--.--,--.--,--.--,--.--,--.--,--.--,44.39,45.62,--.--,0,0,0.0,0.0,0.0,0,0,0,180.0,0.0,0.0
2025-01-24 15:38:58.911,-0.3,-1.0,298,0.0,0.0,0.0,0.0,0.0,0.003,-0.0,-0.0,584.4,-0.290,-0.290,0.000,0.0,00:00:01,0.0,0,--.--,--.--,4.5,0,0000:32:01,0,0,0,45.76,0.00,0,38,67,--.--,--:--:--,1,0.00,15:38:58,24/01/2025,5.86,--.--,--.--,--.--,--.--,--.--,--.--,--.--,--.--,--.--,--.--,100.00,0,0.000,0.000,0.000,0.000,0.000,0.000,0.000,0.000,0.000,0.000,0.000,0.000,false,false,false,false,false,false,false,false,false,false,false,false,--.--,--.--,--.--,--.--,--.--,--.--,--.--,--.--,-23.2556805,-47.2987476,23KKQ 64823 26312,0.5,0.1,0.0,3,28,--.--,--.--,,--.--,--.--,--.--,0,0,--.--,--.--,0,-0.5,-0.5,3.3,0.0,-0.0,0.0,--.--,--.--,--.--,--.--,--.--,--.--,--.--,--.--,--.--,--.--,--.--,--.--,44.41,45.67,--.--,0,0,0.0,0.0,0.0,0,0,0,180.0,0.0,0.0
2025-01-24 15:38:59.899,-0.3,-1.0,298,0.0,0.0,0.0,0.0,0.0,0.003,-0.0,-0.0,584.4,-0.290,-0.290,0.000,0.0,00:00:02,0.0,0,--.--,--.--,4.5,0,0000:32:01,0,0,0,45.76,0.00,0,38,67,--.--,--:--:--,1,0.00,15:38:59,24/01/2025,5.86,--.--,--.--,--.--,--.--,--.--,--.--,--.--,--.--,--.--,--.--,100.00,0,0.000,0.000,0.000,0.000,0.000,0.000,0.000,0.000,0.000,0.000,0.000,0.000,false,false,false,false,false,false,false,false,false,false,false,false,--.--,--.--,--.--,--.--,--.--,--.--,--.--,--.--,-23.2556805,-47.2987477,23KKQ 64823 26312,0.5,0.1,45.0,3,28,--.--,--.--,,--.--,--.--,--.--,0,0,--.--,--.--,0,-0.5,-0.5,3.3,0.0,-0.0,0.0,--.--,--.--,--.--,--.--,--.--,--.--,--.--,--.--,--.--,--.--,--.--,--.--,44.44,45.67,--.--,0,0,0.0,0.0,0.0,0,0,0,180.0,0.0,0.0
2025-01-24 15:39:00.899,-0.3,-1.0,298,0.0,0.0,0.0,0.0,0.0,0.005,-0.0,-0.0,584.4,-0.300,-0.300,0.000,0.0,00:00:02,0.0,0,--.--,--.--,4.7,0,0000:32:01,0,0,0,45.76,0.00,0,38,67,--.--,--:--:--,1,0.00,15:39:00,24/01/2025,5.86,--.--,--.--,--.--,--.--,--.--,--.--,--.--,--.--,--.--,--.--,100.00,0,0.000,0.000,0.000,0.000,0.000,0.000,0.000,0.000,0.000,0.000,0.000,0.000,false,false,false,false,false,false,false,false,false,false,false,false,--.--,--.--,--.--,--.--,--.--,--.--,--.--,--.--,-23.2556804,-47.2987478,23KKQ 64823 26312,0.5,0.1,315.0,3,28,--.--,--.--,,--.--,--.--,--.--,0,0,--.--,--.--,0,-0.5,-0.5,3.3,0.0,-0.0,0.0,--.--,--.--,--.--,--.--,--.--,--.--,--.--,--.--,--.--,--.--,--.--,--.--,44.55,45.61,--.--,0,0,0.0,0.0,0.0,0,0,0,180.0,0.0,0.0
2025-01-24 15:39:01.909,-0.3,-0.9,298,0.0,0.0,0.0,0.0,0.0,0.008,-0.0,-0.0,584.4,-0.300,-0.300,0.000,0.0,00:00:03,0.1,0,--.--,--.--,5.5,0,0000:32:01,0,0,0,45.75,0.00,0,38,67,--.--,--:--:--,1,0.00,15:39:01,24/01/2025,5.87,--.--,--.--,--.--,--.--,--.--,--.--,--.--,--.--,--.--,--.--,100.00,0,0.000,0.000,0.000,0.000,0.000,0.000,0.000,0.000,0.000,0.000,0.000,0.000,false,false,false,false,false,false,false,false,false,false,false,false,--.--,--.--,--.--,--.--,--.--,--.--,--.--,--.--,-23.2556804,-47.2987479,23KKQ 64823 26312,0.5,0.1,180.0,3,28,--.--,--.--,,--.--,--.--,--.--,0,0,--.--,--.--,0,-0.5,-0.5,3.3,0.0,-0.0,0.0,--.--,--.--,--.--,--.--,--.--,--.--,--.--,--.--,--.--,--.--,--.--,--.--,44.48,45.66,--.--,0,0,0.8,1.1,1.2,0,0,0,180.0,0.0,0.0
2025-01-24 15:39:02.900,-0.3,-1.0,298,0.0,0.0,0.0,0.0,0.0,0.007,-0.0,-0.0,584.4,-0.300,-0.300,0.000,0.0,00:00:04,0.1,0,--.--,--.--,5.1,0,0000:32:01,0,0,0,45.67,3.99,0,38,67,--.--,--:--:--,1,182.24,15:39:02,24/01/2025,5.71,--.--,--.--,--.--,--.--,--.--,--.--,--.--,--.--,--.--,--.--,100.00,0,0.000,0.000,0.000,0.000,0.000,0.000,0.000,0.000,0.000,0.000,0.000,0.000,false,false,false,false,false,false,false,false,false,false,false,false,--.--,--.--,--.--,--.--,--.--,--.--,--.--,--.--,-23.2556804,-47.2987479,23KKQ 64823 26312,0.5,0.1,135.0,3,28,--.--,--.--,,--.--,--.--,--.--,0,0,--.--,--.--,0,-0.5,-0.5,3.3,0.0,-0.0,0.0,--.--,--.--,--.--,--.--,--.--,--.--,--.--,--.--,--.--,--.--,--.--,--.--,44.47,45.69,--.--,0,0,1.2,1.0,1.0,0,0,0,180.0,0.0,0.0
2025-01-24 15:39:03.909,-0.2,-1.0,297,0.0,0.0,0.0,0.0,0.0,0.016,-0.0,-0.0,584.4,-0.310,-0.310,0.000,0.0,00:00:05,0.1,0,--.--,--.--,5.0,0,0000:32:01,0,0,0,45.68,4.98,1,38,67,--.--,--:--:--,1,227.48,15:39:03,24/01/2025,5.87,--.--,--.--,--.--,--.--,--.--,--.--,--.--,--.--,--.--,--.--,100.00,0,0.000,0.000,0.000,0.000,0.000,0.000,0.000,0.000,0.000,0.000,0.000,0.000,false,false,false,false,false,false,false,false,false,false,false,false,--.--,--.--,--.--,--.--,--.--,--.--,--.--,--.--,-23.2556803,-47.2987479,23KKQ 64823 26312,0.5,0.1,135.0,3,28,--.--,--.--,,--.--,--.--,--.--,0,0,--.--,--.--,0,-0.4,-0.5,3.4,0.0,0.0,0.0,--.--,--.--,--.--,--.--,--.--,--.--,--.--,--.--,--.--,--.--,--.--,--.--,44.47,45.68,--.--,0,0,0.8,1.0,1.0,0,0,0,180.0,0.0,0.0
2025-01-24 15:39:04.898,-0.1,-1.0,297,0.0,0.0,0.0,0.0,0.0,0.037,-0.0,-0.0,584.4,-0.310,-0.310,0.000,0.0,00:00:06,0.1,0,--.--,--.--,4.8,0,0000:32:01,0,0,0,45.67,4.98,2,38,67,--.--,--:--:--,1,227.43,15:39:04,24/01/2025,5.87,--.--,--.--,--.--,--.--,--.--,--.--,--.--,--.--,--.--,--.--,100.00,0,0.000,0.000,0.000,0.000,0.000,0.000,0.000,0.000,0.000,0.000,0.000,0.000,false,false,false,false,false,false,false,false,false,false,false,false,--.--,--.--,--.--,--.--,--.--,--.--,--.--,--.--,-23.2556802,-47.2987480,23KKQ 64823 26312,0.5,0.1,180.0,3,28,--.--,--.--,,--.--,--.--,--.--,0,0,--.--,--.--,0,-0.4,-0.5,3.4,0.0,0.0,0.0,--.--,--.--,--.--,--.--,--.--,--.--,--.--,--.--,--.--,--.--,--.--,--.--,44.51,45.73,--.--,0,0,0.9,1.0,0.8,0,0,0,180.0,0.0,0.0
2025-01-24 15:39:05.907,-0.2,-1.0,297,0.0,0.0,0.0,0.0,0.0,0.049,-0.0,-0.0,584.4,-0.310,-0.310,0.000,0.0,00:00:07,0.1,0,--.--,--.--,4.6,0,0000:32:01,0,0,0,45.67,4.98,4,38,67,--.--,--:--:--,1,227.42,15:39:05,24/01/2025,5.88,--.--,--.--,--.--,--.--,--.--,--.--,--.--,--.--,--.--,--.--,100.00,0,0.000,0.000,0.000,0.000,0.000,0.000,0.000,0.000,0.000,0.000,0.000,0.000,false,false,false,false,false,false,false,false,false,false,false,false,--.--,--.--,--.--,--.--,--.--,--.--,--.--,--.--,-23.2556802,-47.2987480,23KKQ 64823 26312,0.5,0.1,63.4,3,28,--.--,--.--,,--.--,--.--,--.--,0,0,--.--,--.--,0,-0.4,-0.5,3.4,0.1,-0.0,-0.0,--.--,--.--,--.--,--.--,--.--,--.--,--.--,--.--,--.--,--.--,--.--,--.--,44.53,45.65,--.--,0,0,1.4,1.7,1.6,0,0,0,180.0,0.0,0.0
2025-01-24 15:39:06.901,-0.2,-1.0,297,0.0,0.0,0.0,0.0,0.0,0.031,-0.0,-0.0,584.4,-0.310,-0.310,0.000,0.0,00:00:08,0.1,0,--.--,--.--,4.5,0,0000:32:01,0,0,0,45.66,4.98,5,38,67,--.--,--:--:--,1,227.40,15:39:06,24/01/2025,5.89,--.--,--.--,--.--,--.--,--.--,--.--,--.--,--.--,--.--,--.--,100.00,0,0.000,0.000,0.000,0.000,0.000,0.000,0.000,0.000,0.000,0.000,0.000,0.000,false,false,false,false,false,false,false,false,false,false,false,false,--.--,--.--,--.--,--.--,--.--,--.--,--.--,--.--,-23.2556801,-47.2987480,23KKQ 64823 26312,0.5,0.1,90.0,3,28,--.--,--.--,,--.--,--.--,--.--,0,0,--.--,--.--,0,-0.4,-0.5,3.4,0.0,0.0,0.0,--.--,--.--,--.--,--.--,--.--,--.--,--.--,--.--,--.--,--.--,--.--,--.--,44.53,45.71,--.--,0,0,1.2,0.9,0.8,0,0,0,180.0,0.0,0.0
2025-01-24 15:39:07.907,-0.2,-1.0,297,0.0,0.0,0.0,0.0,0.0,0.033,-0.0,-0.0,584.4,-0.310,-0.310,0.000,0.0,00:00:09,0.1,0,--.--,--.--,4.6,0,0000:32:01,0,0,0,45.68,4.98,7,38,67,--.--,--:--:--,1,227.48,15:39:07,24/01/2025,5.87,--.--,--.--,--.--,--.--,--.--,--.--,--.--,--.--,--.--,--.--,100.00,0,0.000,0.000,0.000,0.000,0.000,0.000,0.000,0.000,0.000,0.000,0.000,0.000,false,false,false,false,false,false,false,false,false,false,false,false,--.--,--.--,--.--,--.--,--.--,--.--,--.--,--.--,-23.2556800,-47.2987480,23KKQ 64823 26312,0.5,0.1,0.0,3,28,--.--,--.--,,--.--,--.--,--.--,0,0,--.--,--.--,0,-0.4,-0.5,3.4,0.0,0.0,0.0,--.--,--.--,--.--,--.--,--.--,--.--,--.--,--.--,--.--,--.--,--.--,--.--,44.55,45.73,--.--,0,0,0.4,0.5,0.3,0,0,0,180.0,0.0,0.0
2025-01-24 15:39:08.898,-0.2,-1.0,297,0.0,0.0,0.0,0.0,0.0,0.040,-0.0,-0.0,584.4,-0.300,-0.300,0.000,0.0,00:00:10,0.1,0,--.--,--.--,4.5,0,0000:32:01,0,0,0,45.72,0.00,8,38,67,--.--,--:--:--,1,0.00,15:39:08,24/01/2025,5.87,--.--,--.--,--.--,--.--,--.--,--.--,--.--,--.--,--.--,--.--,100.00,0,0.000,0.000,0.000,0.000,0.000,0.000,0.000,0.000,0.000,0.000,0.000,0.000,false,false,false,false,false,false,false,false,false,false,false,false,--.--,--.--,--.--,--.--,--.--,--.--,--.--,--.--,-23.2556800,-47.2987481,23KKQ 64823 26312,0.5,0.1,333.4,3,28,--.--,--.--,,--.--,--.--,--.--,0,0,--.--,--.--,0,-0.4,-0.5,3.3,0.0,0.0,0.0,--.--,--.--,--.--,--.--,--.--,--.--,--.--,--.--,--.--,--.--,--.--,--.--,44.55,45.73,--.--,0,0,0.2,0.1,0.1,0,0,0,180.0,0.0,0.0
2025-01-24 15:39:09.908,-0.2,-1.0,297,0.0,0.0,0.0,0.0,0.0,0.028,0.0,-0.0,584.4,-0.290,-0.290,0.000,0.0,00:00:11,0.1,0,--.--,--.--,4.4,0,0000:32:01,0,0,0,45.73,0.00,8,38,67,--.--,--:--:--,1,0.00,15:39:09,24/01/2025,5.87,--.--,--.--,--.--,--.--,--.--,--.--,--.--,--.--,--.--,--.--,100.00,0,0.000,0.000,0.000,0.000,0.000,0.000,0.000,0.000,0.000,0.000,0.000,0.000,false,false,false,false,false,false,false,false,false,false,false,false,--.--,--.--,--.--,--.--,--.--,--.--,--.--,--.--,-23.2556799,-47.2987482,23KKQ 64823 26312,0.5,0.1,0.0,3,28,--.--,--.--,,--.--,--.--,--.--,0,0,--.--,--.--,0,-0.4,-0.5,3.3,0.0,0.0,-0.0,--.--,--.--,--.--,--.--,--.--,--.--,--.--,--.--,--.--,--.--,--.--,--.--,44.52,45.78,--.--,0,0,0.6,0.2,0.2,0,0,0,180.0,0.0,0.0
2025-01-24 15:39:10.901,-0.3,-1.0,297,0.0,0.0,0.0,0.0,0.0,0.021,0.0,0.0,584.4,-0.280,-0.280,0.000,0.0,00:00:12,0.1,0,--.--,--.--,4.3,0,0000:32:01,0,0,0,45.65,5.99,8,38,67,--.--,--:--:--,1,273.43,15:39:10,24/01/2025,5.88,--.--,--.--,--.--,--.--,--.--,--.--,--.--,--.--,--.--,--.--,100.00,0,0.000,0.000,0.000,0.000,0.000,0.000,0.000,0.000,0.000,0.000,0.000,0.000,false,false,false,false,false,false,false,false,false,false,false,false,--.--,--.--,--.--,--.--,--.--,--.--,--.--,--.--,-23.2556798,-47.2987483,23KKQ 64823 26312,0.5,0.1,0.0,3,28,--.--,--.--,,--.--,--.--,--.--,0,0,--.--,--.--,0,-0.4,-0.6,3.3,0.0,0.0,-0.0,--.--,--.--,--.--,--.--,--.--,--.--,--.--,--.--,--.--,--.--,--.--,--.--,44.59,45.76,--.--,0,0,1.6,1.1,1.1,0,0,0,180.0,0.0,0.0
2025-01-24 15:39:11.911,-0.3,-0.9,297,0.0,0.0,0.0,0.0,0.0,0.019,-0.0,0.0,584.4,-0.270,-0.280,0.000,0.0,00:00:13,0.1,0,--.--,--.--,4.3,0,0000:32:01,0,0,0,45.66,4.98,10,38,67,--.--,--:--:--,1,227.38,15:39:11,24/01/2025,5.88,--.--,--.--,--.--,--.--,--.--,--.--,--.--,--.--,--.--,--.--,100.00,0,0.000,0.000,0.000,0.000,0.000,0.000,0.000,0.000,0.000,0.000,0.000,0.000,false,false,false,false,false,false,false,false,false,false,false,false,--.--,--.--,--.--,--.--,--.--,--.--,--.--,--.--,-23.2556797,-47.2987483,23KKQ 64823 26312,0.5,0.1,45.0,3,28,--.--,--.--,,--.--,--.--,--.--,0,0,--.--,--.--,0,-0.4,-0.6,3.3,0.0,0.0,0.0,--.--,--.--,--.--,--.--,--.--,--.--,--.--,--.--,--.--,--.--,--.--,--.--,44.51,45.76,--.--,0,0,1.3,1.1,1.0,0,0,0,180.0,0.0,0.0
2025-01-24 15:39:12.901,-0.3,-1.0,297,0.0,0.0,0.0,0.0,0.0,0.014,0.0,0.0,584.4,-0.270,-0.270,0.000,0.0,00:00:14,0.1,0,--.--,--.--,4.2,0,0000:32:01,0,0,0,45.65,4.98,11,38,66,--.--,--:--:--,1,227.35,15:39:12,24/01/2025,5.90,--.--,--.--,--.--,--.--,--.--,--.--,--.--,--.--,--.--,--.--,100.00,0,0.000,0.000,0.000,0.000,0.000,0.000,0.000,0.000,0.000,0.000,0.000,0.000,false,false,false,false,false,false,false,false,false,false,false,false,--.--,--.--,--.--,--.--,--.--,--.--,--.--,--.--,-23.2556797,-47.2987484,23KKQ 64823 26312,0.5,0.1,56.3,3,28,--.--,--.--,,--.--,--.--,--.--,0,0,--.--,--.--,0,-0.4,-0.6,3.3,0.0,-0.0,-0.0,--.--,--.--,--.--,--.--,--.--,--.--,--.--,--.--,--.--,--.--,--.--,--.--,44.56,45.75,--.--,0,0,1.4,1.0,0.8,0,0,0,180.0,0.0,0.0
2025-01-24 15:39:13.908,-0.3,-1.0,296,0.0,0.0,0.0,0.0,0.0,0.026,0.0,0.0,584.4,-0.260,-0.260,0.000,0.0,00:00:15,0.2,0,--.--,--.--,4.0,0,0000:32:01,0,0,0,45.65,4.98,13,38,66,--.--,--:--:--,1,227.35,15:39:13,24/01/2025,5.87,--.--,--.--,--.--,--.--,--.--,--.--,--.--,--.--,--.--,--.--,100.00,0,0.000,0.000,0.000,0.000,0.000,0.000,0.000,0.000,0.000,0.000,0.000,0.000,false,false,false,false,false,false,false,false,false,false,false,false,--.--,--.--,--.--,--.--,--.--,--.--,--.--,--.--,-23.2556796,-47.2987484,23KKQ 64823 26312,0.5,0.1,33.7,3,28,--.--,--.--,,--.--,--.--,--.--,0,0,--.--,--.--,0,-0.4,-0.6,3.3,0.0,0.0,-0.0,--.--,--.--,--.--,--.--,--.--,--.--,--.--,--.--,--.--,--.--,--.--,--.--,44.59,45.78,--.--,0,0,1.4,1.1,1.0,0,0,0,180.0,0.0,0.0
2025-01-24 15:39:14.910,-0.3,-1.0,297,0.0,0.0,0.0,0.0,0.0,0.023,0.0,0.0,584.4,-0.250,-0.250,0.000,0.0,00:00:16,0.2,0,--.--,--.--,4.1,0,0000:32:01,0,0,0,45.66,4.98,14,38,66,--.--,--:--:--,1,227.37,15:39:14,24/01/2025,5.87,--.--,--.--,--.--,--.--,--.--,--.--,--.--,--.--,--.--,--.--,100.00,0,0.000,0.000,0.000,0.000,0.000,0.000,0.000,0.000,0.000,0.000,0.000,0.000,false,false,false,false,false,false,false,false,false,false,false,false,--.--,--.--,--.--,--.--,--.--,--.--,--.--,--.--,-23.2556796,-47.2987484,23KKQ 64823 26312,0.5,0.1,56.3,3,28,--.--,--.--,,--.--,--.--,--.--,0,0,--.--,--.--,0,-0.4,-0.6,3.3,0.0,0.0,0.0,--.--,--.--,--.--,--.--,--.--,--.--,--.--,--.--,--.--,--.--,--.--,--.--,44.60,45.74,--.--,0,0,1.2,1.5,1.5,0,0,0,180.0,0.0,0.0
2025-01-24 15:39:15.905,-0.3,-0.9,297,0.0,0.0,0.0,0.0,0.0,0.022,0.0,0.0,584.4,-0.240,-0.250,0.000,0.0,00:00:17,0.2,0,--.--,--.--,4.0,0,0000:32:01,0,0,0,45.66,4.98,16,38,66,--.--,--:--:--,1,227.37,15:39:15,24/01/2025,5.87,--.--,--.--,--.--,--.--,--.--,--.--,--.--,--.--,--.--,--.--,100.00,0,0.000,0.000,0.000,0.000,0.000,0.000,0.000,0.000,0.000,0.000,0.000,0.000,false,false,false,false,false,false,false,false,false,false,false,false,--.--,--.--,--.--,--.--,--.--,--.--,--.--,--.--,-23.2556795,-47.2987484,23KKQ 64823 26312,0.5,0.1,90.0,3,28,--.--,--.--,,--.--,--.--,--.--,0,0,--.--,--.--,0,-0.4,-0.6,3.3,0.0,0.0,-0.0,--.--,--.--,--.--,--.--,--.--,--.--,--.--,--.--,--.--,--.--,--.--,--.--,44.57,45.78,--.--,0,0,1.4,1.1,1.1,0,0,0,180.0,0.0,0.0
2025-01-24 15:39:16.900,-0.2,-1.0,296,0.0,0.0,0.0,0.0,0.0,0.036,0.0,0.0,584.4,-0.240,-0.240,0.000,0.0,00:00:18,0.2,0,--.--,--.--,4.1,0,0000:32:01,0,0,0,45.64,3.99,17,38,66,--.--,--:--:--,1,182.10,15:39:16,24/01/2025,5.88,--.--,--.--,--.--,--.--,--.--,--.--,--.--,--.--,--.--,--.--,100.00,0,0.000,0.000,0.000,0.000,0.000,0.000,0.000,0.000,0.000,0.000,0.000,0.000,false,false,false,false,false,false,false,false,false,false,false,false,--.--,--.--,--.--,--.--,--.--,--.--,--.--,--.--,-23.2556795,-47.2987484,23KKQ 64823 26312,0.5,0.1,33.7,3,28,--.--,--.--,,--.--,--.--,--.--,0,0,--.--,--.--,0,-0.4,-0.6,3.3,0.0,0.0,-0.0,--.--,--.--,--.--,--.--,--.--,--.--,--.--,--.--,--.--,--.--,--.--,--.--,44.60,45.78,--.--,0,0,1.3,1.4,1.0,0,0,0,180.0,0.0,0.0
2025-01-24 15:39:17.905,-0.3,-1.0,297,0.0,0.0,0.0,0.0,0.0,0.025,0.0,0.1,584.5,-0.230,-0.230,0.000,0.0,00:00:19,0.2,0,--.--,--.--,4.1,0,0000:32:01,0,0,0,45.65,3.99,18,38,66,--.--,--:--:--,1,182.16,15:39:17,24/01/2025,5.88,--.--,--.--,--.--,--.--,--.--,--.--,--.--,--.--,--.--,--.--,100.00,0,0.000,0.000,0.000,0.000,0.000,0.000,0.000,0.000,0.000,0.000,0.000,0.000,false,false,false,false,false,false,false,false,false,false,false,false,--.--,--.--,--.--,--.--,--.--,--.--,--.--,--.--,-23.2556794,-47.2987485,23KKQ 64823 26312,0.5,0.1,45.0,3,28,--.--,--.--,,--.--,--.--,--.--,0,0,--.--,--.--,0,-0.4,-0.6,3.3,0.0,0.0,-0.0,--.--,--.--,--.--,--.--,--.--,--.--,--.--,--.--,--.--,--.--,--.--,--.--,44.60,45.80,--.--,0,0,1.0,1.6,1.3,0,0,0,180.0,0.0,0.0
2025-01-24 15:39:18.899,-0.3,-0.9,297,0.0,0.0,0.0,0.0,0.0,0.047,0.0,0.1,584.5,-0.230,-0.230,0.000,0.0,00:00:20,0.2,0,--.--,--.--,4.0,0,0000:32:01,0,0,0,45.65,3.99,19,38,66,--.--,--:--:--,1,182.15,15:39:18,24/01/2025,5.88,--.--,--.--,--.--,--.--,--.--,--.--,--.--,--.--,--.--,--.--,100.00,0,0.000,0.000,0.000,0.000,0.000,0.000,0.000,0.000,0.000,0.000,0.000,0.000,false,false,false,false,false,false,false,false,false,false,false,false,--.--,--.--,--.--,--.--,--.--,--.--,--.--,--.--,-23.2556794,-47.2987485,23KKQ 64823 26312,0.5,0.1,90.0,3,28,--.--,--.--,,--.--,--.--,--.--,0,0,--.--,--.--,0,-0.3,-0.6,3.3,0.0,0.0,0.0,--.--,--.--,--.--,--.--,--.--,--.--,--.--,--.--,--.--,--.--,--.--,--.--,44.60,45.80,--.--,0,0,1.0,1.5,1.0,0,0,0,180.0,0.0,0.0
2025-01-24 15:39:19.898,-0.3,-1.0,296,0.0,0.0,0.0,0.0,0.0,0.027,0.0,0.1,584.5,-0.230,-0.230,0.000,0.0,00:00:21,0.2,0,--.--,--.--,4.0,0,0000:32:01,0,0,0,45.63,4.98,20,38,66,--.--,--:--:--,1,227.26,15:39:19,24/01/2025,5.88,--.--,--.--,--.--,--.--,--.--,--.--,--.--,--.--,--.--,--.--,100.00,0,0.000,0.000,0.000,0.000,0.000,0.000,0.000,0.000,0.000,0.000,0.000,0.000,false,false,false,false,false,false,false,false,false,false,false,false,--.--,--.--,--.--,--.--,--.--,--.--,--.--,--.--,-23.2556794,-47.2987484,23KKQ 64823 26312,0.5,0.1,56.3,3,28,--.--,--.--,,--.--,--.--,--.--,0,0,--.--,--.--,0,-0.3,-0.6,3.3,0.0,0.0,-0.0,--.--,--.--,--.--,--.--,--.--,--.--,--.--,--.--,--.--,--.--,--.--,--.--,44.63,45.82,--.--,0,0,1.3,1.0,1.2,0,0,0,180.0,0.0,0.0
2025-01-24 15:39:20.906,-0.3,-0.9,297,0.0,0.0,0.0,0.0,0.0,0.024,0.0,0.1,584.5,-0.220,-0.220,0.000,0.0,00:00:22,0.2,0,--.--,--.--,4.0,0,0000:32:01,0,0,0,45.65,3.99,21,38,66,--.--,--:--:--,1,182.13,15:39:20,24/01/2025,5.88,--.--,--.--,--.--,--.--,--.--,--.--,--.--,--.--,--.--,--.--,100.00,0,0.000,0.000,0.000,0.000,0.000,0.000,0.000,0.000,0.000,0.000,0.000,0.000,false,false,false,false,false,false,false,false,false,false,false,false,--.--,--.--,--.--,--.--,--.--,--.--,--.--,--.--,-23.2556793,-47.2987484,23KKQ 64823 26312,0.5,0.1,56.3,3,28,--.--,--.--,,--.--,--.--,--.--,0,0,--.--,--.--,0,-0.3,-0.6,3.3,0.0,-0.0,-0.0,--.--,--.--,--.--,--.--,--.--,--.--,--.--,--.--,--.--,--.--,--.--,--.--,44.64,45.84,--.--,0,0,1.6,1.2,1.4,0,0,0,180.0,0.0,0.0
2025-01-24 15:39:21.905,-0.4,-1.0,297,0.0,0.0,0.0,0.0,0.0,0.018,0.0,0.1,584.5,-0.220,-0.220,0.000,0.0,00:00:23,0.2,0,--.--,--.--,4.0,0,0000:32:01,0,0,0,45.63,4.98,22,38,66,--.--,--:--:--,1,227.26,15:39:21,24/01/2025,5.88,--.--,--.--,--.--,--.--,--.--,--.--,--.--,--.--,--.--,--.--,100.00,0,0.000,0.000,0.000,0.000,0.000,0.000,0.000,0.000,0.000,0.000,0.000,0.000,false,false,false,false,false,false,false,false,false,false,false,false,--.--,--.--,--.--,--.--,--.--,--.--,--.--,--.--,-23.2556793,-47.2987484,23KKQ 64823 26312,0.5,0.1,76.0,3,28,--.--,--.--,,--.--,--.--,--.--,0,0,--.--,--.--,0,-0.3,-0.6,3.3,0.0,0.0,-0.0,--.--,--.--,--.--,--.--,--.--,--.--,--.--,--.--,--.--,--.--,--.--,--.--,44.64,45.79,--.--,0,0,1.0,0.6,0.7,0,0,0,180.0,0.0,0.0
2025-01-24 15:39:22.899,-0.3,-1.0,296,0.0,0.0,0.0,0.0,0.0,0.032,0.0,0.1,584.5,-0.220,-0.220,0.000,0.0,00:00:24,0.2,0,--.--,--.--,4.0,0,0000:32:01,0,0,0,45.63,3.99,24,38,66,--.--,--:--:--,1,182.07,15:39:22,24/01/2025,5.88,--.--,--.--,--.--,--.--,--.--,--.--,--.--,--.--,--.--,--.--,100.00,0,0.000,0.000,0.000,0.000,0.000,0.000,0.000,0.000,0.000,0.000,0.000,0.000,false,false,false,false,false,false,false,false,false,false,false,false,--.--,--.--,--.--,--.--,--.--,--.--,--.--,--.--,-23.2556793,-47.2987484,23KKQ 64823 26312,0.5,0.1,90.0,3,28,--.--,--.--,,--.--,--.--,--.--,0,0,--.--,--.--,0,-0.3,-0.6,3.3,0.0,0.0,-0.0,--.--,--.--,--.--,--.--,--.--,--.--,--.--,--.--,--.--,--.--,--.--,--.--,44.62,45.83,--.--,0,0,1.0,0.8,1.3,0,0,0,180.0,0.0,0.0
2025-01-24 15:39:23.906,-0.3,-1.0,296,0.0,0.0,0.0,0.0,0.0,0.020,0.0,0.1,584.5,-0.210,-0.210,0.000,0.0,00:00:25,0.2,0,--.--,--.--,4.0,0,0000:32:01,0,0,0,45.64,3.99,25,38,66,--.--,--:--:--,1,182.10,15:39:23,24/01/2025,5.89,--.--,--.--,--.--,--.--,--.--,--.--,--.--,--.--,--.--,--.--,100.00,0,0.000,0.000,0.000,0.000,0.000,0.000,0.000,0.000,0.000,0.000,0.000,0.000,false,false,false,false,false,false,false,false,false,false,false,false,--.--,--.--,--.--,--.--,--.--,--.--,--.--,--.--,-23.2556793,-47.2987484,23KKQ 64823 26312,0.5,0.1,45.0,3,27,--.--,--.--,,--.--,--.--,--.--,0,0,--.--,--.--,0,-0.3,-0.6,3.3,0.0,-0.0,-0.0,--.--,--.--,--.--,--.--,--.--,--.--,--.--,--.--,--.--,--.--,--.--,--.--,44.66,45.87,--.--,0,0,1.2,1.0,1.5,0,0,0,180.0,0.0,0.0
2025-01-24 15:39:24.903,-0.4,-0.9,297,0.0,0.0,0.0,0.0,0.0,0.022,0.0,0.1,584.5,-0.210,-0.210,0.000,0.0,00:00:26,0.2,0,--.--,--.--,4.0,0,0000:32:01,0,0,0,45.62,4.98,26,38,66,--.--,--:--:--,1,227.20,15:39:24,24/01/2025,5.88,--.--,--.--,--.--,--.--,--.--,--.--,--.--,--.--,--.--,--.--,100.00,0,0.000,0.000,0.000,0.000,0.000,0.000,0.000,0.000,0.000,0.000,0.000,0.000,false,false,false,false,false,false,false,false,false,false,false,false,--.--,--.--,--.--,--.--,--.--,--.--,--.--,--.--,-23.2556793,-47.2987483,23KKQ 64823 26312,0.5,0.1,63.4,3,28,--.--,--.--,,--.--,--.--,--.--,0,0,--.--,--.--,0,-0.3,-0.6,3.3,0.0,0.0,0.0,--.--,--.--,--.--,--.--,--.--,--.--,--.--,--.--,--.--,--.--,--.--,--.--,44.65,45.87,--.--,0,0,1.4,1.5,1.3,0,0,0,180.0,0.0,0.0
2025-01-24 15:39:25.901,-0.3,-0.9,297,0.0,0.0,0.0,0.0,0.0,0.027,-0.0,0.1,584.5,-0.210,-0.210,0.000,0.0,00:00:27,0.2,0,--.--,--.--,4.0,0,0000:32:01,0,0,0,45.63,4.98,28,38,66,--.--,--:--:--,1,227.26,15:39:25,24/01/2025,5.87,--.--,--.--,--.--,--.--,--.--,--.--,--.--,--.--,--.--,--.--,100.00,0,0.000,0.000,0.000,0.000,0.000,0.000,0.000,0.000,0.000,0.000,0.000,0.000,false,false,false,false,false,false,false,false,false,false,false,false,--.--,--.--,--.--,--.--,--.--,--.--,--.--,--.--,-23.2556793,-47.2987483,23KKQ 64823 26312,0.5,0.1,108.4,3,27,--.--,--.--,,--.--,--.--,--.--,0,0,--.--,--.--,0,-0.3,-0.6,3.3,0.0,-0.0,-0.0,--.--,--.--,--.--,--.--,--.--,--.--,--.--,--.--,--.--,--.--,--.--,--.--,44.73,45.86,--.--,0,0,1.3,1.0,1.6,0,0,0,180.0,0.0,0.0
2025-01-24 15:39:26.909,-0.3,-1.0,296,0.0,0.0,0.0,0.0,0.0,0.024,-0.0,0.1,584.5,-0.210,-0.210,0.000,0.0,00:00:28,0.2,0,--.--,--.--,4.0,0,0000:32:01,0,0,0,45.62,3.99,29,38,66,--.--,--:--:--,1,182.03,15:39:26,24/01/2025,5.87,--.--,--.--,--.--,--.--,--.--,--.--,--.--,--.--,--.--,--.--,100.00,0,0.000,0.000,0.000,0.000,0.000,0.000,0.000,0.000,0.000,0.000,0.000,0.000,false,false,false,false,false,false,false,false,false,false,false,false,--.--,--.--,--.--,--.--,--.--,--.--,--.--,--.--,-23.2556793,-47.2987482,23KKQ 64823 26312,0.5,0.1,45.0,3,28,--.--,--.--,,--.--,--.--,--.--,0,0,--.--,--.--,0,-0.3,-0.6,3.3,-0.0,-0.0,-0.0,--.--,--.--,--.--,--.--,--.--,--.--,--.--,--.--,--.--,--.--,--.--,--.--,44.67,45.87,--.--,0,0,1.1,1.0,1.0,0,0,0,180.0,0.0,0.0
2025-01-24 15:39:27.915,-0.4,-1.0,297,0.0,0.0,0.0,0.0,0.0,0.012,0.0,0.1,584.5,-0.210,-0.210,0.000,0.0,00:00:29,0.2,0,--.--,--.--,4.0,0,0000:32:01,0,0,0,45.63,4.98,30,38,66,--.--,--:--:--,1,227.26,15:39:27,24/01/2025,5.89,--.--,--.--,--.--,--.--,--.--,--.--,--.--,--.--,--.--,--.--,100.00,0,0.000,0.000,0.000,0.000,0.000,0.000,0.000,0.000,0.000,0.000,0.000,0.000,false,false,false,false,false,false,false,false,false,false,false,false,--.--,--.--,--.--,--.--,--.--,--.--,--.--,--.--,-23.2556793,-47.2987482,23KKQ 64823 26312,0.5,0.1,90.0,3,28,--.--,--.--,,--.--,--.--,--.--,0,0,--.--,--.--,0,-0.3,-0.6,3.3,0.0,-0.0,0.0,--.--,--.--,--.--,--.--,--.--,--.--,--.--,--.--,--.--,--.--,--.--,--.--,44.66,45.87,--.--,0,0,1.1,0.7,0.7,0,0,0,180.0,0.0,0.0
2025-01-24 15:39:28.902,-0.4,-0.9,297,0.0,0.0,0.0,0.0,0.0,0.007,-0.0,0.1,584.5,-0.210,-0.210,0.000,0.0,00:00:31,0.2,0,--.--,--.--,4.0,0,0000:32:01,0,0,0,45.63,4.98,32,38,66,--.--,--:--:--,1,227.23,15:39:28,24/01/2025,5.88,--.--,--.--,--.--,--.--,--.--,--.--,--.--,--.--,--.--,--.--,100.00,0,0.000,0.000,0.000,0.000,0.000,0.000,0.000,0.000,0.000,0.000,0.000,0.000,false,false,false,false,false,false,false,false,false,false,false,false,--.--,--.--,--.--,--.--,--.--,--.--,--.--,--.--,-23.2556793,-47.2987481,23KKQ 64823 26312,0.5,0.1,108.4,3,28,--.--,--.--,,--.--,--.--,--.--,0,0,--.--,--.--,0,-0.3,-0.6,3.3,0.0,-0.0,0.0,--.--,--.--,--.--,--.--,--.--,--.--,--.--,--.--,--.--,--.--,--.--,--.--,44.67,45.86,--.--,0,0,1.5,1.3,1.6,0,0,0,180.0,0.0,0.0
2025-01-24 15:39:29.910,-0.3,-0.9,297,0.0,0.0,0.0,0.0,0.0,0.010,-0.0,0.1,584.5,-0.210,-0.210,0.000,0.0,00:00:31,0.2,0,--.--,--.--,4.0,0,0000:32:01,0,0,0,45.64,4.98,33,38,66,--.--,--:--:--,1,227.28,15:39:29,24/01/2025,5.87,--.--,--.--,--.--,--.--,--.--,--.--,--.--,--.--,--.--,--.--,100.00,0,0.000,0.000,0.000,0.000,0.000,0.000,0.000,0.000,0.000,0.000,0.000,0.000,false,false,false,false,false,false,false,false,false,false,false,false,--.--,--.--,--.--,--.--,--.--,--.--,--.--,--.--,-23.2556793,-47.2987481,23KKQ 64823 26312,0.5,0.1,90.0,3,28,--.--,--.--,,--.--,--.--,--.--,0,0,--.--,--.--,0,-0.3,-0.6,3.3,-0.0,0.0,-0.0,--.--,--.--,--.--,--.--,--.--,--.--,--.--,--.--,--.--,--.--,--.--,--.--,44.65,45.89,--.--,0,0,1.6,1.3,1.5,0,0,0,180.0,0.0,0.0
2025-01-24 15:39:30.901,-0.3,-1.0,297,0.0,0.0,0.0,0.0,0.0,0.021,-0.0,0.1,584.5,-0.210,-0.210,0.000,0.0,00:00:32,0.2,0,--.--,--.--,4.0,0,0000:32:01,0,0,0,45.63,4.98,34,38,66,--.--,--:--:--,1,227.23,15:39:30,24/01/2025,5.88,--.--,--.--,--.--,--.--,--.--,--.--,--.--,--.--,--.--,--.--,100.00,0,0.000,0.000,0.000,0.000,0.000,0.000,0.000,0.000,0.000,0.000,0.000,0.000,false,false,false,false,false,false,false,false,false,false,false,false,--.--,--.--,--.--,--.--,--.--,--.--,--.--,--.--,-23.2556793,-47.2987481,23KKQ 64823 26312,0.5,0.1,0.0,3,28,--.--,--.--,,--.--,--.--,--.--,0,0,--.--,--.--,0,-0.3,-0.6,3.3,0.0,0.0,-0.0,--.--,--.--,--.--,--.--,--.--,--.--,--.--,--.--,--.--,--.--,--.--,--.--,44.63,45.90,--.--,0,0,1.2,1.2,1.4,0,0,0,180.0,0.0,0.0
2025-01-24 15:39:31.911,-0.4,-1.0,297,0.0,0.0,0.0,0.0,0.0,0.013,0.0,0.1,584.5,-0.210,-0.210,0.000,0.0,00:00:33,0.2,0,--.--,--.--,4.0,0,0000:32:01,0,0,0,45.63,4.98,36,38,66,--.--,--:--:--,1,227.23,15:39:31,24/01/2025,5.87,--.--,--.--,--.--,--.--,--.--,--.--,--.--,--.--,--.--,--.--,100.00,0,0.000,0.000,0.000,0.000,0.000,0.000,0.000,0.000,0.000,0.000,0.000,0.000,false,false,false,false,false,false,false,false,false,false,false,false,--.--,--.--,--.--,--.--,--.--,--.--,--.--,--.--,-23.2556793,-47.2987481,23KKQ 64823 26312,0.5,0.1,0.0,3,28,--.--,--.--,,--.--,--.--,--.--,0,0,--.--,--.--,0,-0.3,-0.6,3.3,0.0,0.0,0.0,--.--,--.--,--.--,--.--,--.--,--.--,--.--,--.--,--.--,--.--,--.--,--.--,44.65,45.93,--.--,0,0,1.6,1.1,1.0,0,0,0,180.0,0.0,0.0
2025-01-24 15:39:32.899,-0.4,-1.0,297,0.0,0.0,0.0,0.0,0.0,0.003,-0.0,0.1,584.5,-0.210,-0.210,0.000,0.0,00:00:34,0.2,0,--.--,--.--,4.0,0,0000:32:01,0,0,0,45.64,3.99,37,38,66,--.--,--:--:--,1,182.10,15:39:32,24/01/2025,5.87,--.--,--.--,--.--,--.--,--.--,--.--,--.--,--.--,--.--,--.--,100.00,0,0.000,0.000,0.000,0.000,0.000,0.000,0.000,0.000,0.000,0.000,0.000,0.000,false,false,false,false,false,false,false,false,false,false,false,false,--.--,--.--,--.--,--.--,--.--,--.--,--.--,--.--,-23.2556792,-47.2987481,23KKQ 64823 26312,0.5,0.1,45.0,3,28,--.--,--.--,,--.--,--.--,--.--,0,0,--.--,--.--,0,-0.3,-0.6,3.3,0.0,-0.0,0.0,--.--,--.--,--.--,--.--,--.--,--.--,--.--,--.--,--.--,--.--,--.--,--.--,44.71,45.95,--.--,0,0,1.4,0.7,0.7,0,0,0,180.0,0.0,0.0
2025-01-24 15:39:33.904,-0.3,-1.0,297,0.0,0.0,0.0,0.0,0.0,0.003,-0.0,0.1,584.5,-0.210,-0.210,0.000,0.0,00:00:35,0.2,0,--.--,--.--,3.9,0,0000:32:01,0,0,0,45.62,4.98,38,38,66,--.--,--:--:--,1,227.16,15:39:33,24/01/2025,5.88,--.--,--.--,--.--,--.--,--.--,--.--,--.--,--.--,--.--,--.--,100.00,0,0.000,0.000,0.000,0.000,0.000,0.000,0.000,0.000,0.000,0.000,0.000,0.000,false,false,false,false,false,false,false,false,false,false,false,false,--.--,--.--,--.--,--.--,--.--,--.--,--.--,--.--,-23.2556792,-47.2987482,23KKQ 64823 26312,0.5,0.1,26.6,3,28,--.--,--.--,,--.--,--.--,--.--,0,0,--.--,--.--,0,-0.3,-0.6,3.3,0.0,-0.0,-0.0,--.--,--.--,--.--,--.--,--.--,--.--,--.--,--.--,--.--,--.--,--.--,--.--,44.71,45.91,--.--,0,0,0.9,1.0,0.8,0,0,0,180.0,0.0,0.0
2025-01-24 15:39:34.935,-0.4,-1.0,297,0.0,0.0,0.0,0.0,0.0,0.010,0.0,0.1,584.5,-0.210,-0.210,0.000,0.0,00:00:36,0.2,0,--.--,--.--,3.9,0,0000:32:01,0,0,0,45.63,4.98,39,38,66,--.--,--:--:--,1,227.24,15:39:34,24/01/2025,5.88,--.--,--.--,--.--,--.--,--.--,--.--,--.--,--.--,--.--,--.--,100.00,0,0.000,0.000,0.000,0.000,0.000,0.000,0.000,0.000,0.000,0.000,0.000,0.000,false,false,false,false,false,false,false,false,false,false,false,false,--.--,--.--,--.--,--.--,--.--,--.--,--.--,--.--,-23.2556793,-47.2987483,23KKQ 64823 26312,0.5,0.1,0.0,3,28,--.--,--.--,,--.--,--.--,--.--,0,0,--.--,--.--,0,-0.3,-0.6,3.3,0.0,0.0,-0.0,--.--,--.--,--.--,--.--,--.--,--.--,--.--,--.--,--.--,--.--,--.--,--.--,44.73,45.96,--.--,0,0,1.5,1.2,0.9,0,0,0,180.0,0.0,0.0
2025-01-24 15:39:35.908,-0.4,-1.0,297,0.0,0.0,0.0,0.0,0.0,0.009,0.0,0.1,584.5,-0.210,-0.210,0.000,0.0,00:00:38,0.2,0,--.--,--.--,3.9,0,0000:32:01,0,0,0,45.62,4.98,41,38,66,--.--,--:--:--,1,227.20,15:39:35,24/01/2025,5.88,--.--,--.--,--.--,--.--,--.--,--.--,--.--,--.--,--.--,--.--,100.00,0,0.000,0.000,0.000,0.000,0.000,0.000,0.000,0.000,0.000,0.000,0.000,0.000,false,false,false,false,false,false,false,false,false,false,false,false,--.--,--.--,--.--,--.--,--.--,--.--,--.--,--.--,-23.2556793,-47.2987484,23KKQ 64823 26312,0.5,0.1,90.0,3,28,--.--,--.--,,--.--,--.--,--.--,0,0,--.--,--.--,0,-0.3,-0.6,3.3,0.0,-0.0,0.0,--.--,--.--,--.--,--.--,--.--,--.--,--.--,--.--,--.--,--.--,--.--,--.--,44.73,45.99,--.--,0,0,0.9,1.0,0.9,0,0,0,180.0,0.0,0.0
2025-01-24 15:39:36.899,-0.3,-1.0,297,0.0,0.0,0.0,0.0,0.0,0.030,-0.0,0.1,584.5,-0.210,-0.210,0.000,0.0,00:00:38,0.2,0,--.--,--.--,3.9,0,0000:32:01,0,0,0,45.62,3.99,42,38,66,--.--,--:--:--,1,182.02,15:39:36,24/01/2025,5.88,--.--,--.--,--.--,--.--,--.--,--.--,--.--,--.--,--.--,--.--,100.00,0,0.000,0.000,0.000,0.000,0.000,0.000,0.000,0.000,0.000,0.000,0.000,0.000,false,false,false,false,false,false,false,false,false,false,false,false,--.--,--.--,--.--,--.--,--.--,--.--,--.--,--.--,-23.2556794,-47.2987484,23KKQ 64823 26312,0.5,0.1,90.0,3,28,--.--,--.--,,--.--,--.--,--.--,0,0,--.--,--.--,0,-0.3,-0.6,3.3,-0.0,-0.0,-0.0,--.--,--.--,--.--,--.--,--.--,--.--,--.--,--.--,--.--,--.--,--.--,--.--,44.69,46.00,--.--,0,0,1.9,1.3,1.2,0,0,0,180.0,0.0,0.0
2025-01-24 15:39:37.902,-0.3,-1.0,297,0.0,0.0,0.0,0.0,0.0,0.003,0.0,0.1,584.5,-0.220,-0.220,0.000,0.0,00:00:39,0.2,0,--.--,--.--,3.9,0,0000:32:01,0,0,0,45.62,4.98,43,38,66,--.--,--:--:--,1,227.17,15:39:37,24/01/2025,5.89,--.--,--.--,--.--,--.--,--.--,--.--,--.--,--.--,--.--,--.--,100.00,0,0.000,0.000,0.000,0.000,0.000,0.000,0.000,0.000,0.000,0.000,0.000,0.000,false,false,false,false,false,false,false,false,false,false,false,false,--.--,--.--,--.--,--.--,--.--,--.--,--.--,--.--,-23.2556795,-47.2987485,23KKQ 64823 26312,0.5,0.1,0.0,3,28,--.--,--.--,,--.--,--.--,--.--,0,0,--.--,--.--,0,-0.3,-0.6,3.3,0.0,-0.0,0.0,--.--,--.--,--.--,--.--,--.--,--.--,--.--,--.--,--.--,--.--,--.--,--.--,44.71,45.96,--.--,0,0,1.3,1.2,1.3,0,0,0,180.0,0.0,0.0
2025-01-24 15:39:38.901,-0.4,-1.0,297,0.0,0.0,0.0,0.0,0.0,0.009,-0.0,0.1,584.5,-0.230,-0.230,0.000,0.0,00:00:40,0.2,0,--.--,--.--,3.9,0,0000:32:01,0,0,0,45.62,4.98,45,38,66,--.--,--:--:--,1,227.21,15:39:38,24/01/2025,5.88,--.--,--.--,--.--,--.--,--.--,--.--,--.--,--.--,--.--,--.--,100.00,0,0.000,0.000,0.000,0.000,0.000,0.000,0.000,0.000,0.000,0.000,0.000,0.000,false,false,false,false,false,false,false,false,false,false,false,false,--.--,--.--,--.--,--.--,--.--,--.--,--.--,--.--,-23.2556795,-47.2987486,23KKQ 64823 26312,0.5,0.1,0.0,3,28,--.--,--.--,,--.--,--.--,--.--,0,0,--.--,--.--,0,-0.3,-0.6,3.3,0.0,-0.0,0.0,--.--,--.--,--.--,--.--,--.--,--.--,--.--,--.--,--.--,--.--,--.--,--.--,44.65,45.98,--.--,0,0,1.4,1.4,1.5,0,0,0,180.0,0.0,0.0
2025-01-24 15:39:39.902,-0.4,-1.0,297,0.0,0.0,0.0,0.0,0.0,0.022,-0.0,0.1,584.5,-0.240,-0.240,0.000,0.0,00:00:41,0.2,0,--.--,--.--,3.9,0,0000:32:01,0,0,0,45.63,4.98,46,38,66,--.--,--:--:--,1,227.22,15:39:39,24/01/2025,5.87,--.--,--.--,--.--,--.--,--.--,--.--,--.--,--.--,--.--,--.--,100.00,0,0.000,0.000,0.000,0.000,0.000,0.000,0.000,0.000,0.000,0.000,0.000,0.000,false,false,false,false,false,false,false,false,false,false,false,false,--.--,--.--,--.--,--.--,--.--,--.--,--.--,--.--,-23.2556796,-47.2987486,23KKQ 64823 26312,0.5,0.1,180.0,3,28,--.--,--.--,,--.--,--.--,--.--,0,0,--.--,--.--,0,-0.3,-0.6,3.3,0.0,-0.0,0.0,--.--,--.--,--.--,--.--,--.--,--.--,--.--,--.--,--.--,--.--,--.--,--.--,44.69,45.99,--.--,0,0,1.6,1.6,1.3,0,0,0,180.0,0.0,0.0
2025-01-24 15:39:40.901,-0.3,-1.0,297,0.0,0.0,0.0,0.0,0.0,0.022,-0.0,0.0,584.4,-0.250,-0.250,0.000,0.0,00:00:42,0.2,0,--.--,--.--,3.9,0,0000:32:01,0,0,0,45.62,4.98,47,38,66,--.--,--:--:--,1,227.17,15:39:40,24/01/2025,5.86,--.--,--.--,--.--,--.--,--.--,--.--,--.--,--.--,--.--,--.--,100.00,0,0.000,0.000,0.000,0.000,0.000,0.000,0.000,0.000,0.000,0.000,0.000,0.000,false,false,false,false,false,false,false,false,false,false,false,false,--.--,--.--,--.--,--.--,--.--,--.--,--.--,--.--,-23.2556797,-47.2987487,23KKQ 64823 26312,0.5,0.1,90.0,3,28,--.--,--.--,,--.--,--.--,--.--,0,0,--.--,--.--,0,-0.3,-0.6,3.3,-0.0,-0.0,0.0,--.--,--.--,--.--,--.--,--.--,--.--,--.--,--.--,--.--,--.--,--.--,--.--,44.74,46.02,--.--,0,0,1.3,1.5,1.3,0,0,0,180.0,0.0,0.0
2025-01-24 15:39:41.902,-0.4,-1.0,297,0.0,0.0,0.0,0.0,0.0,0.037,-0.0,0.0,584.4,-0.260,-0.250,0.000,0.0,00:00:43,0.2,0,--.--,--.--,3.9,0,0000:32:01,0,0,0,45.62,3.99,49,38,66,--.--,--:--:--,1,182.04,15:39:41,24/01/2025,5.75,--.--,--.--,--.--,--.--,--.--,--.--,--.--,--.--,--.--,--.--,100.00,0,0.000,0.000,0.000,0.000,0.000,0.000,0.000,0.000,0.000,0.000,0.000,0.000,false,false,false,false,false,false,false,false,false,false,false,false,--.--,--.--,--.--,--.--,--.--,--.--,--.--,--.--,-23.2556798,-47.2987487,23KKQ 64823 26312,0.5,0.1,90.0,3,28,--.--,--.--,,--.--,--.--,--.--,0,0,--.--,--.--,0,-0.3,-0.6,3.3,0.0,0.0,0.0,--.--,--.--,--.--,--.--,--.--,--.--,--.--,--.--,--.--,--.--,--.--,--.--,44.67,46.00,--.--,0,0,1.1,1.4,1.2,0,0,0,180.0,0.0,0.0
2025-01-24 15:39:42.901,-0.4,-1.0,297,0.0,0.0,0.0,0.0,0.0,0.009,-0.0,0.0,584.4,-0.270,-0.270,0.000,0.0,00:00:44,0.2,0,--.--,--.--,3.8,0,0000:32:01,0,0,0,45.61,4.98,50,38,66,--.--,--:--:--,1,227.15,15:39:42,24/01/2025,5.77,--.--,--.--,--.--,--.--,--.--,--.--,--.--,--.--,--.--,--.--,100.00,0,0.000,0.000,0.000,0.000,0.000,0.000,0.000,0.000,0.000,0.000,0.000,0.000,false,false,false,false,false,false,false,false,false,false,false,false,--.--,--.--,--.--,--.--,--.--,--.--,--.--,--.--,-23.2556799,-47.2987488,23KKQ 64823 26312,0.5,0.1,90.0,3,28,--.--,--.--,,--.--,--.--,--.--,0,0,--.--,--.--,0,-0.3,-0.6,3.3,0.0,0.0,0.0,--.--,--.--,--.--,--.--,--.--,--.--,--.--,--.--,--.--,--.--,--.--,--.--,44.72,45.98,--.--,0,0,1.0,1.7,1.8,0,0,0,180.0,0.0,0.0
2025-01-24 15:39:43.901,-0.3,-1.0,297,0.0,0.0,0.0,0.0,0.0,0.039,-0.0,0.0,584.4,-0.280,-0.280,0.000,0.0,00:00:45,0.2,0,--.--,--.--,3.8,0,0000:32:01,0,0,0,45.62,4.98,51,38,66,--.--,--:--:--,1,227.17,15:39:43,24/01/2025,5.80,--.--,--.--,--.--,--.--,--.--,--.--,--.--,--.--,--.--,--.--,100.00,0,0.000,0.000,0.000,0.000,0.000,0.000,0.000,0.000,0.000,0.000,0.000,0.000,false,false,false,false,false,false,false,false,false,false,false,false,--.--,--.--,--.--,--.--,--.--,--.--,--.--,--.--,-23.2556800,-47.2987488,23KKQ 64823 26312,0.5,0.1,26.6,3,28,--.--,--.--,,--.--,--.--,--.--,0,0,--.--,--.--,0,-0.3,-0.6,3.3,0.0,0.0,-0.0,--.--,--.--,--.--,--.--,--.--,--.--,--.--,--.--,--.--,--.--,--.--,--.--,44.73,45.96,--.--,0,0,1.7,1.6,1.3,0,0,0,180.0,0.0,0.0
2025-01-24 15:39:44.903,-0.4,-1.0,298,0.0,0.0,0.0,0.0,0.0,0.010,0.0,-0.0,584.4,-0.290,-0.290,0.000,0.0,00:00:46,0.2,0,--.--,--.--,3.7,0,0000:32:01,0,0,0,45.62,3.99,53,38,66,--.--,--:--:--,1,182.04,15:39:44,24/01/2025,5.78,--.--,--.--,--.--,--.--,--.--,--.--,--.--,--.--,--.--,--.--,100.00,0,0.000,0.000,0.000,0.000,0.000,0.000,0.000,0.000,0.000,0.000,0.000,0.000,false,false,false,false,false,false,false,false,false,false,false,false,--.--,--.--,--.--,--.--,--.--,--.--,--.--,--.--,-23.2556800,-47.2987489,23KKQ 64823 26312,0.5,0.1,26.6,3,28,--.--,--.--,,--.--,--.--,--.--,0,0,--.--,--.--,0,-0.3,-0.6,3.3,0.0,0.0,0.0,--.--,--.--,--.--,--.--,--.--,--.--,--.--,--.--,--.--,--.--,--.--,--.--,44.73,45.99,--.--,0,0,1.5,1.4,1.2,0,0,0,180.0,0.0,0.0
2025-01-24 15:39:45.899,-0.3,-1.0,297,0.0,0.0,0.0,0.0,0.0,0.017,-0.0,-0.0,584.4,-0.310,-0.310,0.000,0.0,00:00:47,0.2,0,--.--,--.--,3.7,0,0000:32:01,0,0,0,45.61,3.99,54,38,66,--.--,--:--:--,1,181.97,15:39:45,24/01/2025,5.78,--.--,--.--,--.--,--.--,--.--,--.--,--.--,--.--,--.--,--.--,100.00,0,0.000,0.000,0.000,0.000,0.000,0.000,0.000,0.000,0.000,0.000,0.000,0.000,false,false,false,false,false,false,false,false,false,false,false,false,--.--,--.--,--.--,--.--,--.--,--.--,--.--,--.--,-23.2556801,-47.2987489,23KKQ 64823 26312,0.5,0.1,90.0,3,28,--.--,--.--,,--.--,--.--,--.--,0,0,--.--,--.--,0,-0.3,-0.6,3.3,0.0,0.0,0.0,--.--,--.--,--.--,--.--,--.--,--.--,--.--,--.--,--.--,--.--,--.--,--.--,44.73,46.01,--.--,0,0,1.3,1.4,1.7,0,0,0,180.0,0.0,0.0
2025-01-24 15:39:46.905,-0.3,-0.9,297,0.0,0.0,0.0,0.0,0.0,0.028,-0.0,-0.0,584.4,-0.330,-0.320,0.000,0.0,00:00:48,0.2,0,--.--,--.--,3.7,0,0000:32:01,0,0,0,45.61,4.98,55,38,66,--.--,--:--:--,1,227.15,15:39:46,24/01/2025,5.78,--.--,--.--,--.--,--.--,--.--,--.--,--.--,--.--,--.--,--.--,100.00,0,0.000,0.000,0.000,0.000,0.000,0.000,0.000,0.000,0.000,0.000,0.000,0.000,false,false,false,false,false,false,false,false,false,false,false,false,--.--,--.--,--.--,--.--,--.--,--.--,--.--,--.--,-23.2556802,-47.2987490,23KKQ 64823 26312,0.5,0.1,333.4,3,28,--.--,--.--,,--.--,--.--,--.--,0,0,--.--,--.--,0,-0.3,-0.6,3.4,0.0,0.0,0.0,--.--,--.--,--.--,--.--,--.--,--.--,--.--,--.--,--.--,--.--,--.--,--.--,44.75,46.05,--.--,0,0,1.4,1.3,1.6,0,0,0,180.0,0.0,0.0
2025-01-24 15:39:47.909,-0.3,-0.9,298,0.0,0.0,0.0,0.0,0.0,0.008,-0.0,-0.1,584.3,-0.340,-0.340,0.000,0.0,00:00:49,0.2,0,--.--,--.--,3.7,0,0000:32:01,0,0,0,45.61,4.98,56,38,66,--.--,--:--:--,1,227.16,15:39:47,24/01/2025,5.77,--.--,--.--,--.--,--.--,--.--,--.--,--.--,--.--,--.--,--.--,100.00,0,0.000,0.000,0.000,0.000,0.000,0.000,0.000,0.000,0.000,0.000,0.000,0.000,false,false,false,false,false,false,false,false,false,false,false,false,--.--,--.--,--.--,--.--,--.--,--.--,--.--,--.--,-23.2556802,-47.2987491,23KKQ 64822 26312,0.5,0.1,116.6,3,28,--.--,--.--,,--.--,--.--,--.--,0,0,--.--,--.--,0,-0.4,-0.6,3.4,-0.0,0.0,0.0,--.--,--.--,--.--,--.--,--.--,--.--,--.--,--.--,--.--,--.--,--.--,--.--,44.73,46.01,--.--,0,0,1.3,1.3,1.0,0,0,0,180.0,0.0,0.0
2025-01-24 15:39:48.899,-0.3,-1.0,297,0.0,0.0,0.0,0.0,0.0,0.019,-0.0,-0.1,584.3,-0.360,-0.360,0.000,0.0,00:00:50,0.2,0,--.--,--.--,3.7,0,0000:32:01,0,0,0,45.60,4.98,58,38,66,--.--,--:--:--,1,227.10,15:39:48,24/01/2025,5.77,--.--,--.--,--.--,--.--,--.--,--.--,--.--,--.--,--.--,--.--,100.00,0,0.000,0.000,0.000,0.000,0.000,0.000,0.000,0.000,0.000,0.000,0.000,0.000,false,false,false,false,false,false,false,false,false,false,false,false,--.--,--.--,--.--,--.--,--.--,--.--,--.--,--.--,-23.2556803,-47.2987492,23KKQ 64822 26312,0.5,0.1,0.0,3,28,--.--,--.--,,--.--,--.--,--.--,0,0,--.--,--.--,0,-0.4,-0.6,3.4,0.0,-0.0,0.0,--.--,--.--,--.--,--.--,--.--,--.--,--.--,--.--,--.--,--.--,--.--,--.--,44.67,46.03,--.--,0,0,1.2,0.9,1.0,0,0,0,180.0,0.0,0.0
2025-01-24 15:39:49.900,-0.4,-0.9,298,0.0,0.0,0.0,0.0,0.0,0.013,-0.0,-0.1,584.3,-0.370,-0.370,0.000,0.0,00:00:51,0.2,0,--.--,--.--,3.7,0,0000:32:01,0,0,0,45.60,2.99,59,38,66,--.--,--:--:--,1,136.36,15:39:49,24/01/2025,5.77,--.--,--.--,--.--,--.--,--.--,--.--,--.--,--.--,--.--,--.--,100.00,0,0.000,0.000,0.000,0.000,0.000,0.000,0.000,0.000,0.000,0.000,0.000,0.000,false,false,false,false,false,false,false,false,false,false,false,false,--.--,--.--,--.--,--.--,--.--,--.--,--.--,--.--,-23.2556804,-47.2987493,23KKQ 64822 26312,0.5,0.1,45.0,3,28,--.--,--.--,,--.--,--.--,--.--,0,0,--.--,--.--,0,-0.4,-0.6,3.4,0.0,0.0,0.0,--.--,--.--,--.--,--.--,--.--,--.--,--.--,--.--,--.--,--.--,--.--,--.--,44.69,46.02,--.--,0,0,1.0,1.3,1.1,0,0,0,180.0,0.0,0.0
2025-01-24 15:39:50.903,-0.4,-0.9,297,0.0,0.0,0.0,0.0,0.0,0.012,-0.0,-0.1,584.3,-0.390,-0.390,0.000,0.0,00:00:52,0.2,0,--.--,--.--,3.7,0,0000:32:01,0,0,0,45.60,1.99,60,38,66,--.--,--:--:--,1,90.74,15:39:50,24/01/2025,5.78,--.--,--.--,--.--,--.--,--.--,--.--,--.--,--.--,--.--,--.--,100.00,0,0.000,0.000,0.000,0.000,0.000,0.000,0.000,0.000,0.000,0.000,0.000,0.000,false,false,false,false,false,false,false,false,false,false,false,false,--.--,--.--,--.--,--.--,--.--,--.--,--.--,--.--,-23.2556804,-47.2987494,23KKQ 64822 26312,0.5,0.1,116.6,3,28,--.--,--.--,,--.--,--.--,--.--,0,0,--.--,--.--,0,-0.4,-0.7,3.4,-0.0,-0.0,0.0,--.--,--.--,--.--,--.--,--.--,--.--,--.--,--.--,--.--,--.--,--.--,--.--,44.73,46.02,--.--,0,0,1.3,1.6,1.2,0,0,0,180.0,0.0,0.0
2025-01-24 15:39:51.908,-0.4,-1.0,297,0.0,0.0,0.0,0.0,0.0,0.024,-0.0,-0.1,584.3,-0.410,-0.400,0.000,0.0,00:00:53,0.2,0,--.--,--.--,3.7,0,0000:32:01,0,0,0,45.60,4.98,61,38,66,--.--,--:--:--,1,227.09,15:39:51,24/01/2025,5.77,--.--,--.--,--.--,--.--,--.--,--.--,--.--,--.--,--.--,--.--,100.00,0,0.000,0.000,0.000,0.000,0.000,0.000,0.000,0.000,0.000,0.000,0.000,0.000,false,false,false,false,false,false,false,false,false,false,false,false,--.--,--.--,--.--,--.--,--.--,--.--,--.--,--.--,-23.2556805,-47.2987495,23KKQ 64822 26312,0.5,0.1,26.6,3,27,--.--,--.--,,--.--,--.--,--.--,0,0,--.--,--.--,0,-0.4,-0.7,3.4,-0.0,-0.0,0.0,--.--,--.--,--.--,--.--,--.--,--.--,--.--,--.--,--.--,--.--,--.--,--.--,44.71,46.06,--.--,0,0,1.1,1.5,1.3,0,0,0,180.0,0.0,0.0
2025-01-24 15:39:52.902,-0.4,-0.9,298,0.0,0.0,0.0,0.0,0.0,0.012,-0.0,-0.1,584.3,-0.420,-0.420,0.000,0.0,00:00:54,0.2,0,--.--,--.--,3.7,0,0000:32:01,0,0,0,45.61,4.98,62,38,66,--.--,--:--:--,1,227.16,15:39:52,24/01/2025,5.76,--.--,--.--,--.--,--.--,--.--,--.--,--.--,--.--,--.--,--.--,100.00,0,0.000,0.000,0.000,0.000,0.000,0.000,0.000,0.000,0.000,0.000,0.000,0.000,false,false,false,false,false,false,false,false,false,false,false,false,--.--,--.--,--.--,--.--,--.--,--.--,--.--,--.--,-23.2556805,-47.2987495,23KKQ 64822 26312,0.5,0.1,104.0,3,27,--.--,--.--,,--.--,--.--,--.--,0,0,--.--,--.--,0,-0.4,-0.7,3.5,0.0,-0.0,0.0,--.--,--.--,--.--,--.--,--.--,--.--,--.--,--.--,--.--,--.--,--.--,--.--,44.73,46.01,--.--,0,0,1.5,1.3,1.7,0,0,0,180.0,0.0,0.0
2025-01-24 15:39:53.904,-0.3,-1.0,297,0.0,0.0,0.0,0.0,0.0,0.013,-0.0,-0.1,584.3,-0.440,-0.440,0.000,0.0,00:00:55,0.3,0,--.--,--.--,3.7,0,0000:32:01,0,0,0,45.61,3.99,63,38,66,--.--,--:--:--,1,181.97,15:39:53,24/01/2025,5.77,--.--,--.--,--.--,--.--,--.--,--.--,--.--,--.--,--.--,--.--,100.00,0,0.000,0.000,0.000,0.000,0.000,0.000,0.000,0.000,0.000,0.000,0.000,0.000,false,false,false,false,false,false,false,false,false,false,false,false,--.--,--.--,--.--,--.--,--.--,--.--,--.--,--.--,-23.2556806,-47.2987496,23KKQ 64822 26312,0.5,0.1,0.0,3,27,--.--,--.--,,--.--,--.--,--.--,0,0,--.--,--.--,0,-0.4,-0.7,3.5,0.0,-0.0,0.0,--.--,--.--,--.--,--.--,--.--,--.--,--.--,--.--,--.--,--.--,--.--,--.--,44.77,46.03,--.--,0,0,1.5,1.6,1.5,0,0,0,180.0,0.0,0.0
2025-01-24 15:39:54.898,-0.3,-1.0,298,0.0,0.0,0.0,0.0,0.0,0.011,-0.0,-0.2,584.2,-0.450,-0.440,0.000,0.0,00:00:56,0.2,0,--.--,--.--,3.7,0,0000:32:01,0,0,0,45.60,4.98,65,38,66,--.--,--:--:--,1,227.09,15:39:54,24/01/2025,5.77,--.--,--.--,--.--,--.--,--.--,--.--,--.--,--.--,--.--,--.--,100.00,0,0.000,0.000,0.000,0.000,0.000,0.000,0.000,0.000,0.000,0.000,0.000,0.000,false,false,false,false,false,false,false,false,false,false,false,false,--.--,--.--,--.--,--.--,--.--,--.--,--.--,--.--,-23.2556806,-47.2987497,23KKQ 64822 26312,0.5,0.1,315.0,3,27,--.--,--.--,,--.--,--.--,--.--,0,0,--.--,--.--,0,-0.4,-0.7,3.5,0.0,0.0,0.0,--.--,--.--,--.--,--.--,--.--,--.--,--.--,--.--,--.--,--.--,--.--,--.--,44.75,46.07,--.--,0,0,1.3,1.5,1.2,0,0,0,180.0,0.0,0.0
2025-01-24 15:39:55.910,-0.4,-0.9,297,0.0,0.0,0.0,0.0,0.0,0.013,-0.0,-0.2,584.2,-0.460,-0.460,0.000,0.0,00:00:57,0.2,0,--.--,--.--,3.7,0,0000:32:01,0,0,0,45.61,4.98,66,38,66,--.--,--:--:--,1,227.16,15:39:55,24/01/2025,5.76,--.--,--.--,--.--,--.--,--.--,--.--,--.--,--.--,--.--,--.--,100.00,0,0.000,0.000,0.000,0.000,0.000,0.000,0.000,0.000,0.000,0.000,0.000,0.000,false,false,false,false,false,false,false,false,false,false,false,false,--.--,--.--,--.--,--.--,--.--,--.--,--.--,--.--,-23.2556807,-47.2987497,23KKQ 64822 26312,0.5,0.1,116.6,3,27,--.--,--.--,,--.--,--.--,--.--,0,0,--.--,--.--,0,-0.4,-0.7,3.5,-0.0,0.0,0.0,--.--,--.--,--.--,--.--,--.--,--.--,--.--,--.--,--.--,--.--,--.--,--.--,44.76,46.00,--.--,0,0,1.5,1.5,1.4,0,0,0,180.0,0.0,0.0
2025-01-24 15:39:56.899,-0.3,-0.9,297,0.0,0.0,0.0,0.0,0.0,0.026,-0.0,-0.2,584.2,-0.470,-0.470,0.000,0.0,00:00:58,0.2,0,--.--,--.--,3.7,0,0000:32:01,0,0,0,45.59,3.99,67,38,66,--.--,--:--:--,1,181.92,15:39:56,24/01/2025,5.76,--.--,--.--,--.--,--.--,--.--,--.--,--.--,--.--,--.--,--.--,100.00,0,0.000,0.000,0.000,0.000,0.000,0.000,0.000,0.000,0.000,0.000,0.000,0.000,false,false,false,false,false,false,false,false,false,false,false,false,--.--,--.--,--.--,--.--,--.--,--.--,--.--,--.--,-23.2556807,-47.2987498,23KKQ 64822 26312,0.5,0.1,0.0,3,27,--.--,--.--,,--.--,--.--,--.--,0,0,--.--,--.--,0,-0.4,-0.7,3.5,0.0,-0.0,0.0,--.--,--.--,--.--,--.--,--.--,--.--,--.--,--.--,--.--,--.--,--.--,--.--,44.72,46.07,--.--,0,0,1.0,1.2,1.3,0,0,0,180.0,0.0,0.0
2025-01-24 15:39:57.906,-0.4,-0.9,298,0.0,0.0,0.0,0.0,0.0,0.012,0.0,-0.2,584.2,-0.480,-0.480,0.000,0.0,00:00:59,0.2,0,--.--,--.--,3.7,0,0000:32:01,0,0,0,45.62,4.98,68,38,66,--.--,--:--:--,1,227.16,15:39:57,24/01/2025,5.75,--.--,--.--,--.--,--.--,--.--,--.--,--.--,--.--,--.--,--.--,100.00,0,0.000,0.000,0.000,0.000,0.000,0.000,0.000,0.000,0.000,0.000,0.000,0.000,false,false,false,false,false,false,false,false,false,false,false,false,--.--,--.--,--.--,--.--,--.--,--.--,--.--,--.--,-23.2556808,-47.2987498,23KKQ 64822 26312,0.5,0.1,26.6,3,27,--.--,--.--,,--.--,--.--,--.--,0,0,--.--,--.--,0,-0.4,-0.7,3.5,-0.0,0.0,0.0,--.--,--.--,--.--,--.--,--.--,--.--,--.--,--.--,--.--,--.--,--.--,--.--,44.78,46.09,--.--,0,0,1.4,1.4,1.0,0,0,0,180.0,0.0,0.0
2025-01-24 15:39:58.902,-0.4,-1.0,297,0.0,0.0,0.0,0.0,0.0,0.006,-0.0,-0.2,584.2,-0.490,-0.490,0.000,0.0,00:01:00,0.2,0,--.--,--.--,3.7,0,0000:32:01,0,0,0,45.60,3.99,70,38,66,--.--,--:--:--,1,181.96,15:39:58,24/01/2025,5.78,--.--,--.--,--.--,--.--,--.--,--.--,--.--,--.--,--.--,--.--,100.00,0,0.000,0.000,0.000,0.000,0.000,0.000,0.000,0.000,0.000,0.000,0.000,0.000,false,false,false,false,false,false,false,false,false,false,false,false,--.--,--.--,--.--,--.--,--.--,--.--,--.--,--.--,-23.2556809,-47.2987499,23KKQ 64822 26312,0.5,0.1,26.6,3,27,--.--,--.--,,--.--,--.--,--.--,0,0,--.--,--.--,0,-0.4,-0.7,3.5,-0.0,0.0,0.0,--.--,--.--,--.--,--.--,--.--,--.--,--.--,--.--,--.--,--.--,--.--,--.--,44.77,46.06,--.--,0,0,1.2,1.3,1.1,0,0,0,180.0,0.0,0.0
2025-01-24 15:39:59.908,-0.4,-0.9,297,0.0,0.0,0.0,0.0,0.0,0.027,-0.0,-0.2,584.2,-0.500,-0.500,0.000,0.0,00:01:01,0.3,0,--.--,--.--,3.7,0,0000:32:01,0,0,0,45.60,4.98,71,38,66,--.--,--:--:--,1,227.08,15:39:59,24/01/2025,5.75,--.--,--.--,--.--,--.--,--.--,--.--,--.--,--.--,--.--,--.--,100.00,0,0.000,0.000,0.000,0.000,0.000,0.000,0.000,0.000,0.000,0.000,0.000,0.000,false,false,false,false,false,false,false,false,false,false,false,false,--.--,--.--,--.--,--.--,--.--,--.--,--.--,--.--,-23.2556809,-47.2987499,23KKQ 64822 26312,0.5,0.1,341.6,3,27,--.--,--.--,,--.--,--.--,--.--,0,0,--.--,--.--,0,-0.4,-0.7,3.5,0.0,0.0,0.0,--.--,--.--,--.--,--.--,--.--,--.--,--.--,--.--,--.--,--.--,--.--,--.--,44.72,46.09,--.--,0,0,1.2,1.3,0.9,0,0,0,180.0,0.0,0.0
2025-01-24 15:40:00.904,-0.4,-0.9,298,0.0,0.0,0.0,0.0,0.0,0.006,-0.0,-0.2,584.2,-0.510,-0.510,0.000,0.0,00:01:02,0.3,0,--.--,--.--,3.7,0,0000:32:01,0,0,0,45.61,4.98,72,38,66,--.--,--:--:--,1,227.12,15:40:00,24/01/2025,5.77,--.--,--.--,--.--,--.--,--.--,--.--,--.--,--.--,--.--,--.--,100.00,0,0.000,0.000,0.000,0.000,0.000,0.000,0.000,0.000,0.000,0.000,0.000,0.000,false,false,false,false,false,false,false,false,false,false,false,false,--.--,--.--,--.--,--.--,--.--,--.--,--.--,--.--,-23.2556810,-47.2987500,23KKQ 64822 26312,0.5,0.1,0.0,3,27,--.--,--.--,,--.--,--.--,--.--,0,0,--.--,--.--,0,-0.4,-0.7,3.6,0.0,0.0,0.0,--.--,--.--,--.--,--.--,--.--,--.--,--.--,--.--,--.--,--.--,--.--,--.--,44.76,46.06,--.--,0,0,1.4,1.3,1.0,0,0,0,180.0,0.0,0.0
2025-01-24 15:40:01.907,-0.3,-1.0,297,0.0,0.0,0.0,0.0,0.0,0.008,-0.0,-0.2,584.2,-0.520,-0.520,0.000,0.0,00:01:03,0.3,0,--.--,--.--,3.7,0,0000:32:01,0,0,0,45.59,3.99,74,38,66,--.--,--:--:--,1,181.90,15:40:01,24/01/2025,5.76,--.--,--.--,--.--,--.--,--.--,--.--,--.--,--.--,--.--,--.--,100.00,0,0.000,0.000,0.000,0.000,0.000,0.000,0.000,0.000,0.000,0.000,0.000,0.000,false,false,false,false,false,false,false,false,false,false,false,false,--.--,--.--,--.--,--.--,--.--,--.--,--.--,--.--,-23.2556810,-47.2987500,23KKQ 64822 26312,0.5,0.1,0.0,3,27,--.--,--.--,,--.--,--.--,--.--,0,0,--.--,--.--,0,-0.4,-0.7,3.6,-0.0,-0.0,0.0,--.--,--.--,--.--,--.--,--.--,--.--,--.--,--.--,--.--,--.--,--.--,--.--,44.80,46.06,--.--,0,0,1.3,1.1,0.9,0,0,0,180.0,0.0,0.0
2025-01-24 15:40:02.900,-0.4,-0.9,297,0.0,0.0,0.0,0.0,0.0,0.015,-0.0,-0.2,584.1,-0.530,-0.530,0.000,0.0,00:01:04,0.3,0,--.--,--.--,3.7,0,0000:32:01,0,0,0,45.60,4.98,75,38,66,--.--,--:--:--,1,227.10,15:40:02,24/01/2025,5.76,--.--,--.--,--.--,--.--,--.--,--.--,--.--,--.--,--.--,--.--,100.00,0,0.000,0.000,0.000,0.000,0.000,0.000,0.000,0.000,0.000,0.000,0.000,0.000,false,false,false,false,false,false,false,false,false,false,false,false,--.--,--.--,--.--,--.--,--.--,--.--,--.--,--.--,-23.2556811,-47.2987500,23KKQ 64822 26312,0.5,0.1,341.6,3,27,--.--,--.--,,--.--,--.--,--.--,0,0,--.--,--.--,0,-0.4,-0.7,3.6,0.0,-0.0,0.0,--.--,--.--,--.--,--.--,--.--,--.--,--.--,--.--,--.--,--.--,--.--,--.--,44.76,46.02,--.--,0,0,1.2,1.1,1.0,0,0,0,180.0,0.0,0.0
2025-01-24 15:40:03.899,-0.3,0.2,297,0.0,0.0,0.0,0.1,0.2,0.027,0.2,-0.3,584.1,-0.540,-0.551,0.000,0.0,00:01:05,0.3,0,--.--,--.--,3.7,12,0000:32:01,0,0,0,45.60,4.98,76,38,66,--.--,--:--:--,1,227.09,15:40:03,24/01/2025,5.76,--.--,--.--,--.--,--.--,--.--,--.--,--.--,--.--,--.--,--.--,100.00,0,0.000,0.000,0.000,0.000,0.000,0.000,0.000,0.000,0.000,0.000,0.000,0.000,false,false,false,false,false,false,false,false,false,false,false,false,--.--,--.--,--.--,--.--,--.--,--.--,--.--,--.--,-23.2556812,-47.2987501,23KKQ 64822 26312,0.5,0.1,90.0,3,27,--.--,--.--,,--.--,--.--,--.--,0,0,--.--,--.--,0,-0.5,-0.7,3.6,-0.0,0.0,0.0,--.--,--.--,--.--,--.--,--.--,--.--,--.--,--.--,--.--,--.--,--.--,--.--,44.74,46.08,--.--,0,0,3.7,1.7,2.5,0,0,0,180.0,0.0,0.0
2025-01-24 15:40:04.909,0.5,-2.0,297,0.0,0.0,0.0,0.1,0.1,0.127,-0.1,-0.1,584.3,-0.430,-0.316,0.014,0.0,00:01:06,0.2,0,--.--,--.--,3.8,11,0000:32:01,0,0,0,45.20,36.98,80,38,66,--.--,--:--:--,1,1671.57,15:40:04,24/01/2025,3.19,--.--,--.--,--.--,--.--,--.--,--.--,--.--,--.--,--.--,--.--,100.00,0,0.000,0.000,0.000,0.000,0.000,0.000,0.000,0.000,0.000,0.000,0.000,0.000,false,false,false,false,false,false,false,false,false,false,false,false,--.--,--.--,--.--,--.--,--.--,--.--,--.--,--.--,-23.2556819,-47.2987498,23KKQ 64822 26312,0.5,0.1,129.6,3,27,--.--,--.--,,--.--,--.--,--.--,0,0,--.--,--.--,0,-0.5,-0.7,3.5,-0.1,0.1,0.0,--.--,--.--,--.--,--.--,--.--,--.--,--.--,--.--,--.--,--.--,--.--,--.--,44.75,46.09,--.--,0,0,3.0,2.2,4.2,0,0,0,180.0,0.0,0.0
2025-01-24 15:40:05.913,0.8,-2.3,297,0.0,0.0,0.0,0.1,0.1,0.078,-0.0,-0.1,584.3,-0.440,-0.375,0.019,0.0,00:01:07,0.2,0,--.--,--.--,3.9,10,0000:32:01,0,0,0,45.16,38.98,90,38,66,--.--,--:--:--,1,1760.34,15:40:05,24/01/2025,3.01,--.--,--.--,--.--,--.--,--.--,--.--,--.--,--.--,--.--,--.--,100.00,0,0.000,0.000,0.000,0.000,0.000,0.000,0.000,0.000,0.000,0.000,0.000,0.000,false,false,false,false,false,false,false,false,false,false,false,false,--.--,--.--,--.--,--.--,--.--,--.--,--.--,--.--,-23.2556829,-47.2987496,23KKQ 64822 26312,0.5,0.1,256.0,3,26,--.--,--.--,,--.--,--.--,--.--,0,0,--.--,--.--,0,-0.6,-0.6,3.5,0.0,-0.0,-0.0,--.--,--.--,--.--,--.--,--.--,--.--,--.--,--.--,--.--,--.--,--.--,--.--,44.77,46.08,--.--,0,0,2.0,2.6,5.2,0,0,0,180.0,0.0,0.0
2025-01-24 15:40:06.902,-0.0,-1.3,297,0.0,0.0,0.0,0.1,0.1,0.091,0.0,-0.2,584.2,-0.440,-0.435,0.024,0.0,00:01:08,0.3,0,--.--,--.--,3.8,10,0000:32:01,0,0,0,45.17,37.98,101,38,66,--.--,--:--:--,1,1715.67,15:40:06,24/01/2025,2.29,--.--,--.--,--.--,--.--,--.--,--.--,--.--,--.--,--.--,--.--,100.00,0,0.000,0.000,0.000,0.000,0.000,0.000,0.000,0.000,0.000,0.000,0.000,0.000,false,false,false,false,false,false,false,false,false,false,false,false,--.--,--.--,--.--,--.--,--.--,--.--,--.--,--.--,-23.2556830,-47.2987496,23KKQ 64822 26312,0.5,0.1,339.2,3,26,--.--,--.--,,--.--,--.--,--.--,0,0,--.--,--.--,0,-0.5,-0.7,3.5,0.1,-0.0,-0.0,--.--,--.--,--.--,--.--,--.--,--.--,--.--,--.--,--.--,--.--,--.--,--.--,44.78,46.11,--.--,0,0,1.7,3.7,4.7,0,0,0,180.0,0.0,0.0
2025-01-24 15:40:07.904,0.9,-1.6,297,0.0,0.0,0.0,0.0,0.0,0.045,0.0,-0.2,584.2,-0.480,-0.522,0.014,0.0,00:01:09,0.3,0,--.--,--.--,3.7,10,0000:32:01,0,0,0,45.09,37.98,107,38,65,--.--,--:--:--,1,1712.44,15:40:07,24/01/2025,1.99,--.--,--.--,--.--,--.--,--.--,--.--,--.--,--.--,--.--,--.--,100.00,0,0.000,0.000,0.000,0.000,0.000,0.000,0.000,0.000,0.000,0.000,0.000,0.000,false,false,false,false,false,false,false,false,false,false,false,false,--.--,--.--,--.--,--.--,--.--,--.--,--.--,--.--,-23.2556828,-47.2987493,23KKQ 64822 26312,0.5,0.1,332.5,3,26,--.--,--.--,,--.--,--.--,--.--,0,0,--.--,--.--,0,-0.5,-0.7,3.5,0.0,-0.0,-0.0,--.--,--.--,--.--,--.--,--.--,--.--,--.--,--.--,--.--,--.--,--.--,--.--,44.77,46.09,--.--,0,0,1.8,2.1,4.7,0,0,0,180.0,0.0,0.0
2025-01-24 15:40:08.902,-0.2,-0.8,297,0.0,0.0,0.0,0.1,0.1,0.079,0.1,-0.2,584.2,-0.510,-0.597,0.026,0.0,00:01:10,0.3,0,--.--,--.--,3.7,10,0000:32:01,0,0,0,45.05,38.98,117,38,65,--.--,--:--:--,1,1756.09,15:40:08,24/01/2025,2.15,--.--,--.--,--.--,--.--,--.--,--.--,--.--,--.--,--.--,--.--,100.00,0,0.000,0.000,0.000,0.000,0.000,0.000,0.000,0.000,0.000,0.000,0.000,0.000,false,false,false,false,false,false,false,false,false,false,false,false,--.--,--.--,--.--,--.--,--.--,--.--,--.--,--.--,-23.2556826,-47.2987492,23KKQ 64822 26312,0.5,0.1,315.0,3,26,--.--,--.--,,--.--,--.--,--.--,0,0,--.--,--.--,0,-0.5,-0.8,3.5,0.0,-0.1,-0.0,--.--,--.--,--.--,--.--,--.--,--.--,--.--,--.--,--.--,--.--,--.--,--.--,44.79,46.11,--.--,0,0,1.7,1.9,4.7,0,0,0,180.0,0.0,0.0
2025-01-24 15:40:09.903,0.7,-1.2,297,0.0,0.0,0.0,0.0,0.1,0.123,0.1,-0.2,584.1,-0.530,-0.662,0.075,0.0,00:01:11,0.3,0,--.--,--.--,3.8,11,0000:32:01,0,0,0,45.08,37.98,128,38,65,--.--,--:--:--,1,1712.21,15:40:09,24/01/2025,2.06,--.--,--.--,--.--,--.--,--.--,--.--,--.--,--.--,--.--,--.--,100.00,0,0.000,0.000,0.000,0.000,0.000,0.000,0.000,0.000,0.000,0.000,0.000,0.000,false,false,false,false,false,false,false,false,false,false,false,false,--.--,--.--,--.--,--.--,--.--,--.--,--.--,--.--,-23.2556826,-47.2987492,23KKQ 64822 26312,0.5,0.1,198.4,3,26,--.--,--.--,,--.--,--.--,--.--,0,0,--.--,--.--,0,-0.5,-0.8,3.6,-0.0,0.0,-0.1,--.--,--.--,--.--,--.--,--.--,--.--,--.--,--.--,--.--,--.--,--.--,--.--,44.74,46.09,--.--,0,0,3.0,2.9,5.6,0,0,0,180.0,0.0,0.0
2025-01-24 15:40:10.901,0.4,-0.4,297,0.0,0.0,0.0,0.1,0.2,0.205,0.1,-0.2,584.2,-0.490,-0.662,0.027,0.0,00:01:12,0.3,0,--.--,--.--,3.8,11,0000:32:01,0,0,0,45.01,39.98,140,38,65,--.--,--:--:--,1,1799.38,15:40:10,24/01/2025,2.08,--.--,--.--,--.--,--.--,--.--,--.--,--.--,--.--,--.--,--.--,100.00,0,0.000,0.000,0.000,0.000,0.000,0.000,0.000,0.000,0.000,0.000,0.000,0.000,false,false,false,false,false,false,false,false,false,false,false,false,--.--,--.--,--.--,--.--,--.--,--.--,--.--,--.--,-23.2556824,-47.2987488,23KKQ 64823 26312,0.5,0.1,13.7,3,26,--.--,--.--,,--.--,--.--,--.--,0,0,--.--,--.--,0,-0.5,-0.7,3.5,0.1,0.0,-0.1,--.--,--.--,--.--,--.--,--.--,--.--,--.--,--.--,--.--,--.--,--.--,--.--,44.78,46.09,--.--,0,0,1.8,2.7,4.4,0,0,0,180.0,0.0,0.0
2025-01-24 15:40:11.909,0.1,-0.9,297,0.0,0.0,0.0,0.1,0.2,0.184,0.2,-0.2,584.2,-0.450,-0.622,0.046,0.0,00:01:13,0.3,0,--.--,--.--,3.7,11,0000:32:01,0,0,0,44.96,41.99,151,38,65,--.--,--:--:--,1,1887.79,15:40:11,24/01/2025,7.38,--.--,--.--,--.--,--.--,--.--,--.--,--.--,--.--,--.--,--.--,100.00,0,0.000,0.000,0.000,0.000,0.000,0.000,0.000,0.000,0.000,0.000,0.000,0.000,false,false,false,false,false,false,false,false,false,false,false,false,--.--,--.--,--.--,--.--,--.--,--.--,--.--,--.--,-23.2556814,-47.2987479,23KKQ 64823 26312,0.5,0.1,348.7,3,26,--.--,--.--,,--.--,--.--,--.--,0,0,--.--,--.--,0,-0.4,-0.7,3.5,-0.0,-0.0,-0.2,--.--,--.--,--.--,--.--,--.--,--.--,--.--,--.--,--.--,--.--,--.--,--.--,44.75,46.13,--.--,0,0,1.9,2.4,6.6,0,0,0,180.0,0.0,0.0
2025-01-24 15:40:12.903,2.1,-1.5,296,0.0,0.0,0.0,0.1,0.2,0.218,0.2,-0.1,584.3,-0.380,-0.566,0.063,0.0,00:01:14,0.3,0,--.--,--.--,3.8,11,0000:32:01,0,0,0,44.95,41.99,163,38,65,--.--,--:--:--,1,1887.49,15:40:12,24/01/2025,7.41,--.--,--.--,--.--,--.--,--.--,--.--,--.--,--.--,--.--,--.--,100.00,0,0.000,0.000,0.000,0.000,0.000,0.000,0.000,0.000,0.000,0.000,0.000,0.000,false,false,false,false,false,false,false,false,false,false,false,false,--.--,--.--,--.--,--.--,--.--,--.--,--.--,--.--,-23.2556819,-47.2987485,23KKQ 64823 26312,0.5,0.1,184.2,3,28,--.--,--.--,,--.--,--.--,--.--,0,0,--.--,--.--,0,-0.5,-0.7,3.4,-0.1,-0.0,-0.2,--.--,--.--,--.--,--.--,--.--,--.--,--.--,--.--,--.--,--.--,--.--,--.--,44.79,46.09,--.--,0,0,2.7,3.2,7.2,0,0,0,180.0,0.0,0.0
