Timestamp,roll,pitch,heading,rollRate,pitchRate,yawRate,groundSpeed,airSpeed,airSpeedSetpoint,climbRate,altitudeRelative,altitudeAMSL,altitudeTuning,altitudeTuningSetpoint,xTrackError,flightDistance,flightTime,distanceToHome,missionItemIndex,headingToNextWP,headingToHome,distanceToGCS,throttlePct,hobbs,battery0.id,battery0.batteryFunction,battery0.batteryType,battery0.voltage,battery0.current,battery0.mahConsumed,battery0.temperature,battery0.percentRemaining,battery0.timeRemaining,battery0.timeRemainingStr,battery0.chargeState,battery0.instantPower,clock.currentTime,clock.currentDate,distanceSensor.rotationNone,distanceSensor.rotationYaw45,distanceSensor.rotationYaw90,distanceSensor.rotationYaw135,distanceSensor.rotationYaw180,distanceSensor.rotationYaw225,distanceSensor.rotationYaw270,distanceSensor.rotationYaw315,distanceSensor.rotationPitch90,distanceSensor.rotationPitch270,distanceSensor.minDistance,distanceSensor.maxDistance,escStatus.index,escStatus.rpm1,escStatus.rpm2,escStatus.rpm3,escStatus.rpm4,escStatus.current1,escStatus.current2,escStatus.current3,escStatus.current4,escStatus.voltage1,escStatus.voltage2,escStatus.voltage3,escStatus.voltage4,estimatorStatus.goodAttitudeEsimate,estimatorStatus.goodHorizVelEstimate,estimatorStatus.goodVertVelEstimate,estimatorStatus.goodHorizPosRelEstimate,estimatorStatus.goodHorizPosAbsEstimate,estimatorStatus.goodVertPosAbsEstimate,estimatorStatus.goodVertPosAGLEstimate,estimatorStatus.goodConstPosModeEstimate,estimatorStatus.goodPredHorizPosRelEstimate,estimatorStatus.goodPredHorizPosAbsEstimate,estimatorStatus.gpsGlitch,estimatorStatus.accelError,estimatorStatus.velRatio,estimatorStatus.horizPosRatio,estimatorStatus.vertPosRatio,estimatorStatus.magRatio,estimatorStatus.haglRatio,estimatorStatus.tasRatio,estimatorStatus.horizPosAccuracy,estimatorStatus.vertPosAccuracy,gps.lat,gps.lon,gps.mgrs,gps.hdop,gps.vdop,gps.courseOverGround,gps.lock,gps.count,gps2.lat,gps2.lon,gps2.mgrs,gps2.hdop,gps2.vdop,gps2.courseOverGround,gps2.lock,gps2.count,hygrometer.temperature,hygrometer.humidity,hygrometer.hygrometerid,localPosition.x,localPosition.y,localPosition.z,localPosition.vx,localPosition.vy,localPosition.vz,localPositionSetpoint.x,localPositionSetpoint.y,localPositionSetpoint.z,localPositionSetpoint.vx,localPositionSetpoint.vy,localPositionSetpoint.vz,setpoint.roll,setpoint.pitch,setpoint.yaw,setpoint.rollRate,setpoint.pitchRate,setpoint.yawRate,temperature.temperature1,temperature.temperature2,temperature.temperature3,terrain.blocksPending,terrain.blocksLoaded,vibration.xAxis,vibration.yAxis,vibration.zAxis,vibration.clipCount1,vibration.clipCount2,vibration.clipCount3,wind.direction,wind.speed,wind.verticalSpeed
2025-01-24 13:08:53.662,-0.5,-1.0,28,0.0,0.0,0.0,0.0,0.0,0.006,-0.0,0.0,584.2,-0.730,-0.730,0.000,0.0,00:00:00,0.0,0,--.--,--.--,8.8,0,0000:28:15,0,0,0,46.10,0.00,5385,41,59,--.--,--:--:--,1,0.00,13:08:53,24/01/2025,4.46,--.--,--.--,--.--,--.--,--.--,--.--,--.--,--.--,--.--,--.--,100.00,0,0.000,0.000,0.000,0.000,0.000,0.000,0.000,0.000,0.000,0.000,0.000,0.000,false,false,false,false,false,false,false,false,false,false,false,false,--.--,--.--,--.--,--.--,--.--,--.--,--.--,--.--,-23.2556968,-47.2987290,23KKQ 64825 26310,0.5,0.1,90.0,3,28,--.--,--.--,,--.--,--.--,--.--,0,0,--.--,--.--,0,0.6,1.1,-2.7,-0.0,-0.0,0.0,--.--,--.--,--.--,--.--,--.--,--.--,--.--,--.--,--.--,--.--,--.--,--.--,53.75,54.92,--.--,0,0,0.0,0.0,0.0,0,0,0,180.0,0.0,0.0
2025-01-24 13:08:54.657,-0.5,-1.0,28,0.0,0.0,0.0,0.0,0.0,0.006,-0.0,-0.0,584.2,-0.740,-0.740,0.000,0.0,00:00:01,0.0,0,--.--,--.--,8.8,0,0000:28:15,0,0,0,46.10,0.00,5385,41,59,--.--,--:--:--,1,0.00,13:08:54,24/01/2025,4.44,--.--,--.--,--.--,--.--,--.--,--.--,--.--,--.--,--.--,--.--,100.00,0,0.000,0.000,0.000,0.000,0.000,0.000,0.000,0.000,0.000,0.000,0.000,0.000,false,false,false,false,false,false,false,false,false,false,false,false,--.--,--.--,--.--,--.--,--.--,--.--,--.--,--.--,-23.2556968,-47.2987290,23KKQ 64825 26310,0.5,0.1,0.0,3,28,--.--,--.--,,--.--,--.--,--.--,0,0,--.--,--.--,0,0.6,1.1,-2.7,-0.0,-0.0,0.0,--.--,--.--,--.--,--.--,--.--,--.--,--.--,--.--,--.--,--.--,--.--,--.--,53.77,54.91,--.--,0,0,0.0,0.0,0.0,0,0,0,180.0,0.0,0.0
2025-01-24 13:08:55.623,-0.5,-1.0,28,0.0,0.0,0.0,0.0,0.0,0.006,-0.0,-0.0,584.2,-0.750,-0.750,0.000,0.0,00:00:02,0.0,0,--.--,--.--,8.8,0,0000:28:15,0,0,0,46.10,0.00,5385,41,59,--.--,--:--:--,1,0.00,13:08:55,24/01/2025,4.44,--.--,--.--,--.--,--.--,--.--,--.--,--.--,--.--,--.--,--.--,100.00,0,0.000,0.000,0.000,0.000,0.000,0.000,0.000,0.000,0.000,0.000,0.000,0.000,false,false,false,false,false,false,false,false,false,false,false,false,--.--,--.--,--.--,--.--,--.--,--.--,--.--,--.--,-23.2556967,-47.2987290,23KKQ 64825 26310,0.5,0.1,0.0,3,28,--.--,--.--,,--.--,--.--,--.--,0,0,--.--,--.--,0,0.6,1.1,-2.7,0.0,-0.0,0.0,--.--,--.--,--.--,--.--,--.--,--.--,--.--,--.--,--.--,--.--,--.--,--.--,53.72,54.92,--.--,0,0,0.0,0.0,0.0,0,0,0,180.0,0.0,0.0
2025-01-24 13:08:56.623,-0.5,-1.0,28,0.0,0.0,0.0,0.0,0.0,0.005,-0.0,-0.0,584.2,-0.750,-0.750,0.000,0.0,00:00:03,0.0,0,--.--,--.--,8.8,0,0000:28:15,0,0,0,46.10,0.00,5385,41,59,--.--,--:--:--,1,0.00,13:08:56,24/01/2025,4.44,--.--,--.--,--.--,--.--,--.--,--.--,--.--,--.--,--.--,--.--,100.00,0,0.000,0.000,0.000,0.000,0.000,0.000,0.000,0.000,0.000,0.000,0.000,0.000,false,false,false,false,false,false,false,false,false,false,false,false,--.--,--.--,--.--,--.--,--.--,--.--,--.--,--.--,-23.2556966,-47.2987289,23KKQ 64825 26310,0.5,0.1,45.0,3,28,--.--,--.--,,--.--,--.--,--.--,0,0,--.--,--.--,0,0.6,1.1,-2.7,0.0,-0.0,0.0,--.--,--.--,--.--,--.--,--.--,--.--,--.--,--.--,--.--,--.--,--.--,--.--,53.75,54.91,--.--,0,0,0.0,0.0,0.0,0,0,0,180.0,0.0,0.0
2025-01-24 13:08:57.624,-0.5,-1.0,28,0.0,0.0,0.0,0.0,0.0,0.003,-0.0,-0.0,584.2,-0.750,-0.750,0.000,0.0,00:00:04,0.0,0,--.--,--.--,8.8,0,0000:28:15,0,0,0,46.10,0.00,5385,41,59,--.--,--:--:--,1,0.00,13:08:57,24/01/2025,4.44,--.--,--.--,--.--,--.--,--.--,--.--,--.--,--.--,--.--,--.--,100.00,0,0.000,0.000,0.000,0.000,0.000,0.000,0.000,0.000,0.000,0.000,0.000,0.000,false,false,false,false,false,false,false,false,false,false,false,false,--.--,--.--,--.--,--.--,--.--,--.--,--.--,--.--,-23.2556965,-47.2987288,23KKQ 64825 26310,0.5,0.1,90.0,3,28,--.--,--.--,,--.--,--.--,--.--,0,0,--.--,--.--,0,0.6,1.1,-2.7,0.0,0.0,0.0,--.--,--.--,--.--,--.--,--.--,--.--,--.--,--.--,--.--,--.--,--.--,--.--,53.75,54.90,--.--,0,0,0.0,0.0,0.0,0,0,0,180.0,0.0,0.0
2025-01-24 13:08:58.626,-0.5,-1.0,28,0.0,0.0,0.0,0.0,0.0,0.008,-0.0,-0.0,584.2,-0.750,-0.750,0.000,0.0,00:00:05,0.0,0,--.--,--.--,8.5,0,0000:28:15,0,0,0,46.10,0.00,5385,41,59,--.--,--:--:--,1,0.00,13:08:58,24/01/2025,4.48,--.--,--.--,--.--,--.--,--.--,--.--,--.--,--.--,--.--,--.--,100.00,0,0.000,0.000,0.000,0.000,0.000,0.000,0.000,0.000,0.000,0.000,0.000,0.000,false,false,false,false,false,false,false,false,false,false,false,false,--.--,--.--,--.--,--.--,--.--,--.--,--.--,--.--,-23.2556964,-47.2987288,23KKQ 64825 26310,0.5,0.1,206.6,3,28,--.--,--.--,,--.--,--.--,--.--,0,0,--.--,--.--,0,0.6,1.1,-2.7,-0.0,0.0,0.0,--.--,--.--,--.--,--.--,--.--,--.--,--.--,--.--,--.--,--.--,--.--,--.--,53.71,54.95,--.--,0,0,0.1,0.1,0.1,0,0,0,180.0,0.0,0.0
2025-01-24 13:08:59.628,-0.6,-0.9,28,0.0,0.0,0.0,0.0,0.0,0.013,-0.0,-0.0,584.2,-0.740,-0.740,0.000,0.0,00:00:06,0.0,0,--.--,--.--,8.6,0,0000:28:15,0,0,0,46.06,3.99,5385,41,59,--.--,--:--:--,1,183.78,13:08:59,24/01/2025,4.67,--.--,--.--,--.--,--.--,--.--,--.--,--.--,--.--,--.--,--.--,100.00,0,0.000,0.000,0.000,0.000,0.000,0.000,0.000,0.000,0.000,0.000,0.000,0.000,false,false,false,false,false,false,false,false,false,false,false,false,--.--,--.--,--.--,--.--,--.--,--.--,--.--,--.--,-23.2556963,-47.2987287,23KKQ 64825 26310,0.5,0.1,180.0,3,28,--.--,--.--,,--.--,--.--,--.--,0,0,--.--,--.--,0,0.6,1.1,-2.7,0.0,0.0,-0.0,--.--,--.--,--.--,--.--,--.--,--.--,--.--,--.--,--.--,--.--,--.--,--.--,53.71,54.88,--.--,0,0,1.0,1.6,1.1,0,0,0,180.0,0.0,0.0
2025-01-24 13:09:00.627,-0.5,-1.0,29,0.0,0.0,0.0,0.0,0.0,0.036,-0.0,-0.0,584.2,-0.740,-0.740,0.000,0.0,00:00:07,0.0,0,--.--,--.--,8.6,0,0000:28:15,0,0,0,46.02,3.99,5387,41,59,--.--,--:--:--,1,183.64,13:09:00,24/01/2025,4.87,--.--,--.--,--.--,--.--,--.--,--.--,--.--,--.--,--.--,--.--,100.00,0,0.000,0.000,0.000,0.000,0.000,0.000,0.000,0.000,0.000,0.000,0.000,0.000,false,false,false,false,false,false,false,false,false,false,false,false,--.--,--.--,--.--,--.--,--.--,--.--,--.--,--.--,-23.2556962,-47.2987286,23KKQ 64825 26310,0.5,0.1,45.0,3,28,--.--,--.--,,--.--,--.--,--.--,0,0,--.--,--.--,0,0.6,1.1,-2.7,-0.0,0.0,-0.0,--.--,--.--,--.--,--.--,--.--,--.--,--.--,--.--,--.--,--.--,--.--,--.--,53.71,54.88,--.--,0,0,1.2,1.7,1.1,0,0,0,180.0,0.0,0.0
2025-01-24 13:09:01.626,-0.5,-0.9,28,0.0,0.0,0.0,0.0,0.0,0.026,0.0,0.0,584.2,-0.730,-0.730,0.000,0.0,00:00:08,0.0,0,--.--,--.--,8.6,0,0000:28:15,0,0,0,46.02,3.99,5388,41,59,--.--,--:--:--,1,183.64,13:09:01,24/01/2025,4.76,--.--,--.--,--.--,--.--,--.--,--.--,--.--,--.--,--.--,--.--,100.00,0,0.000,0.000,0.000,0.000,0.000,0.000,0.000,0.000,0.000,0.000,0.000,0.000,false,false,false,false,false,false,false,false,false,false,false,false,--.--,--.--,--.--,--.--,--.--,--.--,--.--,--.--,-23.2556961,-47.2987285,23KKQ 64825 26310,0.5,0.1,153.4,3,28,--.--,--.--,,--.--,--.--,--.--,0,0,--.--,--.--,0,0.6,1.1,-2.7,0.0,-0.0,-0.0,--.--,--.--,--.--,--.--,--.--,--.--,--.--,--.--,--.--,--.--,--.--,--.--,53.75,54.91,--.--,0,0,0.9,1.3,0.8,0,0,0,180.0,0.0,0.0
2025-01-24 13:09:02.625,-0.5,-1.0,29,0.0,0.0,0.0,0.0,0.0,0.028,0.0,0.0,584.2,-0.720,-0.720,0.000,0.0,00:00:09,0.1,0,--.--,--.--,8.5,0,0000:28:15,0,0,0,46.02,4.98,5389,41,59,--.--,--:--:--,1,229.17,13:09:02,24/01/2025,4.69,--.--,--.--,--.--,--.--,--.--,--.--,--.--,--.--,--.--,--.--,100.00,0,0.000,0.000,0.000,0.000,0.000,0.000,0.000,0.000,0.000,0.000,0.000,0.000,false,false,false,false,false,false,false,false,false,false,false,false,--.--,--.--,--.--,--.--,--.--,--.--,--.--,--.--,-23.2556960,-47.2987283,23KKQ 64825 26310,0.5,0.1,45.0,3,28,--.--,--.--,,--.--,--.--,--.--,0,0,--.--,--.--,0,0.6,1.1,-2.7,-0.0,0.0,-0.0,--.--,--.--,--.--,--.--,--.--,--.--,--.--,--.--,--.--,--.--,--.--,--.--,53.72,54.91,--.--,0,0,1.0,1.1,0.8,0,0,0,180.0,0.0,0.0
2025-01-24 13:09:03.629,-0.5,-0.9,28,0.0,0.0,0.0,0.0,0.0,0.041,0.0,0.0,584.2,-0.720,-0.720,0.000,0.0,00:00:10,0.1,0,--.--,--.--,8.5,0,0000:28:15,0,0,0,46.01,4.98,5391,41,59,--.--,--:--:--,1,229.15,13:09:03,24/01/2025,4.71,--.--,--.--,--.--,--.--,--.--,--.--,--.--,--.--,--.--,--.--,100.00,0,0.000,0.000,0.000,0.000,0.000,0.000,0.000,0.000,0.000,0.000,0.000,0.000,false,false,false,false,false,false,false,false,false,false,false,false,--.--,--.--,--.--,--.--,--.--,--.--,--.--,--.--,-23.2556959,-47.2987282,23KKQ 64825 26310,0.5,0.1,90.0,3,28,--.--,--.--,,--.--,--.--,--.--,0,0,--.--,--.--,0,0.6,1.1,-2.7,0.0,-0.0,-0.0,--.--,--.--,--.--,--.--,--.--,--.--,--.--,--.--,--.--,--.--,--.--,--.--,53.70,54.88,--.--,0,0,0.8,1.2,0.9,0,0,0,180.0,0.0,0.0
2025-01-24 13:09:04.633,-0.5,-1.0,29,0.0,0.0,0.0,0.0,0.0,0.028,0.0,0.0,584.2,-0.710,-0.710,0.000,0.0,00:00:11,0.1,0,--.--,--.--,8.5,0,0000:28:15,0,0,0,46.01,4.98,5392,41,59,--.--,--:--:--,1,229.15,13:09:04,24/01/2025,4.96,--.--,--.--,--.--,--.--,--.--,--.--,--.--,--.--,--.--,--.--,100.00,0,0.000,0.000,0.000,0.000,0.000,0.000,0.000,0.000,0.000,0.000,0.000,0.000,false,false,false,false,false,false,false,false,false,false,false,false,--.--,--.--,--.--,--.--,--.--,--.--,--.--,--.--,-23.2556958,-47.2987280,23KKQ 64825 26310,0.5,0.1,26.6,3,28,--.--,--.--,,--.--,--.--,--.--,0,0,--.--,--.--,0,0.7,1.1,-2.7,0.0,0.0,-0.0,--.--,--.--,--.--,--.--,--.--,--.--,--.--,--.--,--.--,--.--,--.--,--.--,53.71,54.86,--.--,0,0,1.2,1.4,0.9,0,0,0,180.0,0.0,0.0
2025-01-24 13:09:05.626,-0.5,-1.0,28,0.0,0.0,0.0,0.0,0.0,0.037,0.0,0.0,584.2,-0.700,-0.700,0.000,0.0,00:00:12,0.1,0,--.--,--.--,8.5,0,0000:28:15,0,0,0,46.01,4.98,5393,41,59,--.--,--:--:--,1,229.13,13:09:05,24/01/2025,4.84,--.--,--.--,--.--,--.--,--.--,--.--,--.--,--.--,--.--,--.--,100.00,0,0.000,0.000,0.000,0.000,0.000,0.000,0.000,0.000,0.000,0.000,0.000,0.000,false,false,false,false,false,false,false,false,false,false,false,false,--.--,--.--,--.--,--.--,--.--,--.--,--.--,--.--,-23.2556957,-47.2987279,23KKQ 64825 26310,0.5,0.1,135.0,3,28,--.--,--.--,,--.--,--.--,--.--,0,0,--.--,--.--,0,0.7,1.2,-2.7,0.0,0.0,-0.0,--.--,--.--,--.--,--.--,--.--,--.--,--.--,--.--,--.--,--.--,--.--,--.--,53.74,54.91,--.--,0,0,0.7,1.2,0.8,0,0,0,180.0,0.0,0.0
2025-01-24 13:09:06.626,-0.5,-1.0,29,0.0,0.0,0.0,0.0,0.1,0.050,0.0,0.1,584.2,-0.690,-0.690,0.000,0.0,00:00:13,0.1,0,--.--,--.--,8.4,0,0000:28:15,0,0,0,46.00,3.99,5395,41,59,--.--,--:--:--,1,183.56,13:09:06,24/01/2025,4.64,--.--,--.--,--.--,--.--,--.--,--.--,--.--,--.--,--.--,--.--,100.00,0,0.000,0.000,0.000,0.000,0.000,0.000,0.000,0.000,0.000,0.000,0.000,0.000,false,false,false,false,false,false,false,false,false,false,false,false,--.--,--.--,--.--,--.--,--.--,--.--,--.--,--.--,-23.2556956,-47.2987277,23KKQ 64825 26310,0.5,0.1,26.6,3,28,--.--,--.--,,--.--,--.--,--.--,0,0,--.--,--.--,0,0.7,1.2,-2.7,-0.0,0.0,-0.0,--.--,--.--,--.--,--.--,--.--,--.--,--.--,--.--,--.--,--.--,--.--,--.--,53.70,54.86,--.--,0,0,0.8,1.8,1.1,0,0,0,180.0,0.0,0.0
2025-01-24 13:09:07.626,-0.5,-1.0,28,0.0,0.0,0.0,0.0,0.0,0.032,0.0,0.1,584.2,-0.680,-0.680,0.000,0.0,00:00:14,0.1,0,--.--,--.--,8.4,0,0000:28:15,0,0,0,46.00,4.98,5396,41,59,--.--,--:--:--,1,229.09,13:09:07,24/01/2025,4.60,--.--,--.--,--.--,--.--,--.--,--.--,--.--,--.--,--.--,--.--,100.00,0,0.000,0.000,0.000,0.000,0.000,0.000,0.000,0.000,0.000,0.000,0.000,0.000,false,false,false,false,false,false,false,false,false,false,false,false,--.--,--.--,--.--,--.--,--.--,--.--,--.--,--.--,-23.2556955,-47.2987276,23KKQ 64825 26310,0.5,0.1,180.0,3,28,--.--,--.--,,--.--,--.--,--.--,0,0,--.--,--.--,0,0.7,1.2,-2.7,0.0,-0.0,-0.0,--.--,--.--,--.--,--.--,--.--,--.--,--.--,--.--,--.--,--.--,--.--,--.--,53.74,54.88,--.--,0,0,0.7,1.1,1.0,0,0,0,180.0,0.0,0.0
2025-01-24 13:09:08.630,-0.5,-1.0,29,0.0,0.0,0.0,0.0,0.0,0.035,0.0,0.1,584.3,-0.660,-0.660,0.000,0.0,00:00:15,0.2,0,--.--,--.--,8.4,0,0000:28:15,0,0,0,46.00,3.99,5397,41,59,--.--,--:--:--,1,183.54,13:09:08,24/01/2025,4.71,--.--,--.--,--.--,--.--,--.--,--.--,--.--,--.--,--.--,--.--,100.00,0,0.000,0.000,0.000,0.000,0.000,0.000,0.000,0.000,0.000,0.000,0.000,0.000,false,false,false,false,false,false,false,false,false,false,false,false,--.--,--.--,--.--,--.--,--.--,--.--,--.--,--.--,-23.2556954,-47.2987275,23KKQ 64825 26310,0.5,0.1,56.3,3,28,--.--,--.--,,--.--,--.--,--.--,0,0,--.--,--.--,0,0.7,1.2,-2.7,0.0,0.0,-0.0,--.--,--.--,--.--,--.--,--.--,--.--,--.--,--.--,--.--,--.--,--.--,--.--,53.71,54.88,--.--,0,0,1.0,1.7,0.9,0,0,0,180.0,0.0,0.0
2025-01-24 13:09:09.625,-0.5,-1.0,28,0.0,0.0,0.0,0.0,0.0,0.040,0.0,0.1,584.3,-0.650,-0.650,0.000,0.0,00:00:16,0.1,0,--.--,--.--,8.4,0,0000:28:15,0,0,0,46.00,3.99,5398,41,59,--.--,--:--:--,1,183.55,13:09:09,24/01/2025,4.77,--.--,--.--,--.--,--.--,--.--,--.--,--.--,--.--,--.--,--.--,100.00,0,0.000,0.000,0.000,0.000,0.000,0.000,0.000,0.000,0.000,0.000,0.000,0.000,false,false,false,false,false,false,false,false,false,false,false,false,--.--,--.--,--.--,--.--,--.--,--.--,--.--,--.--,-23.2556953,-47.2987274,23KKQ 64825 26311,0.5,0.1,161.6,3,28,--.--,--.--,,--.--,--.--,--.--,0,0,--.--,--.--,0,0.7,1.2,-2.8,0.0,-0.0,-0.0,--.--,--.--,--.--,--.--,--.--,--.--,--.--,--.--,--.--,--.--,--.--,--.--,53.65,54.89,--.--,0,0,0.8,1.4,0.8,0,0,0,180.0,0.0,0.0
2025-01-24 13:09:10.625,-0.5,-1.0,29,0.0,0.0,0.0,0.0,0.0,0.023,0.0,0.1,584.3,-0.630,-0.630,0.000,0.0,00:00:17,0.2,0,--.--,--.--,8.4,0,0000:28:15,0,0,0,45.99,4.98,5400,41,59,--.--,--:--:--,1,229.05,13:09:10,24/01/2025,4.73,--.--,--.--,--.--,--.--,--.--,--.--,--.--,--.--,--.--,--.--,100.00,0,0.000,0.000,0.000,0.000,0.000,0.000,0.000,0.000,0.000,0.000,0.000,0.000,false,false,false,false,false,false,false,false,false,false,false,false,--.--,--.--,--.--,--.--,--.--,--.--,--.--,--.--,-23.2556952,-47.2987272,23KKQ 64825 26311,0.5,0.1,26.6,3,28,--.--,--.--,,--.--,--.--,--.--,0,0,--.--,--.--,0,0.7,1.2,-2.8,-0.0,0.0,-0.0,--.--,--.--,--.--,--.--,--.--,--.--,--.--,--.--,--.--,--.--,--.--,--.--,53.67,54.86,--.--,0,0,0.8,1.5,0.7,0,0,0,180.0,0.0,0.0
2025-01-24 13:09:11.629,-0.6,-0.9,28,0.0,0.0,0.0,0.0,0.0,0.040,0.0,0.1,584.3,-0.610,-0.610,0.000,0.0,00:00:18,0.2,0,--.--,--.--,8.4,0,0000:28:15,0,0,0,46.00,4.98,5401,41,59,--.--,--:--:--,1,229.07,13:09:11,24/01/2025,4.78,--.--,--.--,--.--,--.--,--.--,--.--,--.--,--.--,--.--,--.--,100.00,0,0.000,0.000,0.000,0.000,0.000,0.000,0.000,0.000,0.000,0.000,0.000,0.000,false,false,false,false,false,false,false,false,false,false,false,false,--.--,--.--,--.--,--.--,--.--,--.--,--.--,--.--,-23.2556952,-47.2987270,23KKQ 64825 26311,0.5,0.1,180.0,3,28,--.--,--.--,,--.--,--.--,--.--,0,0,--.--,--.--,0,0.7,1.2,-2.8,0.0,-0.0,-0.0,--.--,--.--,--.--,--.--,--.--,--.--,--.--,--.--,--.--,--.--,--.--,--.--,53.70,54.85,--.--,0,0,1.0,1.7,0.8,0,0,0,180.0,0.0,0.0
2025-01-24 13:09:12.633,-0.5,-1.0,29,0.0,0.0,0.0,0.0,0.0,0.032,0.0,0.1,584.3,-0.600,-0.600,0.000,0.0,00:00:19,0.2,0,--.--,--.--,8.3,0,0000:28:15,0,0,0,45.99,4.98,5402,41,59,--.--,--:--:--,1,229.03,13:09:12,24/01/2025,4.58,--.--,--.--,--.--,--.--,--.--,--.--,--.--,--.--,--.--,--.--,100.00,0,0.000,0.000,0.000,0.000,0.000,0.000,0.000,0.000,0.000,0.000,0.000,0.000,false,false,false,false,false,false,false,false,false,false,false,false,--.--,--.--,--.--,--.--,--.--,--.--,--.--,--.--,-23.2556950,-47.2987269,23KKQ 64825 26311,0.5,0.1,45.0,3,28,--.--,--.--,,--.--,--.--,--.--,0,0,--.--,--.--,0,0.7,1.2,-2.8,0.0,-0.0,-0.0,--.--,--.--,--.--,--.--,--.--,--.--,--.--,--.--,--.--,--.--,--.--,--.--,53.70,54.88,--.--,0,0,1.1,1.4,0.8,0,0,0,180.0,0.0,0.0
2025-01-24 13:09:13.627,-0.5,-0.9,28,0.0,0.0,0.0,0.0,0.0,0.027,0.0,0.2,584.3,-0.580,-0.580,0.000,0.0,00:00:20,0.2,0,--.--,--.--,8.3,0,0000:28:15,0,0,0,45.99,4.98,5404,41,59,--.--,--:--:--,1,229.01,13:09:13,24/01/2025,4.86,--.--,--.--,--.--,--.--,--.--,--.--,--.--,--.--,--.--,--.--,100.00,0,0.000,0.000,0.000,0.000,0.000,0.000,0.000,0.000,0.000,0.000,0.000,0.000,false,false,false,false,false,false,false,false,false,false,false,false,--.--,--.--,--.--,--.--,--.--,--.--,--.--,--.--,-23.2556949,-47.2987267,23KKQ 64825 26311,0.5,0.1,161.6,3,28,--.--,--.--,,--.--,--.--,--.--,0,0,--.--,--.--,0,0.7,1.3,-2.8,0.0,0.0,-0.0,--.--,--.--,--.--,--.--,--.--,--.--,--.--,--.--,--.--,--.--,--.--,--.--,53.74,54.85,--.--,0,0,0.8,1.4,1.0,0,0,0,180.0,0.0,0.0
2025-01-24 13:09:14.629,-0.5,-1.0,29,0.0,0.0,0.0,0.0,0.0,0.047,0.0,0.2,584.4,-0.560,-0.560,0.000,0.0,00:00:21,0.2,0,--.--,--.--,8.3,0,0000:28:15,0,0,0,45.99,4.98,5405,41,59,--.--,--:--:--,1,229.02,13:09:14,24/01/2025,4.61,--.--,--.--,--.--,--.--,--.--,--.--,--.--,--.--,--.--,--.--,100.00,0,0.000,0.000,0.000,0.000,0.000,0.000,0.000,0.000,0.000,0.000,0.000,0.000,false,false,false,false,false,false,false,false,false,false,false,false,--.--,--.--,--.--,--.--,--.--,--.--,--.--,--.--,-23.2556948,-47.2987266,23KKQ 64825 26311,0.5,0.1,68.2,3,28,--.--,--.--,,--.--,--.--,--.--,0,0,--.--,--.--,0,0.8,1.3,-2.8,0.0,0.0,-0.0,--.--,--.--,--.--,--.--,--.--,--.--,--.--,--.--,--.--,--.--,--.--,--.--,53.68,54.85,--.--,0,0,1.4,1.1,0.9,0,0,0,180.0,0.0,0.0
2025-01-24 13:09:15.626,-0.5,-0.9,28,0.0,0.0,0.0,0.0,0.0,0.034,0.0,0.2,584.4,-0.550,-0.550,0.000,0.0,00:00:22,0.2,0,--.--,--.--,8.3,0,0000:28:15,0,0,0,45.99,4.98,5406,41,59,--.--,--:--:--,1,229.01,13:09:15,24/01/2025,4.71,--.--,--.--,--.--,--.--,--.--,--.--,--.--,--.--,--.--,--.--,100.00,0,0.000,0.000,0.000,0.000,0.000,0.000,0.000,0.000,0.000,0.000,0.000,0.000,false,false,false,false,false,false,false,false,false,false,false,false,--.--,--.--,--.--,--.--,--.--,--.--,--.--,--.--,-23.2556947,-47.2987265,23KKQ 64825 26311,0.5,0.1,123.7,3,28,--.--,--.--,,--.--,--.--,--.--,0,0,--.--,--.--,0,0.7,1.3,-2.9,0.0,0.0,-0.0,--.--,--.--,--.--,--.--,--.--,--.--,--.--,--.--,--.--,--.--,--.--,--.--,53.71,54.85,--.--,0,0,0.9,1.5,1.0,0,0,0,180.0,0.0,0.0
2025-01-24 13:09:16.653,-0.6,-1.0,28,0.0,0.0,0.0,0.0,0.0,0.037,0.0,0.2,584.4,-0.540,-0.540,0.000,0.0,00:00:23,0.3,0,--.--,--.--,8.3,0,0000:28:15,0,0,0,45.99,4.98,5409,41,59,--.--,--:--:--,1,229.01,13:09:16,24/01/2025,4.80,--.--,--.--,--.--,--.--,--.--,--.--,--.--,--.--,--.--,--.--,100.00,0,0.000,0.000,0.000,0.000,0.000,0.000,0.000,0.000,0.000,0.000,0.000,0.000,false,false,false,false,false,false,false,false,false,false,false,false,--.--,--.--,--.--,--.--,--.--,--.--,--.--,--.--,-23.2556946,-47.2987264,23KKQ 64825 26311,0.5,0.1,56.3,3,28,--.--,--.--,,--.--,--.--,--.--,0,0,--.--,--.--,0,0.8,1.3,-2.9,0.0,0.0,-0.0,--.--,--.--,--.--,--.--,--.--,--.--,--.--,--.--,--.--,--.--,--.--,--.--,53.72,54.86,--.--,0,0,1.3,1.5,1.1,0,0,0,180.0,0.0,0.0
2025-01-24 13:09:17.627,-0.6,-0.9,28,0.0,0.0,0.0,0.0,0.0,0.036,0.0,0.2,584.4,-0.520,-0.520,0.000,0.0,00:00:24,0.3,0,--.--,--.--,8.3,0,0000:28:15,0,0,0,45.99,3.99,5409,41,59,--.--,--:--:--,1,183.49,13:09:17,24/01/2025,4.66,--.--,--.--,--.--,--.--,--.--,--.--,--.--,--.--,--.--,--.--,100.00,0,0.000,0.000,0.000,0.000,0.000,0.000,0.000,0.000,0.000,0.000,0.000,0.000,false,false,false,false,false,false,false,false,false,false,false,false,--.--,--.--,--.--,--.--,--.--,--.--,--.--,--.--,-23.2556945,-47.2987263,23KKQ 64825 26311,0.5,0.1,108.4,3,28,--.--,--.--,,--.--,--.--,--.--,0,0,--.--,--.--,0,0.8,1.3,-2.9,0.0,0.0,-0.0,--.--,--.--,--.--,--.--,--.--,--.--,--.--,--.--,--.--,--.--,--.--,--.--,53.70,54.86,--.--,0,0,0.9,1.4,0.9,0,0,0,180.0,0.0,0.0
2025-01-24 13:09:18.642,-0.5,-1.0,29,0.0,0.0,0.0,0.0,0.0,0.033,0.0,0.2,584.4,-0.510,-0.510,0.000,0.0,00:00:25,0.3,0,--.--,--.--,8.2,0,0000:28:15,0,0,0,45.98,3.99,5410,41,59,--.--,--:--:--,1,183.46,13:09:18,24/01/2025,4.56,--.--,--.--,--.--,--.--,--.--,--.--,--.--,--.--,--.--,--.--,100.00,0,0.000,0.000,0.000,0.000,0.000,0.000,0.000,0.000,0.000,0.000,0.000,0.000,false,false,false,false,false,false,false,false,false,false,false,false,--.--,--.--,--.--,--.--,--.--,--.--,--.--,--.--,-23.2556944,-47.2987262,23KKQ 64825 26311,0.5,0.1,45.0,3,28,--.--,--.--,,--.--,--.--,--.--,0,0,--.--,--.--,0,0.8,1.3,-2.9,0.0,-0.0,-0.0,--.--,--.--,--.--,--.--,--.--,--.--,--.--,--.--,--.--,--.--,--.--,--.--,53.67,54.85,--.--,0,0,1.0,1.2,0.8,0,0,0,180.0,0.0,0.0
2025-01-24 13:09:19.626,-0.6,-0.9,28,0.0,0.0,0.0,0.0,0.0,0.037,0.0,0.2,584.4,-0.500,-0.500,0.000,0.0,00:00:26,0.3,0,--.--,--.--,8.2,0,0000:28:15,0,0,0,45.98,4.98,5412,41,59,--.--,--:--:--,1,228.99,13:09:19,24/01/2025,4.69,--.--,--.--,--.--,--.--,--.--,--.--,--.--,--.--,--.--,--.--,100.00,0,0.000,0.000,0.000,0.000,0.000,0.000,0.000,0.000,0.000,0.000,0.000,0.000,false,false,false,false,false,false,false,false,false,false,false,false,--.--,--.--,--.--,--.--,--.--,--.--,--.--,--.--,-23.2556943,-47.2987261,23KKQ 64825 26311,0.5,0.1,135.0,3,28,--.--,--.--,,--.--,--.--,--.--,0,0,--.--,--.--,0,0.8,1.3,-2.9,-0.0,0.0,-0.0,--.--,--.--,--.--,--.--,--.--,--.--,--.--,--.--,--.--,--.--,--.--,--.--,53.72,54.86,--.--,0,0,1.3,1.2,0.9,0,0,0,180.0,0.0,0.0
2025-01-24 13:09:20.655,-0.5,-0.9,28,0.0,0.0,0.0,0.0,0.0,0.025,0.0,0.3,584.4,-0.480,-0.506,0.041,0.0,00:00:27,0.4,0,--.--,--.--,8.4,5,0000:28:15,0,0,0,45.96,11.99,5413,41,59,--.--,--:--:--,1,551.02,13:09:20,24/01/2025,4.30,--.--,--.--,--.--,--.--,--.--,--.--,--.--,--.--,--.--,--.--,100.00,0,0.000,0.000,0.000,0.000,0.000,0.000,0.000,0.000,0.000,0.000,0.000,0.000,false,false,false,false,false,false,false,false,false,false,false,false,--.--,--.--,--.--,--.--,--.--,--.--,--.--,--.--,-23.2556942,-47.2987260,23KKQ 64825 26311,0.5,0.1,90.0,3,28,--.--,--.--,,--.--,--.--,--.--,0,0,--.--,--.--,0,0.8,1.4,-2.9,0.0,0.0,-0.0,--.--,--.--,--.--,--.--,--.--,--.--,--.--,--.--,--.--,--.--,--.--,--.--,53.69,54.83,--.--,0,0,1.2,1.8,2.1,0,0,0,180.0,0.0,0.0
2025-01-24 13:09:21.626,-0.2,1.7,28,0.0,0.0,0.0,0.0,0.0,0.033,0.0,0.3,584.5,-0.470,-0.532,0.033,0.0,00:00:28,0.4,0,--.--,--.--,8.4,7,0000:28:15,0,0,0,45.84,20.99,5418,41,59,--.--,--:--:--,1,962.10,13:09:21,24/01/2025,9.16,--.--,--.--,--.--,--.--,--.--,--.--,--.--,--.--,--.--,--.--,100.00,0,0.000,0.000,0.000,0.000,0.000,0.000,0.000,0.000,0.000,0.000,0.000,0.000,false,false,false,false,false,false,false,false,false,false,false,false,--.--,--.--,--.--,--.--,--.--,--.--,--.--,--.--,-23.2556941,-47.2987259,23KKQ 64825 26311,0.5,0.1,212.7,3,28,--.--,--.--,,--.--,--.--,--.--,0,0,--.--,--.--,0,0.9,1.3,-2.9,-0.0,-0.0,-0.0,--.--,--.--,--.--,--.--,--.--,--.--,--.--,--.--,--.--,--.--,--.--,--.--,53.72,54.83,--.--,0,0,1.4,0.9,2.3,0,0,0,180.0,0.0,0.0
2025-01-24 13:09:22.643,0.4,0.9,28,0.0,0.0,0.0,0.2,0.3,0.215,0.1,0.3,584.5,-0.430,-0.549,0.017,0.0,00:00:29,0.3,0,--.--,--.--,8.4,10,0000:28:15,0,0,0,45.68,28.99,5424,41,59,--.--,--:--:--,1,1324.38,13:09:22,24/01/2025,5.18,--.--,--.--,--.--,--.--,--.--,--.--,--.--,--.--,--.--,--.--,100.00,0,0.000,0.000,0.000,0.000,0.000,0.000,0.000,0.000,0.000,0.000,0.000,0.000,false,false,false,false,false,false,false,false,false,false,false,false,--.--,--.--,--.--,--.--,--.--,--.--,--.--,--.--,-23.2556943,-47.2987259,23KKQ 64825 26311,0.5,0.1,174.3,3,28,--.--,--.--,,--.--,--.--,--.--,0,0,--.--,--.--,0,0.8,1.3,-3.0,-0.2,0.0,-0.1,--.--,--.--,--.--,--.--,--.--,--.--,--.--,--.--,--.--,--.--,--.--,--.--,53.74,54.80,--.--,0,0,1.1,1.8,3.5,0,0,0,180.0,0.0,0.0
2025-01-24 13:09:23.626,-1.6,-1.6,28,0.0,0.0,0.0,0.0,0.2,0.247,0.2,0.5,584.6,-0.280,-0.380,0.180,0.0,00:00:30,0.2,0,--.--,--.--,7.6,10,0000:28:15,0,0,0,45.54,38.98,5433,41,59,--.--,--:--:--,1,1775.15,13:09:23,24/01/2025,8.89,--.--,--.--,--.--,--.--,--.--,--.--,--.--,--.--,--.--,--.--,100.00,0,0.000,0.000,0.000,0.000,0.000,0.000,0.000,0.000,0.000,0.000,0.000,0.000,false,false,false,false,false,false,false,false,false,false,false,false,--.--,--.--,--.--,--.--,--.--,--.--,--.--,--.--,-23.2556953,-47.2987256,23KKQ 64825 26311,0.5,0.1,169.8,3,28,--.--,--.--,,--.--,--.--,--.--,0,0,--.--,--.--,0,0.6,1.4,-3.1,-0.0,0.0,-0.2,--.--,--.--,--.--,--.--,--.--,--.--,--.--,--.--,--.--,--.--,--.--,--.--,53.72,54.82,--.--,0,0,0.8,1.9,3.1,0,0,0,180.0,0.0,0.0
2025-01-24 13:09:24.628,-0.7,-0.7,28,0.0,0.0,0.0,0.1,0.3,0.301,0.3,0.7,584.9,-0.020,-0.091,0.099,0.0,00:00:31,0.2,0,--.--,--.--,8.1,10,0000:28:15,0,0,0,45.55,38.98,5444,40,59,--.--,--:--:--,1,1775.50,13:09:24,24/01/2025,13.81,--.--,--.--,--.--,--.--,--.--,--.--,--.--,--.--,--.--,--.--,100.00,0,0.000,0.000,0.000,0.000,0.000,0.000,0.000,0.000,0.000,0.000,0.000,0.000,false,false,false,false,false,false,false,false,false,false,false,false,--.--,--.--,--.--,--.--,--.--,--.--,--.--,--.--,-23.2556953,-47.2987250,23KKQ 64825 26311,0.5,0.1,345.1,3,28,--.--,--.--,,--.--,--.--,--.--,0,0,--.--,--.--,0,0.7,1.3,-3.4,0.1,-0.0,-0.3,--.--,--.--,--.--,--.--,--.--,--.--,--.--,--.--,--.--,--.--,--.--,--.--,53.67,54.80,--.--,0,0,1.0,1.7,3.2,0,0,0,180.0,0.0,0.0
2025-01-24 13:09:25.627,-0.5,-0.5,28,0.0,0.0,0.0,0.1,0.3,0.301,0.3,1.0,585.2,0.260,0.211,0.027,0.0,00:00:32,0.3,0,--.--,--.--,7.8,10,0000:28:15,0,0,0,45.46,40.99,5455,40,59,--.--,--:--:--,1,1863.57,13:09:25,24/01/2025,24.45,--.--,--.--,--.--,--.--,--.--,--.--,--.--,--.--,--.--,--.--,100.00,0,0.000,0.000,0.000,0.000,0.000,0.000,0.000,0.000,0.000,0.000,0.000,0.000,false,false,false,false,false,false,false,false,false,false,false,false,--.--,--.--,--.--,--.--,--.--,--.--,--.--,--.--,-23.2556949,-47.2987246,23KKQ 64825 26311,0.5,0.1,345.5,3,28,--.--,--.--,,--.--,--.--,--.--,0,0,--.--,--.--,0,0.8,1.3,-3.7,0.1,-0.0,-0.3,--.--,--.--,--.--,--.--,--.--,--.--,--.--,--.--,--.--,--.--,--.--,--.--,53.69,54.80,--.--,0,0,0.8,1.5,3.3,0,0,0,180.0,0.0,0.0
2025-01-24 13:09:26.627,-0.8,-0.3,29,0.0,0.0,0.0,0.0,0.1,0.121,0.1,1.2,585.3,0.410,0.377,0.041,0.0,00:00:33,0.3,0,--.--,--.--,7.9,11,0000:28:15,0,0,0,45.46,40.99,5467,40,59,--.--,--:--:--,1,1863.32,13:09:26,24/01/2025,25.74,--.--,--.--,--.--,--.--,--.--,--.--,--.--,--.--,--.--,--.--,100.00,0,0.000,0.000,0.000,0.000,0.000,0.000,0.000,0.000,0.000,0.000,0.000,0.000,false,false,false,false,false,false,false,false,false,false,false,false,--.--,--.--,--.--,--.--,--.--,--.--,--.--,--.--,-23.2556945,-47.2987240,23KKQ 64825 26311,0.5,0.1,297.3,3,28,--.--,--.--,,--.--,--.--,--.--,0,0,--.--,--.--,0,0.8,1.4,-3.8,0.0,-0.0,-0.1,--.--,--.--,--.--,--.--,--.--,--.--,--.--,--.--,--.--,--.--,--.--,--.--,53.67,54.82,--.--,0,0,0.9,1.2,4.1,0,0,0,180.0,0.0,0.0
2025-01-24 13:09:27.627,-0.6,-0.5,29,0.0,0.0,0.0,0.0,0.1,0.070,0.1,1.2,585.4,0.500,0.487,0.031,0.0,00:00:34,0.3,0,--.--,--.--,8.7,11,0000:28:15,0,0,0,45.43,41.99,5473,40,59,--.--,--:--:--,1,1907.77,13:09:27,24/01/2025,25.84,--.--,--.--,--.--,--.--,--.--,--.--,--.--,--.--,--.--,--.--,100.00,0,0.000,0.000,0.000,0.000,0.000,0.000,0.000,0.000,0.000,0.000,0.000,0.000,false,false,false,false,false,false,false,false,false,false,false,false,--.--,--.--,--.--,--.--,--.--,--.--,--.--,--.--,-23.2556942,-47.2987250,23KKQ 64825 26311,0.5,0.1,275.9,3,28,--.--,--.--,,--.--,--.--,--.--,0,0,--.--,--.--,0,0.8,1.3,-3.9,0.0,-0.0,-0.1,--.--,--.--,--.--,--.--,--.--,--.--,--.--,--.--,--.--,--.--,--.--,--.--,53.70,54.80,--.--,0,0,1.0,1.7,3.7,0,0,0,180.0,0.0,0.0
2025-01-24 13:09:28.627,-0.8,-0.3,29,0.0,0.0,0.0,0.0,0.0,0.024,-0.0,1.3,585.5,0.540,0.545,0.030,0.0,00:00:35,0.3,0,--.--,--.--,8.7,11,0000:28:15,0,0,0,45.40,42.99,5485,40,58,--.--,--:--:--,1,1951.87,13:09:28,24/01/2025,26.09,--.--,--.--,--.--,--.--,--.--,--.--,--.--,--.--,--.--,--.--,100.00,0,0.000,0.000,0.000,0.000,0.000,0.000,0.000,0.000,0.000,0.000,0.000,0.000,false,false,false,false,false,false,false,false,false,false,false,false,--.--,--.--,--.--,--.--,--.--,--.--,--.--,--.--,-23.2556943,-47.2987254,23KKQ 64825 26311,0.5,0.1,242.2,3,28,--.--,--.--,,--.--,--.--,--.--,0,0,--.--,--.--,0,0.8,1.3,-3.9,-0.0,-0.0,0.0,--.--,--.--,--.--,--.--,--.--,--.--,--.--,--.--,--.--,--.--,--.--,--.--,53.63,54.80,--.--,0,0,1.2,1.1,4.9,0,0,0,180.0,0.0,0.0
2025-01-24 13:09:29.626,-0.6,-0.5,29,0.0,0.0,0.0,0.0,0.0,0.023,-0.0,1.3,585.5,0.560,0.588,0.023,0.0,00:00:36,0.3,0,--.--,--.--,8.5,11,0000:28:15,0,0,0,45.38,42.99,5497,40,58,--.--,--:--:--,1,1950.76,13:09:29,24/01/2025,25.85,--.--,--.--,--.--,--.--,--.--,--.--,--.--,--.--,--.--,--.--,100.00,0,0.000,0.000,0.000,0.000,0.000,0.000,0.000,0.000,0.000,0.000,0.000,0.000,false,false,false,false,false,false,false,false,false,false,false,false,--.--,--.--,--.--,--.--,--.--,--.--,--.--,--.--,-23.2556946,-47.2987261,23KKQ 64825 26311,0.5,0.1,248.7,3,28,--.--,--.--,,--.--,--.--,--.--,0,0,--.--,--.--,0,0.8,1.3,-4.0,0.0,-0.0,0.0,--.--,--.--,--.--,--.--,--.--,--.--,--.--,--.--,--.--,--.--,--.--,--.--,53.68,54.79,--.--,0,0,1.3,1.6,4.3,0,0,0,180.0,0.0,0.0
2025-01-24 13:09:30.626,-0.5,-0.4,29,0.0,0.0,0.0,0.0,0.0,0.035,-0.0,1.3,585.5,0.580,0.623,0.015,0.0,00:00:37,0.3,0,--.--,--.--,8.4,11,0000:28:15,0,0,0,45.35,42.99,5510,40,58,--.--,--:--:--,1,1949.77,13:09:30,24/01/2025,26.11,--.--,--.--,--.--,--.--,--.--,--.--,--.--,--.--,--.--,--.--,100.00,0,0.000,0.000,0.000,0.000,0.000,0.000,0.000,0.000,0.000,0.000,0.000,0.000,false,false,false,false,false,false,false,false,false,false,false,false,--.--,--.--,--.--,--.--,--.--,--.--,--.--,--.--,-23.2556948,-47.2987264,23KKQ 64825 26311,0.5,0.1,245.6,3,28,--.--,--.--,,--.--,--.--,--.--,0,0,--.--,--.--,0,0.8,1.3,-4.0,-0.0,0.0,0.0,--.--,--.--,--.--,--.--,--.--,--.--,--.--,--.--,--.--,--.--,--.--,--.--,53.72,54.79,--.--,0,0,1.8,2.4,4.0,0,0,0,180.0,0.0,0.0
2025-01-24 13:09:31.626,-0.6,4.3,29,0.0,0.0,0.0,0.3,0.3,0.252,-0.0,1.3,585.5,0.580,0.626,0.145,0.0,00:00:38,0.4,0,--.--,--.--,7.9,11,0000:28:15,0,0,0,45.34,43.99,5522,40,58,--.--,--:--:--,1,1994.59,13:09:31,24/01/2025,26.50,--.--,--.--,--.--,--.--,--.--,--.--,--.--,--.--,--.--,--.--,100.00,0,0.000,0.000,0.000,0.000,0.000,0.000,0.000,0.000,0.000,0.000,0.000,0.000,false,false,false,false,false,false,false,false,false,false,false,false,--.--,--.--,--.--,--.--,--.--,--.--,--.--,--.--,-23.2556947,-47.2987260,23KKQ 64825 26311,0.5,0.1,30.2,3,28,--.--,--.--,,--.--,--.--,--.--,0,0,--.--,--.--,0,0.9,1.4,-4.0,0.2,0.1,0.0,--.--,--.--,--.--,--.--,--.--,--.--,--.--,--.--,--.--,--.--,--.--,--.--,53.65,54.84,--.--,0,0,1.0,1.9,3.9,0,0,0,180.0,0.0,0.0
2025-01-24 13:09:32.627,-0.4,5.3,29,0.0,0.0,0.0,0.0,0.1,0.055,-0.0,1.3,585.5,0.570,0.603,0.272,0.0,00:00:39,0.6,0,--.--,--.--,7.6,11,0000:28:15,0,0,0,45.31,42.99,5541,40,58,--.--,--:--:--,1,1948.09,13:09:32,24/01/2025,27.24,--.--,--.--,--.--,--.--,--.--,--.--,--.--,--.--,--.--,--.--,100.00,0,0.000,0.000,0.000,0.000,0.000,0.000,0.000,0.000,0.000,0.000,0.000,0.000,false,false,false,false,false,false,false,false,false,false,false,false,--.--,--.--,--.--,--.--,--.--,--.--,--.--,--.--,-23.2556940,-47.2987253,23KKQ 64825 26311,0.5,0.1,0.0,3,28,--.--,--.--,,--.--,--.--,--.--,0,0,--.--,--.--,0,1.0,1.4,-4.0,-0.0,-0.1,0.0,--.--,--.--,--.--,--.--,--.--,--.--,--.--,--.--,--.--,--.--,--.--,--.--,53.67,54.82,--.--,0,0,1.5,1.3,3.7,0,0,0,180.0,0.0,0.0
2025-01-24 13:09:33.626,-0.3,5.0,28,0.0,0.0,0.0,0.0,0.0,0.044,-0.0,1.3,585.5,0.560,0.583,0.213,0.0,00:00:40,0.5,0,--.--,--.--,7.4,11,0000:28:15,0,0,0,45.32,42.99,5553,40,58,--.--,--:--:--,1,1948.26,13:09:33,24/01/2025,27.31,--.--,--.--,--.--,--.--,--.--,--.--,--.--,--.--,--.--,--.--,100.00,0,0.000,0.000,0.000,0.000,0.000,0.000,0.000,0.000,0.000,0.000,0.000,0.000,false,false,false,false,false,false,false,false,false,false,false,false,--.--,--.--,--.--,--.--,--.--,--.--,--.--,--.--,-23.2556939,-47.2987251,23KKQ 64825 26311,0.5,0.1,149.7,3,28,--.--,--.--,,--.--,--.--,--.--,0,0,--.--,--.--,0,1.0,1.4,-4.0,-0.0,-0.0,0.0,--.--,--.--,--.--,--.--,--.--,--.--,--.--,--.--,--.--,--.--,--.--,--.--,53.66,54.80,--.--,0,0,1.4,2.3,3.4,0,0,0,180.0,0.0,0.0
2025-01-24 13:09:34.665,-0.9,3.7,28,0.0,0.0,0.0,0.3,0.3,0.252,-0.0,1.3,585.5,0.550,0.563,0.125,0.0,00:00:41,0.4,0,--.--,--.--,7.4,11,0000:28:15,0,0,0,45.30,42.99,5560,40,58,--.--,--:--:--,1,1947.58,13:09:34,24/01/2025,27.32,--.--,--.--,--.--,--.--,--.--,--.--,--.--,--.--,--.--,--.--,100.00,0,0.000,0.000,0.000,0.000,0.000,0.000,0.000,0.000,0.000,0.000,0.000,0.000,false,false,false,false,false,false,false,false,false,false,false,false,--.--,--.--,--.--,--.--,--.--,--.--,--.--,--.--,-23.2556942,-47.2987248,23KKQ 64825 26311,0.5,0.1,233.3,3,28,--.--,--.--,,--.--,--.--,--.--,0,0,--.--,--.--,0,0.9,1.4,-4.0,-0.2,-0.2,-0.0,--.--,--.--,--.--,--.--,--.--,--.--,--.--,--.--,--.--,--.--,--.--,--.--,53.67,54.75,--.--,0,0,1.0,1.7,4.7,0,0,0,180.0,0.0,0.0
2025-01-24 13:09:35.626,0.5,-2.0,28,0.0,0.0,0.0,0.2,0.2,0.238,-0.0,1.3,585.4,0.530,0.530,0.192,0.0,00:00:42,0.1,0,--.--,--.--,7.4,11,0000:28:15,0,0,0,45.28,42.99,5572,40,58,--.--,--:--:--,1,1946.72,13:09:35,24/01/2025,23.68,--.--,--.--,--.--,--.--,--.--,--.--,--.--,--.--,--.--,--.--,100.00,0,0.000,0.000,0.000,0.000,0.000,0.000,0.000,0.000,0.000,0.000,0.000,0.000,false,false,false,false,false,false,false,false,false,false,false,false,--.--,--.--,--.--,--.--,--.--,--.--,--.--,--.--,-23.2556956,-47.2987265,23KKQ 64825 26310,0.5,0.1,216.7,3,28,--.--,--.--,,--.--,--.--,--.--,0,0,--.--,--.--,0,0.6,1.2,-3.9,-0.2,-0.1,0.0,--.--,--.--,--.--,--.--,--.--,--.--,--.--,--.--,--.--,--.--,--.--,--.--,53.70,54.78,--.--,0,0,1.4,2.0,4.8,0,0,0,180.0,0.0,0.0
2025-01-24 13:09:36.625,-1.3,-1.0,28,0.0,0.0,0.0,0.1,0.1,0.056,-0.0,1.3,585.4,0.520,0.511,0.211,0.0,00:00:43,0.1,0,--.--,--.--,7.3,11,0000:28:15,0,0,0,45.26,43.99,5584,40,58,--.--,--:--:--,1,1991.12,13:09:36,24/01/2025,19.45,--.--,--.--,--.--,--.--,--.--,--.--,--.--,--.--,--.--,--.--,100.00,0,0.000,0.000,0.000,0.000,0.000,0.000,0.000,0.000,0.000,0.000,0.000,0.000,false,false,false,false,false,false,false,false,false,false,false,false,--.--,--.--,--.--,--.--,--.--,--.--,--.--,--.--,-23.2556966,-47.2987272,23KKQ 64825 26310,0.5,0.1,1.2,3,28,--.--,--.--,,--.--,--.--,--.--,0,0,--.--,--.--,0,0.6,1.2,-3.9,0.1,0.0,-0.0,--.--,--.--,--.--,--.--,--.--,--.--,--.--,--.--,--.--,--.--,--.--,--.--,53.64,54.78,--.--,0,0,2.1,1.7,3.5,0,0,0,180.0,0.0,0.0
2025-01-24 13:09:37.627,-0.4,-0.7,28,0.0,0.0,0.0,0.1,0.1,0.061,0.0,1.2,585.4,0.510,0.489,0.154,0.0,00:00:44,0.1,0,--.--,--.--,7.3,11,0000:28:15,0,0,0,45.26,42.99,5596,40,57,--.--,--:--:--,1,1945.64,13:09:37,24/01/2025,25.88,--.--,--.--,--.--,--.--,--.--,--.--,--.--,--.--,--.--,--.--,100.00,0,0.000,0.000,0.000,0.000,0.000,0.000,0.000,0.000,0.000,0.000,0.000,0.000,false,false,false,false,false,false,false,false,false,false,false,false,--.--,--.--,--.--,--.--,--.--,--.--,--.--,--.--,-23.2556963,-47.2987270,23KKQ 64825 26310,0.6,0.1,345.6,3,27,--.--,--.--,,--.--,--.--,--.--,0,0,--.--,--.--,0,0.7,1.2,-3.9,0.0,0.0,-0.0,--.--,--.--,--.--,--.--,--.--,--.--,--.--,--.--,--.--,--.--,--.--,--.--,53.63,54.76,--.--,0,0,1.8,1.8,2.8,0,0,0,180.0,0.0,0.0
2025-01-24 13:09:38.628,-0.6,-0.8,28,0.0,0.0,0.0,0.1,0.1,0.061,0.0,1.3,585.4,0.520,0.507,0.119,0.0,00:00:45,0.2,0,--.--,--.--,7.5,11,0000:28:15,0,0,0,45.26,42.99,5609,40,57,--.--,--:--:--,1,1945.77,13:09:38,24/01/2025,25.83,--.--,--.--,--.--,--.--,--.--,--.--,--.--,--.--,--.--,--.--,100.00,0,0.000,0.000,0.000,0.000,0.000,0.000,0.000,0.000,0.000,0.000,0.000,0.000,false,false,false,false,false,false,false,false,false,false,false,false,--.--,--.--,--.--,--.--,--.--,--.--,--.--,--.--,-23.2556955,-47.2987269,23KKQ 64825 26310,0.5,0.1,348.9,3,28,--.--,--.--,,--.--,--.--,--.--,0,0,--.--,--.--,0,0.7,1.2,-3.9,0.1,-0.0,-0.0,--.--,--.--,--.--,--.--,--.--,--.--,--.--,--.--,--.--,--.--,--.--,--.--,53.68,54.76,--.--,0,0,1.4,2.1,4.4,0,0,0,180.0,0.0,0.0
2025-01-24 13:09:39.626,0.9,-0.6,28,0.0,0.0,0.0,0.1,0.1,0.101,0.0,1.3,585.4,0.530,0.524,0.045,0.0,00:00:46,0.2,0,--.--,--.--,7.6,11,0000:28:15,0,0,0,45.25,41.99,5621,40,57,--.--,--:--:--,1,1900.09,13:09:39,24/01/2025,25.51,--.--,--.--,--.--,--.--,--.--,--.--,--.--,--.--,--.--,--.--,100.00,0,0.000,0.000,0.000,0.000,0.000,0.000,0.000,0.000,0.000,0.000,0.000,0.000,false,false,false,false,false,false,false,false,false,false,false,false,--.--,--.--,--.--,--.--,--.--,--.--,--.--,--.--,-23.2556947,-47.2987275,23KKQ 64825 26311,0.5,0.1,344.3,3,28,--.--,--.--,,--.--,--.--,--.--,0,0,--.--,--.--,0,0.8,1.2,-3.9,0.1,0.0,0.0,--.--,--.--,--.--,--.--,--.--,--.--,--.--,--.--,--.--,--.--,--.--,--.--,53.65,54.75,--.--,0,0,1.7,2.3,4.1,0,0,0,180.0,0.0,0.0
2025-01-24 13:09:40.628,-0.2,-0.3,28,0.0,0.0,0.0,0.1,0.1,0.099,0.0,1.3,585.5,0.540,0.544,0.028,0.0,00:00:47,0.3,0,--.--,--.--,7.8,11,0000:28:15,0,0,0,45.23,43.99,5633,40,57,--.--,--:--:--,1,1989.67,13:09:40,24/01/2025,25.93,--.--,--.--,--.--,--.--,--.--,--.--,--.--,--.--,--.--,--.--,100.00,0,0.000,0.000,0.000,0.000,0.000,0.000,0.000,0.000,0.000,0.000,0.000,0.000,false,false,false,false,false,false,false,false,false,false,false,false,--.--,--.--,--.--,--.--,--.--,--.--,--.--,--.--,-23.2556937,-47.2987284,23KKQ 64825 26311,0.5,0.1,96.3,3,28,--.--,--.--,,--.--,--.--,--.--,0,0,--.--,--.--,0,0.8,1.2,-3.9,-0.0,0.1,-0.0,--.--,--.--,--.--,--.--,--.--,--.--,--.--,--.--,--.--,--.--,--.--,--.--,53.68,54.77,--.--,0,0,0.8,1.5,3.7,0,0,0,180.0,0.0,0.0
2025-01-24 13:09:41.627,-0.9,-0.7,28,0.0,0.0,0.0,0.1,0.1,0.058,-0.0,1.3,585.5,0.550,0.572,0.037,0.0,00:00:48,0.3,0,--.--,--.--,7.8,11,0000:28:15,0,0,0,45.23,42.99,5639,40,57,--.--,--:--:--,1,1944.61,13:09:41,24/01/2025,25.81,--.--,--.--,--.--,--.--,--.--,--.--,--.--,--.--,--.--,--.--,100.00,0,0.000,0.000,0.000,0.000,0.000,0.000,0.000,0.000,0.000,0.000,0.000,0.000,false,false,false,false,false,false,false,false,false,false,false,false,--.--,--.--,--.--,--.--,--.--,--.--,--.--,--.--,-23.2556939,-47.2987283,23KKQ 64825 26311,0.5,0.1,133.6,3,28,--.--,--.--,,--.--,--.--,--.--,0,0,--.--,--.--,0,0.8,1.3,-4.0,-0.1,0.0,0.0,--.--,--.--,--.--,--.--,--.--,--.--,--.--,--.--,--.--,--.--,--.--,--.--,53.65,54.72,--.--,0,0,1.0,1.6,5.6,0,0,0,180.0,0.0,0.0
2025-01-24 13:09:42.628,-0.1,-0.9,28,0.0,0.0,0.0,0.1,0.1,0.089,-0.0,1.3,585.5,0.560,0.585,0.029,0.0,00:00:49,0.3,0,--.--,--.--,7.8,11,0000:28:15,0,0,0,45.23,42.99,5652,40,57,--.--,--:--:--,1,1944.61,13:09:42,24/01/2025,25.63,--.--,--.--,--.--,--.--,--.--,--.--,--.--,--.--,--.--,--.--,100.00,0,0.000,0.000,0.000,0.000,0.000,0.000,0.000,0.000,0.000,0.000,0.000,0.000,false,false,false,false,false,false,false,false,false,false,false,false,--.--,--.--,--.--,--.--,--.--,--.--,--.--,--.--,-23.2556941,-47.2987281,23KKQ 64825 26311,0.5,0.1,263.5,3,28,--.--,--.--,,--.--,--.--,--.--,0,0,--.--,--.--,0,0.8,1.2,-4.0,0.0,-0.1,0.0,--.--,--.--,--.--,--.--,--.--,--.--,--.--,--.--,--.--,--.--,--.--,--.--,53.68,54.75,--.--,0,0,1.6,2.4,4.8,0,0,0,180.0,0.0,0.0
2025-01-24 13:09:43.626,0.0,-0.7,28,0.0,0.0,0.0,0.1,0.1,0.060,0.0,1.3,585.5,0.560,0.584,0.042,0.0,00:00:50,0.3,0,--.--,--.--,7.7,11,0000:28:15,0,0,0,45.22,42.99,5664,40,56,--.--,--:--:--,1,1944.05,13:09:43,24/01/2025,22.45,--.--,--.--,--.--,--.--,--.--,--.--,--.--,--.--,--.--,--.--,100.00,0,0.000,0.000,0.000,0.000,0.000,0.000,0.000,0.000,0.000,0.000,0.000,0.000,false,false,false,false,false,false,false,false,false,false,false,false,--.--,--.--,--.--,--.--,--.--,--.--,--.--,--.--,-23.2556941,-47.2987282,23KKQ 64825 26311,0.5,0.1,54.2,3,28,--.--,--.--,,--.--,--.--,--.--,0,0,--.--,--.--,0,0.8,1.2,-4.0,0.0,0.1,0.0,--.--,--.--,--.--,--.--,--.--,--.--,--.--,--.--,--.--,--.--,--.--,--.--,53.66,54.77,--.--,0,0,0.8,1.9,3.9,0,0,0,180.0,0.0,0.0
2025-01-24 13:09:44.642,-0.2,-0.8,28,0.0,0.0,0.0,0.0,0.0,0.047,-0.0,1.3,585.5,0.590,0.606,0.019,0.0,00:00:51,0.3,0,--.--,--.--,7.5,11,0000:28:15,0,0,0,45.22,42.99,5683,40,56,--.--,--:--:--,1,1944.18,13:09:44,24/01/2025,25.74,--.--,--.--,--.--,--.--,--.--,--.--,--.--,--.--,--.--,--.--,100.00,0,0.000,0.000,0.000,0.000,0.000,0.000,0.000,0.000,0.000,0.000,0.000,0.000,false,false,false,false,false,false,false,false,false,false,false,false,--.--,--.--,--.--,--.--,--.--,--.--,--.--,--.--,-23.2556940,-47.2987281,23KKQ 64825 26311,0.5,0.1,102.7,3,28,--.--,--.--,,--.--,--.--,--.--,0,0,--.--,--.--,0,0.8,1.2,-4.0,-0.0,0.0,0.0,--.--,--.--,--.--,--.--,--.--,--.--,--.--,--.--,--.--,--.--,--.--,--.--,53.66,54.73,--.--,0,0,0.8,1.7,3.9,0,0,0,180.0,0.0,0.0
2025-01-24 13:09:45.623,-0.2,-0.4,28,0.0,0.0,0.0,0.0,0.0,0.030,0.0,1.3,585.5,0.580,0.571,0.011,0.0,00:00:52,0.3,0,--.--,--.--,6.8,11,0000:28:15,0,0,0,45.19,41.99,5695,40,56,--.--,--:--:--,1,1897.70,13:09:45,24/01/2025,25.74,--.--,--.--,--.--,--.--,--.--,--.--,--.--,--.--,--.--,--.--,100.00,0,0.000,0.000,0.000,0.000,0.000,0.000,0.000,0.000,0.000,0.000,0.000,0.000,false,false,false,false,false,false,false,false,false,false,false,false,--.--,--.--,--.--,--.--,--.--,--.--,--.--,--.--,-23.2556941,-47.2987277,23KKQ 64825 26311,0.5,0.1,107.9,3,28,--.--,--.--,,--.--,--.--,--.--,0,0,--.--,--.--,0,0.8,1.3,-4.0,-0.0,0.0,0.0,--.--,--.--,--.--,--.--,--.--,--.--,--.--,--.--,--.--,--.--,--.--,--.--,53.63,54.75,--.--,0,0,0.7,2.0,4.5,0,0,0,180.0,0.0,0.0
2025-01-24 13:09:46.627,-0.4,-0.5,28,0.0,0.0,0.0,0.0,0.0,0.020,0.0,1.3,585.5,0.590,0.586,0.016,0.0,00:00:53,0.3,0,--.--,--.--,6.3,11,0000:28:15,0,0,0,45.19,42.99,5707,40,56,--.--,--:--:--,1,1942.93,13:09:46,24/01/2025,25.76,--.--,--.--,--.--,--.--,--.--,--.--,--.--,--.--,--.--,--.--,100.00,0,0.000,0.000,0.000,0.000,0.000,0.000,0.000,0.000,0.000,0.000,0.000,0.000,false,false,false,false,false,false,false,false,false,false,false,false,--.--,--.--,--.--,--.--,--.--,--.--,--.--,--.--,-23.2556942,-47.2987274,23KKQ 64825 26311,0.5,0.1,122.3,3,28,--.--,--.--,,--.--,--.--,--.--,0,0,--.--,--.--,0,0.8,1.3,-4.0,-0.0,-0.0,-0.0,--.--,--.--,--.--,--.--,--.--,--.--,--.--,--.--,--.--,--.--,--.--,--.--,53.65,54.74,--.--,0,0,0.8,1.3,4.2,0,0,0,180.0,0.0,0.0
2025-01-24 13:09:47.626,-0.3,-0.7,28,0.0,0.0,0.0,0.0,0.0,0.025,0.0,1.3,585.5,0.570,0.552,0.021,0.0,00:00:54,0.3,0,--.--,--.--,6.1,11,0000:28:15,0,0,0,45.19,42.99,5719,40,56,--.--,--:--:--,1,1942.72,13:09:47,24/01/2025,25.61,--.--,--.--,--.--,--.--,--.--,--.--,--.--,--.--,--.--,--.--,100.00,0,0.000,0.000,0.000,0.000,0.000,0.000,0.000,0.000,0.000,0.000,0.000,0.000,false,false,false,false,false,false,false,false,false,false,false,false,--.--,--.--,--.--,--.--,--.--,--.--,--.--,--.--,-23.2556943,-47.2987273,23KKQ 64825 26311,0.5,0.1,198.4,3,28,--.--,--.--,,--.--,--.--,--.--,0,0,--.--,--.--,0,0.8,1.3,-4.0,0.0,-0.0,0.0,--.--,--.--,--.--,--.--,--.--,--.--,--.--,--.--,--.--,--.--,--.--,--.--,53.62,54.73,--.--,0,0,1.4,1.9,4.1,0,0,0,180.0,0.0,0.0
2025-01-24 13:09:48.628,-0.6,-0.4,28,0.0,0.0,0.0,0.0,0.0,0.019,-0.0,1.3,585.5,0.570,0.547,0.017,0.0,00:00:55,0.3,0,--.--,--.--,6.1,11,0000:28:15,0,0,0,45.18,42.99,5731,40,56,--.--,--:--:--,1,1942.37,13:09:48,24/01/2025,25.70,--.--,--.--,--.--,--.--,--.--,--.--,--.--,--.--,--.--,--.--,100.00,0,0.000,0.000,0.000,0.000,0.000,0.000,0.000,0.000,0.000,0.000,0.000,0.000,false,false,false,false,false,false,false,false,false,false,false,false,--.--,--.--,--.--,--.--,--.--,--.--,--.--,--.--,-23.2556943,-47.2987273,23KKQ 64825 26311,0.5,0.1,274.8,3,28,--.--,--.--,,--.--,--.--,--.--,0,0,--.--,--.--,0,0.8,1.3,-4.0,0.0,-0.0,0.0,--.--,--.--,--.--,--.--,--.--,--.--,--.--,--.--,--.--,--.--,--.--,--.--,53.64,54.71,--.--,0,0,1.6,1.6,4.5,0,0,0,180.0,0.0,0.0
2025-01-24 13:09:49.626,0.8,-0.5,28,0.0,0.0,0.0,0.0,0.0,0.047,-0.0,1.3,585.5,0.580,0.564,0.053,0.0,00:00:56,0.3,0,--.--,--.--,6.1,11,0000:28:15,0,0,0,45.18,42.99,5737,40,56,--.--,--:--:--,1,1942.16,13:09:49,24/01/2025,25.80,--.--,--.--,--.--,--.--,--.--,--.--,--.--,--.--,--.--,--.--,100.00,0,0.000,0.000,0.000,0.000,0.000,0.000,0.000,0.000,0.000,0.000,0.000,0.000,false,false,false,false,false,false,false,false,false,false,false,false,--.--,--.--,--.--,--.--,--.--,--.--,--.--,--.--,-23.2556942,-47.2987274,23KKQ 64825 26311,0.5,0.1,285.9,3,28,--.--,--.--,,--.--,--.--,--.--,0,0,--.--,--.--,0,0.8,1.2,-4.0,0.0,-0.0,0.0,--.--,--.--,--.--,--.--,--.--,--.--,--.--,--.--,--.--,--.--,--.--,--.--,53.64,54.72,--.--,0,0,1.4,2.1,4.5,0,0,0,180.0,0.0,0.0
2025-01-24 13:09:50.626,0.2,-0.5,28,0.0,0.0,0.0,0.1,0.1,0.065,0.0,1.3,585.5,0.570,0.552,0.035,0.0,00:00:57,0.3,0,--.--,--.--,5.9,11,0000:28:15,0,0,0,45.16,42.99,5750,40,56,--.--,--:--:--,1,1941.30,13:09:50,24/01/2025,25.43,--.--,--.--,--.--,--.--,--.--,--.--,--.--,--.--,--.--,--.--,100.00,0,0.000,0.000,0.000,0.000,0.000,0.000,0.000,0.000,0.000,0.000,0.000,0.000,false,false,false,false,false,false,false,false,false,false,false,false,--.--,--.--,--.--,--.--,--.--,--.--,--.--,--.--,-23.2556942,-47.2987277,23KKQ 64825 26311,0.5,0.1,130.8,3,28,--.--,--.--,,--.--,--.--,--.--,0,0,--.--,--.--,0,0.8,1.2,-4.0,-0.0,0.1,-0.0,--.--,--.--,--.--,--.--,--.--,--.--,--.--,--.--,--.--,--.--,--.--,--.--,53.64,54.71,--.--,0,0,1.3,3.2,4.8,0,0,0,180.0,0.0,0.0
2025-01-24 13:09:51.626,-0.3,-0.4,28,0.0,0.0,0.0,0.1,0.1,0.059,-0.0,1.3,585.5,0.580,0.564,0.014,0.0,00:00:58,0.3,0,--.--,--.--,6.1,11,0000:28:15,0,0,0,45.15,43.99,5763,40,56,--.--,--:--:--,1,1986.10,13:09:51,24/01/2025,25.31,--.--,--.--,--.--,--.--,--.--,--.--,--.--,--.--,--.--,--.--,100.00,0,0.000,0.000,0.000,0.000,0.000,0.000,0.000,0.000,0.000,0.000,0.000,0.000,false,false,false,false,false,false,false,false,false,false,false,false,--.--,--.--,--.--,--.--,--.--,--.--,--.--,--.--,-23.2556943,-47.2987275,23KKQ 64825 26311,0.5,0.1,97.6,3,28,--.--,--.--,,--.--,--.--,--.--,0,0,--.--,--.--,0,0.8,1.3,-4.0,-0.0,0.1,-0.0,--.--,--.--,--.--,--.--,--.--,--.--,--.--,--.--,--.--,--.--,--.--,--.--,53.65,54.71,--.--,0,0,0.9,3.1,5.0,0,0,0,180.0,0.0,0.0
2025-01-24 13:09:52.633,-0.5,-0.8,28,0.0,0.0,0.0,0.0,0.0,0.020,-0.0,1.3,585.5,0.570,0.552,0.051,0.0,00:00:59,0.3,0,--.--,--.--,5.9,11,0000:28:15,0,0,0,45.16,42.99,5775,41,56,--.--,--:--:--,1,1941.43,13:09:52,24/01/2025,25.73,--.--,--.--,--.--,--.--,--.--,--.--,--.--,--.--,--.--,--.--,100.00,0,0.000,0.000,0.000,0.000,0.000,0.000,0.000,0.000,0.000,0.000,0.000,0.000,false,false,false,false,false,false,false,false,false,false,false,false,--.--,--.--,--.--,--.--,--.--,--.--,--.--,--.--,-23.2556943,-47.2987272,23KKQ 64825 26311,0.5,0.1,101.0,3,28,--.--,--.--,,--.--,--.--,--.--,0,0,--.--,--.--,0,0.8,1.3,-4.0,-0.0,0.0,-0.0,--.--,--.--,--.--,--.--,--.--,--.--,--.--,--.--,--.--,--.--,--.--,--.--,53.58,54.69,--.--,0,0,1.9,2.0,3.6,0,0,0,180.0,0.0,0.0
2025-01-24 13:09:53.626,-0.9,-0.5,28,0.0,0.0,0.0,0.0,0.0,0.047,0.0,1.3,585.5,0.580,0.567,0.052,0.0,00:01:00,0.3,0,--.--,--.--,5.7,11,0000:28:15,0,0,0,45.17,42.99,5788,41,56,--.--,--:--:--,1,1941.86,13:09:53,24/01/2025,25.87,--.--,--.--,--.--,--.--,--.--,--.--,--.--,--.--,--.--,--.--,100.00,0,0.000,0.000,0.000,0.000,0.000,0.000,0.000,0.000,0.000,0.000,0.000,0.000,false,false,false,false,false,false,false,false,false,false,false,false,--.--,--.--,--.--,--.--,--.--,--.--,--.--,--.--,-23.2556943,-47.2987271,23KKQ 64825 26311,0.5,0.1,104.0,3,28,--.--,--.--,,--.--,--.--,--.--,0,0,--.--,--.--,0,0.8,1.3,-4.0,-0.0,-0.1,0.0,--.--,--.--,--.--,--.--,--.--,--.--,--.--,--.--,--.--,--.--,--.--,--.--,53.60,54.69,--.--,0,0,1.5,1.3,4.2,0,0,0,180.0,0.0,0.0
2025-01-24 13:09:54.631,0.0,-0.9,28,0.0,0.0,0.0,0.1,0.1,0.090,0.0,1.3,585.5,0.570,0.550,0.008,0.0,00:01:01,0.3,0,--.--,--.--,5.6,11,0000:28:15,0,0,0,45.14,42.99,5800,41,56,--.--,--:--:--,1,1940.70,13:09:54,24/01/2025,25.89,--.--,--.--,--.--,--.--,--.--,--.--,--.--,--.--,--.--,--.--,100.00,0,0.000,0.000,0.000,0.000,0.000,0.000,0.000,0.000,0.000,0.000,0.000,0.000,false,false,false,false,false,false,false,false,false,false,false,false,--.--,--.--,--.--,--.--,--.--,--.--,--.--,--.--,-23.2556943,-47.2987275,23KKQ 64825 26311,0.5,0.1,276.1,3,28,--.--,--.--,,--.--,--.--,--.--,0,0,--.--,--.--,0,0.8,1.2,-4.0,0.0,-0.1,-0.0,--.--,--.--,--.--,--.--,--.--,--.--,--.--,--.--,--.--,--.--,--.--,--.--,53.62,54.71,--.--,0,0,0.8,1.2,4.2,0,0,0,180.0,0.0,0.0
2025-01-24 13:09:55.630,0.3,-0.6,28,0.0,0.0,0.0,0.0,0.0,0.023,0.0,1.3,585.5,0.580,0.573,0.051,0.0,00:01:02,0.3,0,--.--,--.--,5.5,11,0000:28:15,0,0,0,45.14,43.99,5812,41,56,--.--,--:--:--,1,1985.49,13:09:55,24/01/2025,25.87,--.--,--.--,--.--,--.--,--.--,--.--,--.--,--.--,--.--,--.--,100.00,0,0.000,0.000,0.000,0.000,0.000,0.000,0.000,0.000,0.000,0.000,0.000,0.000,false,false,false,false,false,false,false,false,false,false,false,false,--.--,--.--,--.--,--.--,--.--,--.--,--.--,--.--,-23.2556943,-47.2987279,23KKQ 64825 26311,0.5,0.1,279.7,3,28,--.--,--.--,,--.--,--.--,--.--,0,0,--.--,--.--,0,0.8,1.2,-4.0,0.0,0.0,-0.0,--.--,--.--,--.--,--.--,--.--,--.--,--.--,--.--,--.--,--.--,--.--,--.--,53.60,54.71,--.--,0,0,1.3,1.7,3.3,0,0,0,180.0,0.0,0.0
2025-01-24 13:09:56.628,-1.1,-0.4,28,0.0,0.0,0.0,0.1,0.1,0.069,0.0,1.3,585.5,0.580,0.568,0.008,0.0,00:01:03,0.3,0,--.--,--.--,5.5,11,0000:28:15,0,0,0,45.11,43.99,5825,41,56,--.--,--:--:--,1,1984.56,13:09:56,24/01/2025,25.87,--.--,--.--,--.--,--.--,--.--,--.--,--.--,--.--,--.--,--.--,100.00,0,0.000,0.000,0.000,0.000,0.000,0.000,0.000,0.000,0.000,0.000,0.000,0.000,false,false,false,false,false,false,false,false,false,false,false,false,--.--,--.--,--.--,--.--,--.--,--.--,--.--,--.--,-23.2556944,-47.2987279,23KKQ 64825 26311,0.5,0.1,116.6,3,28,--.--,--.--,,--.--,--.--,--.--,0,0,--.--,--.--,0,0.8,1.2,-4.0,-0.0,0.1,-0.0,--.--,--.--,--.--,--.--,--.--,--.--,--.--,--.--,--.--,--.--,--.--,--.--,53.64,54.68,--.--,0,0,1.2,1.7,4.2,0,0,0,180.0,0.0,0.0
2025-01-24 13:09:57.625,-0.6,-0.6,28,0.0,0.0,0.0,0.0,0.0,0.010,0.0,1.3,585.5,0.570,0.550,0.018,0.0,00:01:04,0.3,0,--.--,--.--,5.6,11,0000:28:15,0,0,0,45.13,43.99,5831,41,56,--.--,--:--:--,1,1985.14,13:09:57,24/01/2025,25.89,--.--,--.--,--.--,--.--,--.--,--.--,--.--,--.--,--.--,--.--,100.00,0,0.000,0.000,0.000,0.000,0.000,0.000,0.000,0.000,0.000,0.000,0.000,0.000,false,false,false,false,false,false,false,false,false,false,false,false,--.--,--.--,--.--,--.--,--.--,--.--,--.--,--.--,-23.2556945,-47.2987277,23KKQ 64825 26311,0.5,0.1,123.3,3,28,--.--,--.--,,--.--,--.--,--.--,0,0,--.--,--.--,0,0.8,1.3,-4.0,0.0,0.0,-0.0,--.--,--.--,--.--,--.--,--.--,--.--,--.--,--.--,--.--,--.--,--.--,--.--,53.60,54.66,--.--,0,0,1.1,2.0,2.8,0,0,0,180.0,0.0,0.0
2025-01-24 13:09:58.628,-0.4,-0.6,28,0.0,0.0,0.0,0.0,0.0,0.031,0.0,1.3,585.5,0.570,0.549,0.014,0.0,00:01:05,0.3,0,--.--,--.--,5.6,11,0000:28:15,0,0,0,45.13,42.99,5843,41,56,--.--,--:--:--,1,1940.01,13:09:58,24/01/2025,26.08,--.--,--.--,--.--,--.--,--.--,--.--,--.--,--.--,--.--,--.--,100.00,0,0.000,0.000,0.000,0.000,0.000,0.000,0.000,0.000,0.000,0.000,0.000,0.000,false,false,false,false,false,false,false,false,false,false,false,false,--.--,--.--,--.--,--.--,--.--,--.--,--.--,--.--,-23.2556945,-47.2987279,23KKQ 64825 26311,0.5,0.1,282.5,3,28,--.--,--.--,,--.--,--.--,--.--,0,0,--.--,--.--,0,0.8,1.3,-4.0,0.0,-0.0,0.0,--.--,--.--,--.--,--.--,--.--,--.--,--.--,--.--,--.--,--.--,--.--,--.--,53.63,54.69,--.--,0,0,1.0,1.6,5.2,0,0,0,180.0,0.0,0.0
2025-01-24 13:09:59.625,-0.1,-0.2,29,0.0,0.0,0.0,0.0,0.0,0.019,-0.0,1.3,585.5,0.570,0.553,0.013,0.0,00:01:06,0.3,0,--.--,--.--,5.5,11,0000:28:15,0,0,0,45.12,41.99,5855,41,56,--.--,--:--:--,1,1894.59,13:09:59,24/01/2025,25.93,--.--,--.--,--.--,--.--,--.--,--.--,--.--,--.--,--.--,--.--,100.00,0,0.000,0.000,0.000,0.000,0.000,0.000,0.000,0.000,0.000,0.000,0.000,0.000,false,false,false,false,false,false,false,false,false,false,false,false,--.--,--.--,--.--,--.--,--.--,--.--,--.--,--.--,-23.2556945,-47.2987281,23KKQ 64825 26311,0.5,0.1,309.1,3,28,--.--,--.--,,--.--,--.--,--.--,0,0,--.--,--.--,0,0.8,1.2,-4.0,0.0,0.0,-0.0,--.--,--.--,--.--,--.--,--.--,--.--,--.--,--.--,--.--,--.--,--.--,--.--,53.62,54.63,--.--,0,0,0.7,1.9,4.3,0,0,0,180.0,0.0,0.0
2025-01-24 13:10:00.626,-0.6,-0.5,28,0.0,0.0,0.0,0.0,0.0,0.040,0.0,1.3,585.5,0.570,0.553,0.021,0.0,00:01:07,0.3,0,--.--,--.--,5.4,11,0000:28:15,0,0,0,45.11,43.99,5867,41,56,--.--,--:--:--,1,1984.30,13:10:00,24/01/2025,26.04,--.--,--.--,--.--,--.--,--.--,--.--,--.--,--.--,--.--,--.--,100.00,0,0.000,0.000,0.000,0.000,0.000,0.000,0.000,0.000,0.000,0.000,0.000,0.000,false,false,false,false,false,false,false,false,false,false,false,false,--.--,--.--,--.--,--.--,--.--,--.--,--.--,--.--,-23.2556946,-47.2987282,23KKQ 64825 26311,0.5,0.1,122.0,3,28,--.--,--.--,,--.--,--.--,--.--,0,0,--.--,--.--,0,0.8,1.2,-4.0,-0.0,0.0,-0.0,--.--,--.--,--.--,--.--,--.--,--.--,--.--,--.--,--.--,--.--,--.--,--.--,53.54,54.63,--.--,0,0,1.6,1.5,4.8,0,0,0,180.0,0.0,0.0
2025-01-24 13:10:01.625,-0.8,-0.3,28,0.0,0.0,0.0,0.0,0.0,0.029,-0.0,1.3,585.5,0.560,0.524,0.008,0.0,00:01:08,0.3,0,--.--,--.--,5.3,11,0000:28:15,0,0,0,45.11,42.99,5886,41,56,--.--,--:--:--,1,1939.11,13:10:01,24/01/2025,25.88,--.--,--.--,--.--,--.--,--.--,--.--,--.--,--.--,--.--,--.--,100.00,0,0.000,0.000,0.000,0.000,0.000,0.000,0.000,0.000,0.000,0.000,0.000,0.000,false,false,false,false,false,false,false,false,false,false,false,false,--.--,--.--,--.--,--.--,--.--,--.--,--.--,--.--,-23.2556947,-47.2987282,23KKQ 64825 26311,0.5,0.1,125.2,3,28,--.--,--.--,,--.--,--.--,--.--,0,0,--.--,--.--,0,0.8,1.2,-4.0,0.0,0.0,-0.0,--.--,--.--,--.--,--.--,--.--,--.--,--.--,--.--,--.--,--.--,--.--,--.--,53.54,54.65,--.--,0,0,1.4,2.5,4.6,0,0,0,180.0,0.0,0.0
2025-01-24 13:10:02.630,-0.5,-0.3,28,0.0,0.0,0.0,0.0,0.0,0.042,0.0,1.3,585.5,0.550,0.505,0.012,0.0,00:01:09,0.3,0,--.--,--.--,5.3,11,0000:28:15,0,0,0,45.09,43.99,5893,41,56,--.--,--:--:--,1,1983.64,13:10:02,24/01/2025,26.14,--.--,--.--,--.--,--.--,--.--,--.--,--.--,--.--,--.--,--.--,100.00,0,0.000,0.000,0.000,0.000,0.000,0.000,0.000,0.000,0.000,0.000,0.000,0.000,false,false,false,false,false,false,false,false,false,false,false,false,--.--,--.--,--.--,--.--,--.--,--.--,--.--,--.--,-23.2556947,-47.2987283,23KKQ 64825 26311,0.5,0.1,33.7,3,28,--.--,--.--,,--.--,--.--,--.--,0,0,--.--,--.--,0,0.8,1.2,-4.0,0.0,-0.0,-0.0,--.--,--.--,--.--,--.--,--.--,--.--,--.--,--.--,--.--,--.--,--.--,--.--,53.56,54.66,--.--,0,0,1.2,1.8,4.9,0,0,0,180.0,0.0,0.0
2025-01-24 13:10:03.626,-0.4,-0.5,29,0.0,0.0,0.0,0.0,0.0,0.039,0.0,1.3,585.4,0.530,0.467,0.019,0.0,00:01:10,0.3,0,--.--,--.--,5.3,11,0000:28:15,0,0,0,45.09,42.99,5905,41,55,--.--,--:--:--,1,1938.51,13:10:03,24/01/2025,26.13,--.--,--.--,--.--,--.--,--.--,--.--,--.--,--.--,--.--,--.--,100.00,0,0.000,0.000,0.000,0.000,0.000,0.000,0.000,0.000,0.000,0.000,0.000,0.000,false,false,false,false,false,false,false,false,false,false,false,false,--.--,--.--,--.--,--.--,--.--,--.--,--.--,--.--,-23.2556947,-47.2987284,23KKQ 64825 26311,0.5,0.1,326.3,3,28,--.--,--.--,,--.--,--.--,--.--,0,0,--.--,--.--,0,0.8,1.2,-3.9,0.0,-0.0,-0.0,--.--,--.--,--.--,--.--,--.--,--.--,--.--,--.--,--.--,--.--,--.--,--.--,53.56,54.66,--.--,0,0,1.3,2.8,4.8,0,0,0,180.0,0.0,0.0
2025-01-24 13:10:04.626,0.6,-0.4,28,0.0,0.0,0.0,0.0,0.0,0.050,0.0,1.3,585.4,0.530,0.472,0.057,0.0,00:01:11,0.3,0,--.--,--.--,5.3,11,0000:28:15,0,0,0,45.08,44.99,5917,41,55,--.--,--:--:--,1,2027.92,13:10:04,24/01/2025,26.17,--.--,--.--,--.--,--.--,--.--,--.--,--.--,--.--,--.--,--.--,100.00,0,0.000,0.000,0.000,0.000,0.000,0.000,0.000,0.000,0.000,0.000,0.000,0.000,false,false,false,false,false,false,false,false,false,false,false,false,--.--,--.--,--.--,--.--,--.--,--.--,--.--,--.--,-23.2556946,-47.2987286,23KKQ 64825 26311,0.5,0.1,321.8,3,28,--.--,--.--,,--.--,--.--,--.--,0,0,--.--,--.--,0,0.9,1.2,-3.9,0.0,-0.0,-0.1,--.--,--.--,--.--,--.--,--.--,--.--,--.--,--.--,--.--,--.--,--.--,--.--,53.56,54.66,--.--,0,0,1.4,2.2,4.8,0,0,0,180.0,0.0,0.0
2025-01-24 13:10:05.626,0.0,-0.4,28,0.0,0.0,0.0,0.1,0.1,0.093,0.0,1.3,585.5,0.550,0.509,0.053,0.0,00:01:12,0.3,0,--.--,--.--,5.6,11,0000:28:15,0,0,0,45.08,43.99,5930,41,55,--.--,--:--:--,1,1983.11,13:10:05,24/01/2025,26.30,--.--,--.--,--.--,--.--,--.--,--.--,--.--,--.--,--.--,--.--,100.00,0,0.000,0.000,0.000,0.000,0.000,0.000,0.000,0.000,0.000,0.000,0.000,0.000,false,false,false,false,false,false,false,false,false,false,false,false,--.--,--.--,--.--,--.--,--.--,--.--,--.--,--.--,-23.2556946,-47.2987287,23KKQ 64825 26311,0.5,0.1,140.2,3,28,--.--,--.--,,--.--,--.--,--.--,0,0,--.--,--.--,0,0.9,1.2,-4.0,-0.1,0.1,-0.0,--.--,--.--,--.--,--.--,--.--,--.--,--.--,--.--,--.--,--.--,--.--,--.--,53.60,54.63,--.--,0,0,2.1,1.8,5.6,0,0,0,180.0,0.0,0.0
2025-01-24 13:10:06.631,0.2,-1.0,29,0.0,0.0,0.0,0.1,0.1,0.049,-0.0,1.3,585.5,0.550,0.525,0.035,0.0,00:01:13,0.3,0,--.--,--.--,5.7,11,0000:28:15,0,0,0,45.08,42.99,5948,41,55,--.--,--:--:--,1,1937.86,13:10:06,24/01/2025,26.22,--.--,--.--,--.--,--.--,--.--,--.--,--.--,--.--,--.--,--.--,100.00,0,0.000,0.000,0.000,0.000,0.000,0.000,0.000,0.000,0.000,0.000,0.000,0.000,false,false,false,false,false,false,false,false,false,false,false,false,--.--,--.--,--.--,--.--,--.--,--.--,--.--,--.--,-23.2556948,-47.2987286,23KKQ 64825 26311,0.5,0.1,147.4,3,28,--.--,--.--,,--.--,--.--,--.--,0,0,--.--,--.--,0,0.8,1.2,-4.0,-0.0,0.0,-0.0,--.--,--.--,--.--,--.--,--.--,--.--,--.--,--.--,--.--,--.--,--.--,--.--,53.55,54.64,--.--,0,0,1.3,3.4,4.3,0,0,0,180.0,0.0,0.0
2025-01-24 13:10:07.628,-0.4,-0.4,29,0.0,0.0,0.0,0.0,0.1,0.057,0.0,1.3,585.5,0.560,0.529,0.038,0.0,00:01:14,0.3,0,--.--,--.--,5.8,11,0000:28:15,0,0,0,45.05,43.99,5961,41,55,--.--,--:--:--,1,1981.71,13:10:07,24/01/2025,26.18,--.--,--.--,--.--,--.--,--.--,--.--,--.--,--.--,--.--,--.--,100.00,0,0.000,0.000,0.000,0.000,0.000,0.000,0.000,0.000,0.000,0.000,0.000,0.000,false,false,false,false,false,false,false,false,false,false,false,false,--.--,--.--,--.--,--.--,--.--,--.--,--.--,--.--,-23.2556950,-47.2987285,23KKQ 64825 26311,0.5,0.1,117.3,3,28,--.--,--.--,,--.--,--.--,--.--,0,0,--.--,--.--,0,0.8,1.2,-4.0,-0.0,0.0,-0.0,--.--,--.--,--.--,--.--,--.--,--.--,--.--,--.--,--.--,--.--,--.--,--.--,53.56,54.63,--.--,0,0,1.9,2.1,5.3,0,0,0,180.0,0.0,0.0
2025-01-24 13:10:08.626,0.3,-0.5,29,0.0,0.0,0.0,0.0,0.1,0.052,-0.0,1.3,585.5,0.570,0.553,0.039,0.0,00:01:15,0.3,0,--.--,--.--,5.8,10,0000:28:15,0,0,0,45.07,42.99,5973,41,55,--.--,--:--:--,1,1937.60,13:10:08,24/01/2025,26.26,--.--,--.--,--.--,--.--,--.--,--.--,--.--,--.--,--.--,--.--,100.00,0,0.000,0.000,0.000,0.000,0.000,0.000,0.000,0.000,0.000,0.000,0.000,0.000,false,false,false,false,false,false,false,false,false,false,false,false,--.--,--.--,--.--,--.--,--.--,--.--,--.--,--.--,-23.2556951,-47.2987284,23KKQ 64825 26311,0.5,0.1,52.8,3,28,--.--,--.--,,--.--,--.--,--.--,0,0,--.--,--.--,0,0.8,1.3,-4.0,0.0,-0.0,0.0,--.--,--.--,--.--,--.--,--.--,--.--,--.--,--.--,--.--,--.--,--.--,--.--,53.59,54.61,--.--,0,0,1.1,2.5,5.2,0,0,0,180.0,0.0,0.0
