Timestamp,roll,pitch,heading,rollRate,pitchRate,yawRate,groundSpeed,airSpeed,airSpeedSetpoint,climbRate,altitudeRelative,altitudeAMSL,altitudeTuning,altitudeTuningSetpoint,xTrackError,flightDistance,flightTime,distanceToHome,missionItemIndex,headingToNextWP,headingToHome,distanceToGCS,throttlePct,hobbs,battery0.id,battery0.batteryFunction,battery0.batteryType,battery0.voltage,battery0.current,battery0.mahConsumed,battery0.temperature,battery0.percentRemaining,battery0.timeRemaining,battery0.timeRemainingStr,battery0.chargeState,battery0.instantPower,clock.currentTime,clock.currentDate,distanceSensor.rotationNone,distanceSensor.rotationYaw45,distanceSensor.rotationYaw90,distanceSensor.rotationYaw135,distanceSensor.rotationYaw180,distanceSensor.rotationYaw225,distanceSensor.rotationYaw270,distanceSensor.rotationYaw315,distanceSensor.rotationPitch90,distanceSensor.rotationPitch270,distanceSensor.minDistance,distanceSensor.maxDistance,escStatus.index,escStatus.rpm1,escStatus.rpm2,escStatus.rpm3,escStatus.rpm4,escStatus.current1,escStatus.current2,escStatus.current3,escStatus.current4,escStatus.voltage1,escStatus.voltage2,escStatus.voltage3,escStatus.voltage4,estimatorStatus.goodAttitudeEsimate,estimatorStatus.goodHorizVelEstimate,estimatorStatus.goodVertVelEstimate,estimatorStatus.goodHorizPosRelEstimate,estimatorStatus.goodHorizPosAbsEstimate,estimatorStatus.goodVertPosAbsEstimate,estimatorStatus.goodVertPosAGLEstimate,estimatorStatus.goodConstPosModeEstimate,estimatorStatus.goodPredHorizPosRelEstimate,estimatorStatus.goodPredHorizPosAbsEstimate,estimatorStatus.gpsGlitch,estimatorStatus.accelError,estimatorStatus.velRatio,estimatorStatus.horizPosRatio,estimatorStatus.vertPosRatio,estimatorStatus.magRatio,estimatorStatus.haglRatio,estimatorStatus.tasRatio,estimatorStatus.horizPosAccuracy,estimatorStatus.vertPosAccuracy,gps.lat,gps.lon,gps.mgrs,gps.hdop,gps.vdop,gps.courseOverGround,gps.lock,gps.count,gps2.lat,gps2.lon,gps2.mgrs,gps2.hdop,gps2.vdop,gps2.courseOverGround,gps2.lock,gps2.count,hygrometer.temperature,hygrometer.humidity,hygrometer.hygrometerid,localPosition.x,localPosition.y,localPosition.z,localPosition.vx,localPosition.vy,localPosition.vz,localPositionSetpoint.x,localPositionSetpoint.y,localPositionSetpoint.z,localPositionSetpoint.vx,localPositionSetpoint.vy,localPositionSetpoint.vz,setpoint.roll,setpoint.pitch,setpoint.yaw,setpoint.rollRate,setpoint.pitchRate,setpoint.yawRate,temperature.temperature1,temperature.temperature2,temperature.temperature3,terrain.blocksPending,terrain.blocksLoaded,vibration.xAxis,vibration.yAxis,vibration.zAxis,vibration.clipCount1,vibration.clipCount2,vibration.clipCount3,wind.direction,wind.speed,wind.verticalSpeed
2025-01-29 09:52:21.369,0.9,-0.3,233,0.0,0.0,0.0,0.0,0.0,0.010,-0.0,0.0,526.3,-0.260,-0.260,0.000,0.0,00:00:00,0.0,0,--.--,--.--,--.--,0,0000:32:25,0,0,0,50.10,0.00,0,26,99,--.--,--:--:--,1,0.00,09:52:21,29/01/2025,6.01,--.--,--.--,--.--,--.--,--.--,--.--,--.--,--.--,--.--,--.--,100.00,0,0.000,0.000,0.000,0.000,0.000,0.000,0.000,0.000,0.000,0.000,0.000,0.000,false,false,false,false,false,false,false,false,false,false,false,false,--.--,--.--,--.--,--.--,--.--,--.--,--.--,--.--,-16.6964458,-54.6718861,21KYB 48264 52575,0.5,0.1,206.6,3,28,--.--,--.--,,--.--,--.--,--.--,0,0,--.--,--.--,0,-0.0,-0.4,-0.3,-0.0,-0.0,0.0,--.--,--.--,--.--,--.--,--.--,--.--,--.--,--.--,--.--,--.--,--.--,--.--,35.58,34.43,--.--,0,0,0.0,0.0,0.0,0,0,0,180.0,0.0,0.0
2025-01-29 09:52:22.378,0.9,-0.3,233,0.0,0.0,0.0,0.0,0.0,0.008,-0.0,0.0,526.3,-0.260,-0.260,0.000,0.0,00:00:01,0.0,0,--.--,--.--,--.--,0,0000:32:25,0,0,0,50.10,0.00,0,26,99,--.--,--:--:--,1,0.00,09:52:22,29/01/2025,5.98,--.--,--.--,--.--,--.--,--.--,--.--,--.--,--.--,--.--,--.--,100.00,0,0.000,0.000,0.000,0.000,0.000,0.000,0.000,0.000,0.000,0.000,0.000,0.000,false,false,false,false,false,false,false,false,false,false,false,false,--.--,--.--,--.--,--.--,--.--,--.--,--.--,--.--,-16.6964459,-54.6718860,21KYB 48264 52575,0.5,0.1,180.0,3,28,--.--,--.--,,--.--,--.--,--.--,0,0,--.--,--.--,0,-0.0,-0.4,-0.3,-0.0,-0.0,0.0,--.--,--.--,--.--,--.--,--.--,--.--,--.--,--.--,--.--,--.--,--.--,--.--,35.57,34.50,--.--,0,0,0.0,0.0,0.0,0,0,0,180.0,0.0,0.0
2025-01-29 09:52:23.363,0.9,-0.3,233,0.0,0.0,0.0,0.0,0.0,0.006,-0.0,0.0,526.3,-0.260,-0.260,0.000,0.0,00:00:02,0.0,0,--.--,--.--,--.--,0,0000:32:25,0,0,0,50.10,0.00,0,26,99,--.--,--:--:--,1,0.00,09:52:23,29/01/2025,6.02,--.--,--.--,--.--,--.--,--.--,--.--,--.--,--.--,--.--,--.--,100.00,0,0.000,0.000,0.000,0.000,0.000,0.000,0.000,0.000,0.000,0.000,0.000,0.000,false,false,false,false,false,false,false,false,false,false,false,false,--.--,--.--,--.--,--.--,--.--,--.--,--.--,--.--,-16.6964459,-54.6718859,21KYB 48264 52575,0.5,0.1,225.0,3,28,--.--,--.--,,--.--,--.--,--.--,0,0,--.--,--.--,0,-0.0,-0.4,-0.3,-0.0,-0.0,0.0,--.--,--.--,--.--,--.--,--.--,--.--,--.--,--.--,--.--,--.--,--.--,--.--,35.63,34.47,--.--,0,0,0.0,0.0,0.0,0,0,0,180.0,0.0,0.0
2025-01-29 09:52:24.374,0.9,-0.3,233,0.0,0.0,0.0,0.0,0.0,0.005,-0.0,0.0,526.3,-0.260,-0.260,0.000,0.0,00:00:03,0.0,0,--.--,--.--,--.--,0,0000:32:25,0,0,0,50.09,0.00,0,26,99,--.--,--:--:--,1,0.00,09:52:24,29/01/2025,6.02,--.--,--.--,--.--,--.--,--.--,--.--,--.--,--.--,--.--,--.--,100.00,0,0.000,0.000,0.000,0.000,0.000,0.000,0.000,0.000,0.000,0.000,0.000,0.000,false,false,false,false,false,false,false,false,false,false,false,false,--.--,--.--,--.--,--.--,--.--,--.--,--.--,--.--,-16.6964460,-54.6718858,21KYB 48264 52575,0.5,0.1,180.0,3,28,--.--,--.--,,--.--,--.--,--.--,0,0,--.--,--.--,0,-0.0,-0.4,-0.3,-0.0,-0.0,0.0,--.--,--.--,--.--,--.--,--.--,--.--,--.--,--.--,--.--,--.--,--.--,--.--,35.62,34.51,--.--,0,0,0.0,0.0,0.0,0,0,0,180.0,0.0,0.0
2025-01-29 09:52:25.369,0.9,-0.3,233,0.0,0.0,0.0,0.0,0.0,0.006,-0.0,0.0,526.3,-0.260,-0.260,0.000,0.0,00:00:04,0.1,0,--.--,--.--,--.--,0,0000:32:25,0,0,0,50.10,0.00,0,26,99,--.--,--:--:--,1,0.00,09:52:25,29/01/2025,6.02,--.--,--.--,--.--,--.--,--.--,--.--,--.--,--.--,--.--,--.--,100.00,0,0.000,0.000,0.000,0.000,0.000,0.000,0.000,0.000,0.000,0.000,0.000,0.000,false,false,false,false,false,false,false,false,false,false,false,false,--.--,--.--,--.--,--.--,--.--,--.--,--.--,--.--,-16.6964461,-54.6718857,21KYB 48264 52575,0.5,0.1,206.6,3,28,--.--,--.--,,--.--,--.--,--.--,0,0,--.--,--.--,0,-0.0,-0.4,-0.3,-0.0,-0.0,0.0,--.--,--.--,--.--,--.--,--.--,--.--,--.--,--.--,--.--,--.--,--.--,--.--,35.65,34.49,--.--,0,0,0.1,0.0,0.0,0,0,0,180.0,0.0,0.0
2025-01-29 09:52:26.374,1.0,-0.3,233,0.0,0.0,0.0,0.0,0.0,0.013,-0.0,0.0,526.3,-0.270,-0.270,0.000,0.0,00:00:05,0.1,0,--.--,--.--,--.--,0,0000:32:25,0,0,0,50.07,1.99,0,26,99,--.--,--:--:--,1,99.63,09:52:26,29/01/2025,5.91,--.--,--.--,--.--,--.--,--.--,--.--,--.--,--.--,--.--,--.--,100.00,0,0.000,0.000,0.000,0.000,0.000,0.000,0.000,0.000,0.000,0.000,0.000,0.000,false,false,false,false,false,false,false,false,false,false,false,false,--.--,--.--,--.--,--.--,--.--,--.--,--.--,--.--,-16.6964461,-54.6718856,21KYB 48264 52575,0.5,0.1,161.6,3,28,--.--,--.--,,--.--,--.--,--.--,0,0,--.--,--.--,0,-0.1,-0.3,-0.3,-0.0,0.0,0.0,--.--,--.--,--.--,--.--,--.--,--.--,--.--,--.--,--.--,--.--,--.--,--.--,35.70,34.53,--.--,0,0,1.9,1.3,1.3,0,0,0,180.0,0.0,0.0
2025-01-29 09:52:27.377,1.0,-0.2,233,0.0,0.0,0.0,0.0,0.0,0.039,0.0,0.0,526.3,-0.260,-0.260,0.000,0.0,00:00:06,0.1,0,--.--,--.--,--.--,0,0000:32:25,0,0,0,50.00,3.99,1,26,98,--.--,--:--:--,1,199.48,09:52:27,29/01/2025,2.62,--.--,--.--,--.--,--.--,--.--,--.--,--.--,--.--,--.--,--.--,100.00,0,0.000,0.000,0.000,0.000,0.000,0.000,0.000,0.000,0.000,0.000,0.000,0.000,false,false,false,false,false,false,false,false,false,false,false,false,--.--,--.--,--.--,--.--,--.--,--.--,--.--,--.--,-16.6964461,-54.6718855,21KYB 48264 52575,0.5,0.1,161.6,3,28,--.--,--.--,,--.--,--.--,--.--,0,0,--.--,--.--,0,-0.1,-0.3,-0.3,-0.0,-0.0,0.0,--.--,--.--,--.--,--.--,--.--,--.--,--.--,--.--,--.--,--.--,--.--,--.--,35.64,34.52,--.--,0,0,1.7,0.9,1.2,0,0,0,180.0,0.0,0.0
2025-01-29 09:52:28.373,1.2,-0.3,234,0.0,0.0,0.0,0.0,0.0,0.044,-0.0,0.0,526.3,-0.260,-0.260,0.000,0.0,00:00:07,0.1,0,--.--,--.--,--.--,0,0000:32:25,0,0,0,50.00,2.99,2,26,98,--.--,--:--:--,1,149.51,09:52:28,29/01/2025,3.01,--.--,--.--,--.--,--.--,--.--,--.--,--.--,--.--,--.--,--.--,100.00,0,0.000,0.000,0.000,0.000,0.000,0.000,0.000,0.000,0.000,0.000,0.000,0.000,false,false,false,false,false,false,false,false,false,false,false,false,--.--,--.--,--.--,--.--,--.--,--.--,--.--,--.--,-16.6964462,-54.6718854,21KYB 48264 52575,0.5,0.1,135.0,3,28,--.--,--.--,,--.--,--.--,--.--,0,0,--.--,--.--,0,-0.1,-0.3,-0.3,0.0,-0.0,0.0,--.--,--.--,--.--,--.--,--.--,--.--,--.--,--.--,--.--,--.--,--.--,--.--,35.65,34.53,--.--,0,0,2.1,1.2,1.3,0,0,0,180.0,0.0,0.0
2025-01-29 09:52:29.391,1.3,-0.3,234,0.0,0.0,0.0,0.0,0.0,0.049,-0.0,0.0,526.3,-0.260,-0.260,0.000,0.0,00:00:08,0.1,0,--.--,--.--,--.--,0,0000:32:25,0,0,0,49.99,2.99,3,26,98,--.--,--:--:--,1,149.47,09:52:29,29/01/2025,2.62,--.--,--.--,--.--,--.--,--.--,--.--,--.--,--.--,--.--,--.--,100.00,0,0.000,0.000,0.000,0.000,0.000,0.000,0.000,0.000,0.000,0.000,0.000,0.000,false,false,false,false,false,false,false,false,false,false,false,false,--.--,--.--,--.--,--.--,--.--,--.--,--.--,--.--,-16.6964462,-54.6718853,21KYB 48264 52575,0.5,0.1,135.0,3,28,--.--,--.--,,--.--,--.--,--.--,0,0,--.--,--.--,0,-0.1,-0.3,-0.3,0.0,-0.0,-0.0,--.--,--.--,--.--,--.--,--.--,--.--,--.--,--.--,--.--,--.--,--.--,--.--,35.69,34.51,--.--,0,0,1.1,1.0,1.0,0,0,0,180.0,0.0,0.0
2025-01-29 09:52:30.355,1.3,-0.2,233,0.0,0.0,0.0,0.1,0.1,0.069,0.0,0.0,526.3,-0.260,-0.260,0.000,0.0,00:00:09,0.1,0,--.--,--.--,--.--,0,0000:32:25,0,0,0,50.00,2.99,3,26,98,--.--,--:--:--,1,149.49,09:52:30,29/01/2025,2.22,--.--,--.--,--.--,--.--,--.--,--.--,--.--,--.--,--.--,--.--,100.00,0,0.000,0.000,0.000,0.000,0.000,0.000,0.000,0.000,0.000,0.000,0.000,0.000,false,false,false,false,false,false,false,false,false,false,false,false,--.--,--.--,--.--,--.--,--.--,--.--,--.--,--.--,-16.6964461,-54.6718852,21KYB 48264 52575,0.5,0.1,153.4,3,28,--.--,--.--,,--.--,--.--,--.--,0,0,--.--,--.--,0,-0.1,-0.3,-0.3,0.1,-0.1,0.0,--.--,--.--,--.--,--.--,--.--,--.--,--.--,--.--,--.--,--.--,--.--,--.--,35.74,34.51,--.--,0,0,1.3,1.5,1.5,0,0,0,180.0,0.0,0.0
2025-01-29 09:52:31.385,1.4,-0.2,234,0.0,0.0,0.0,0.1,0.1,0.085,0.0,0.0,526.3,-0.270,-0.270,0.002,0.0,00:00:10,0.1,0,--.--,--.--,--.--,3,0000:32:25,0,0,0,50.00,2.99,4,26,98,--.--,--:--:--,1,149.49,09:52:31,29/01/2025,4.10,--.--,--.--,--.--,--.--,--.--,--.--,--.--,--.--,--.--,--.--,100.00,0,0.000,0.000,0.000,0.000,0.000,0.000,0.000,0.000,0.000,0.000,0.000,0.000,false,false,false,false,false,false,false,false,false,false,false,false,--.--,--.--,--.--,--.--,--.--,--.--,--.--,--.--,-16.6964461,-54.6718851,21KYB 48264 52575,0.5,0.1,116.6,3,28,--.--,--.--,,--.--,--.--,--.--,0,0,--.--,--.--,0,-0.1,-0.3,-0.3,0.1,-0.1,0.0,--.--,--.--,--.--,--.--,--.--,--.--,--.--,--.--,--.--,--.--,--.--,--.--,35.77,34.52,--.--,0,0,2.0,1.6,1.2,0,0,0,180.0,0.0,0.0
2025-01-29 09:52:32.366,0.0,-0.5,233,0.0,0.0,0.0,0.0,0.1,0.071,0.1,0.1,526.4,-0.130,-0.016,0.017,0.0,00:00:11,0.2,0,--.--,--.--,--.--,10,0000:32:25,0,0,0,49.96,15.99,5,26,98,--.--,--:--:--,1,798.81,09:52:32,29/01/2025,1.90,--.--,--.--,--.--,--.--,--.--,--.--,--.--,--.--,--.--,--.--,100.00,0,0.000,0.000,0.000,0.000,0.000,0.000,0.000,0.000,0.000,0.000,0.000,0.000,false,false,false,false,false,false,false,false,false,false,false,false,--.--,--.--,--.--,--.--,--.--,--.--,--.--,--.--,-16.6964461,-54.6718851,21KYB 48264 52575,0.5,0.1,158.2,3,28,--.--,--.--,,--.--,--.--,--.--,0,0,--.--,--.--,0,-0.1,-0.3,-0.4,0.0,-0.0,-0.2,--.--,--.--,--.--,--.--,--.--,--.--,--.--,--.--,--.--,--.--,--.--,--.--,35.75,34.58,--.--,0,0,2.2,1.8,3.4,0,0,0,180.0,0.0,0.0
2025-01-29 09:52:33.360,0.9,0.1,233,0.0,0.0,0.0,0.1,0.1,0.145,-0.1,0.1,526.4,-0.170,-0.099,0.011,0.0,00:00:12,0.3,0,--.--,--.--,--.--,11,0000:32:25,0,0,0,49.50,34.98,12,26,98,--.--,--:--:--,1,1731.51,09:52:33,29/01/2025,2.26,--.--,--.--,--.--,--.--,--.--,--.--,--.--,--.--,--.--,--.--,100.00,0,0.000,0.000,0.000,0.000,0.000,0.000,0.000,0.000,0.000,0.000,0.000,0.000,false,false,false,false,false,false,false,false,false,false,false,false,--.--,--.--,--.--,--.--,--.--,--.--,--.--,--.--,-16.6964464,-54.6718846,21KYB 48265 52575,0.5,0.1,172.1,3,28,--.--,--.--,,--.--,--.--,--.--,0,0,--.--,--.--,0,-0.2,-0.2,-0.4,0.1,-0.1,0.1,--.--,--.--,--.--,--.--,--.--,--.--,--.--,--.--,--.--,--.--,--.--,--.--,35.75,34.54,--.--,0,0,2.8,1.8,3.3,0,0,0,180.0,0.0,0.0
2025-01-29 09:52:34.369,0.5,-0.4,233,0.0,0.0,0.0,0.2,0.3,0.271,0.2,0.1,526.4,-0.100,-0.073,0.025,0.0,00:00:13,0.3,0,--.--,--.--,--.--,11,0000:32:25,0,0,0,49.43,33.98,21,26,98,--.--,--:--:--,1,1679.56,09:52:34,29/01/2025,2.36,--.--,--.--,--.--,--.--,--.--,--.--,--.--,--.--,--.--,--.--,100.00,0,0.000,0.000,0.000,0.000,0.000,0.000,0.000,0.000,0.000,0.000,0.000,0.000,false,false,false,false,false,false,false,false,false,false,false,false,--.--,--.--,--.--,--.--,--.--,--.--,--.--,--.--,-16.6964464,-54.6718841,21KYB 48265 52575,0.5,0.1,140.5,3,28,--.--,--.--,,--.--,--.--,--.--,0,0,--.--,--.--,0,-0.1,-0.2,-0.5,0.1,-0.1,-0.1,--.--,--.--,--.--,--.--,--.--,--.--,--.--,--.--,--.--,--.--,--.--,--.--,35.76,34.54,--.--,0,0,1.5,1.9,4.2,0,0,0,180.0,0.0,0.0
2025-01-29 09:52:35.383,0.3,0.2,233,0.0,0.0,0.0,0.1,0.4,0.448,0.4,0.3,526.6,0.160,0.145,0.156,0.0,00:00:14,0.3,0,--.--,--.--,--.--,13,0000:32:25,0,0,0,49.36,33.98,31,26,98,--.--,--:--:--,1,1677.25,09:52:35,29/01/2025,2.41,--.--,--.--,--.--,--.--,--.--,--.--,--.--,--.--,--.--,--.--,100.00,0,0.000,0.000,0.000,0.000,0.000,0.000,0.000,0.000,0.000,0.000,0.000,0.000,false,false,false,false,false,false,false,false,false,false,false,false,--.--,--.--,--.--,--.--,--.--,--.--,--.--,--.--,-16.6964462,-54.6718839,21KYB 48265 52575,0.5,0.1,196.2,3,28,--.--,--.--,,--.--,--.--,--.--,0,0,--.--,--.--,0,-0.2,-0.2,-0.7,0.1,-0.1,-0.3,--.--,--.--,--.--,--.--,--.--,--.--,--.--,--.--,--.--,--.--,--.--,--.--,35.80,34.58,--.--,0,0,2.2,1.8,4.9,0,0,0,180.0,0.0,0.0
2025-01-29 09:52:36.381,1.8,0.5,233,0.0,0.0,0.0,0.1,0.8,0.847,0.8,1.0,527.3,0.900,0.889,0.243,0.0,00:00:15,0.3,0,--.--,--.--,--.--,11,0000:32:25,0,0,0,49.29,37.98,40,26,98,--.--,--:--:--,1,1872.19,09:52:36,29/01/2025,2.19,--.--,--.--,--.--,--.--,--.--,--.--,--.--,--.--,--.--,--.--,100.00,0,0.000,0.000,0.000,0.000,0.000,0.000,0.000,0.000,0.000,0.000,0.000,0.000,false,false,false,false,false,false,false,false,false,false,false,false,--.--,--.--,--.--,--.--,--.--,--.--,--.--,--.--,-16.6964471,-54.6718834,21KYB 48265 52575,0.5,0.1,150.1,3,28,--.--,--.--,,--.--,--.--,--.--,0,0,--.--,--.--,0,-0.2,-0.2,-1.3,0.1,-0.1,-0.8,--.--,--.--,--.--,--.--,--.--,--.--,--.--,--.--,--.--,--.--,--.--,--.--,35.83,34.59,--.--,0,0,0.9,1.9,4.5,0,0,0,180.0,0.0,0.0
2025-01-29 09:52:37.374,0.9,-0.2,233,0.0,0.0,0.0,0.2,0.8,0.838,0.8,1.8,528.1,1.690,1.668,0.220,0.0,00:00:16,0.3,0,--.--,--.--,--.--,12,0000:32:25,0,0,0,49.25,35.98,52,26,98,--.--,--:--:--,1,1771.87,09:52:37,29/01/2025,2.44,--.--,--.--,--.--,--.--,--.--,--.--,--.--,--.--,--.--,--.--,100.00,0,0.000,0.000,0.000,0.000,0.000,0.000,0.000,0.000,0.000,0.000,0.000,0.000,false,false,false,false,false,false,false,false,false,false,false,false,--.--,--.--,--.--,--.--,--.--,--.--,--.--,--.--,-16.6964467,-54.6718836,21KYB 48265 52575,0.5,0.1,310.1,3,28,--.--,--.--,,--.--,--.--,--.--,0,0,--.--,--.--,0,-0.2,-0.2,-2.1,0.2,-0.1,-0.8,--.--,--.--,--.--,--.--,--.--,--.--,--.--,--.--,--.--,--.--,--.--,--.--,35.82,34.61,--.--,0,0,1.6,2.6,5.6,0,0,0,180.0,0.0,0.0
2025-01-29 09:52:38.375,1.3,0.3,233,0.0,0.0,0.0,0.2,0.7,0.698,0.7,2.5,528.8,2.440,2.420,0.182,0.0,00:00:17,0.3,0,--.--,--.--,--.--,12,0000:32:25,0,0,0,49.24,35.98,62,26,98,--.--,--:--:--,1,1771.76,09:52:38,29/01/2025,1.72,--.--,--.--,--.--,--.--,--.--,--.--,--.--,--.--,--.--,--.--,100.00,0,0.000,0.000,0.000,0.000,0.000,0.000,0.000,0.000,0.000,0.000,0.000,0.000,false,false,false,false,false,false,false,false,false,false,false,false,--.--,--.--,--.--,--.--,--.--,--.--,--.--,--.--,-16.6964461,-54.6718839,21KYB 48265 52575,0.5,0.1,246.8,3,28,--.--,--.--,,--.--,--.--,--.--,0,0,--.--,--.--,0,-0.2,-0.2,-2.9,0.2,-0.1,-0.8,--.--,--.--,--.--,--.--,--.--,--.--,--.--,--.--,--.--,--.--,--.--,--.--,35.85,34.60,--.--,0,0,2.2,1.5,6.1,0,0,0,180.0,0.0,0.0
2025-01-29 09:52:39.383,0.6,0.3,233,0.0,0.0,0.0,0.2,0.8,0.751,0.7,3.2,529.5,3.080,3.031,0.135,0.0,00:00:18,0.3,0,--.--,--.--,--.--,12,0000:32:25,0,0,0,49.23,33.98,72,26,98,--.--,--:--:--,1,1672.90,09:52:39,29/01/2025,1.82,--.--,--.--,--.--,--.--,--.--,--.--,--.--,--.--,--.--,--.--,100.00,0,0.000,0.000,0.000,0.000,0.000,0.000,0.000,0.000,0.000,0.000,0.000,0.000,false,false,false,false,false,false,false,false,false,false,false,false,--.--,--.--,--.--,--.--,--.--,--.--,--.--,--.--,-16.6964461,-54.6718843,21KYB 48265 52575,0.5,0.1,296.6,3,28,--.--,--.--,,--.--,--.--,--.--,0,0,--.--,--.--,0,-0.2,-0.2,-3.5,0.2,-0.1,-0.7,--.--,--.--,--.--,--.--,--.--,--.--,--.--,--.--,--.--,--.--,--.--,--.--,35.87,34.62,--.--,0,0,2.8,1.9,7.5,0,0,0,180.0,0.0,0.0
2025-01-29 09:52:40.382,1.0,0.5,233,0.0,0.0,0.0,0.1,0.7,0.731,0.7,3.9,530.2,3.840,3.796,0.164,0.0,00:00:19,0.3,0,--.--,--.--,--.--,10,0000:32:25,0,0,0,49.19,35.98,82,26,98,--.--,--:--:--,1,1769.82,09:52:40,29/01/2025,2.08,--.--,--.--,--.--,--.--,--.--,--.--,--.--,--.--,--.--,--.--,100.00,0,0.000,0.000,0.000,0.000,0.000,0.000,0.000,0.000,0.000,0.000,0.000,0.000,false,false,false,false,false,false,false,false,false,false,false,false,--.--,--.--,--.--,--.--,--.--,--.--,--.--,--.--,-16.6964468,-54.6718844,21KYB 48265 52575,0.5,0.1,190.1,3,28,--.--,--.--,,--.--,--.--,--.--,0,0,--.--,--.--,0,-0.2,-0.2,-4.2,0.1,-0.1,-0.9,--.--,--.--,--.--,--.--,--.--,--.--,--.--,--.--,--.--,--.--,--.--,--.--,35.83,34.62,--.--,0,0,1.7,3.2,6.6,0,0,0,180.0,0.0,0.0
2025-01-29 09:52:41.389,1.1,0.4,233,0.0,0.0,0.0,0.2,0.2,0.198,0.0,4.3,530.6,4.030,3.965,0.178,0.0,00:00:20,0.3,0,--.--,--.--,--.--,12,0000:32:25,0,0,0,49.26,31.99,92,26,98,--.--,--:--:--,1,1575.67,09:52:41,29/01/2025,2.04,--.--,--.--,--.--,--.--,--.--,--.--,--.--,--.--,--.--,--.--,100.00,0,0.000,0.000,0.000,0.000,0.000,0.000,0.000,0.000,0.000,0.000,0.000,0.000,false,false,false,false,false,false,false,false,false,false,false,false,--.--,--.--,--.--,--.--,--.--,--.--,--.--,--.--,-16.6964480,-54.6718842,21KYB 48265 52575,0.5,0.1,204.4,3,28,--.--,--.--,,--.--,--.--,--.--,0,0,--.--,--.--,0,-0.2,-0.2,-4.6,0.1,-0.1,-0.1,--.--,--.--,--.--,--.--,--.--,--.--,--.--,--.--,--.--,--.--,--.--,--.--,35.88,34.63,--.--,0,0,1.8,1.6,5.7,0,0,0,180.0,0.0,0.0
2025-01-29 09:52:42.389,3.0,0.2,233,0.0,0.0,0.0,0.1,0.1,0.110,0.0,4.3,530.6,4.010,3.925,0.002,0.0,00:00:21,0.3,0,--.--,--.--,--.--,12,0000:32:25,0,0,0,49.15,32.98,101,26,98,--.--,--:--:--,1,1621.07,09:52:42,29/01/2025,1.66,--.--,--.--,--.--,--.--,--.--,--.--,--.--,--.--,--.--,--.--,100.00,0,0.000,0.000,0.000,0.000,0.000,0.000,0.000,0.000,0.000,0.000,0.000,0.000,false,false,false,false,false,false,false,false,false,false,false,false,--.--,--.--,--.--,--.--,--.--,--.--,--.--,--.--,-16.6964482,-54.6718841,21KYB 48265 52575,0.5,0.1,26.6,3,28,--.--,--.--,,--.--,--.--,--.--,0,0,--.--,--.--,0,-0.2,-0.2,-4.6,0.1,-0.0,-0.1,--.--,--.--,--.--,--.--,--.--,--.--,--.--,--.--,--.--,--.--,--.--,--.--,35.93,34.65,--.--,0,0,1.5,4.0,7.5,0,0,0,180.0,0.0,0.0
2025-01-29 09:52:43.381,-1.4,-0.1,233,0.0,0.0,0.0,0.4,0.4,0.399,-0.1,4.3,530.6,4.050,4.021,0.013,0.0,00:00:22,0.2,0,--.--,--.--,--.--,11,0000:32:25,0,0,0,49.13,34.98,111,26,98,--.--,--:--:--,1,1718.53,09:52:43,29/01/2025,1.54,--.--,--.--,--.--,--.--,--.--,--.--,--.--,--.--,--.--,--.--,100.00,0,0.000,0.000,0.000,0.000,0.000,0.000,0.000,0.000,0.000,0.000,0.000,0.000,false,false,false,false,false,false,false,false,false,false,false,false,--.--,--.--,--.--,--.--,--.--,--.--,--.--,--.--,-16.6964477,-54.6718844,21KYB 48265 52575,0.5,0.1,326.9,3,28,--.--,--.--,,--.--,--.--,--.--,0,0,--.--,--.--,0,-0.1,-0.2,-4.6,0.4,-0.2,-0.1,--.--,--.--,--.--,--.--,--.--,--.--,--.--,--.--,--.--,--.--,--.--,--.--,35.92,34.70,--.--,0,0,1.4,3.0,3.4,0,0,0,180.0,0.0,0.0
2025-01-29 09:52:44.353,0.5,0.5,234,0.0,0.0,0.0,0.1,0.1,0.167,0.0,4.2,530.5,3.970,3.973,0.009,0.0,00:00:23,0.1,0,--.--,--.--,--.--,12,0000:32:25,0,0,0,49.14,32.98,121,26,97,--.--,--:--:--,1,1620.64,09:52:44,29/01/2025,1.54,--.--,--.--,--.--,--.--,--.--,--.--,--.--,--.--,--.--,--.--,100.00,0,0.000,0.000,0.000,0.000,0.000,0.000,0.000,0.000,0.000,0.000,0.000,0.000,false,false,false,false,false,false,false,false,false,false,false,false,--.--,--.--,--.--,--.--,--.--,--.--,--.--,--.--,-16.6964472,-54.6718848,21KYB 48265 52575,0.5,0.1,308.8,3,28,--.--,--.--,,--.--,--.--,--.--,0,0,--.--,--.--,0,-0.0,-0.3,-4.6,0.1,-0.1,0.0,--.--,--.--,--.--,--.--,--.--,--.--,--.--,--.--,--.--,--.--,--.--,--.--,35.94,34.70,--.--,0,0,1.3,4.0,4.4,0,0,0,180.0,0.0,0.0
2025-01-29 09:52:45.372,1.5,-0.3,241,0.0,0.0,0.0,0.2,0.2,0.176,0.0,4.2,530.5,3.990,3.978,0.013,0.0,00:00:24,0.2,0,--.--,--.--,--.--,11,0000:32:25,0,0,0,49.11,33.98,130,26,97,--.--,--:--:--,1,1668.76,09:52:45,29/01/2025,36.56,--.--,--.--,--.--,--.--,--.--,--.--,--.--,--.--,--.--,--.--,100.00,0,0.000,0.000,0.000,0.000,0.000,0.000,0.000,0.000,0.000,0.000,0.000,0.000,false,false,false,false,false,false,false,false,false,false,false,false,--.--,--.--,--.--,--.--,--.--,--.--,--.--,--.--,-16.6964476,-54.6718843,21KYB 48265 52575,0.5,0.1,108.3,3,28,--.--,--.--,,--.--,--.--,--.--,0,0,--.--,--.--,0,-0.1,-0.2,-4.6,0.1,-0.1,-0.0,--.--,--.--,--.--,--.--,--.--,--.--,--.--,--.--,--.--,--.--,--.--,--.--,35.94,34.68,--.--,0,0,1.9,2.7,5.6,0,0,0,180.0,0.0,0.0
2025-01-29 09:52:46.376,0.2,0.2,222,0.0,0.0,0.0,0.3,0.3,0.263,-0.0,4.3,530.6,4.010,4.016,0.004,0.0,00:00:25,0.2,0,--.--,--.--,--.--,11,0000:32:25,0,0,0,49.10,34.98,135,26,97,--.--,--:--:--,1,1717.34,09:52:46,29/01/2025,43.01,--.--,--.--,--.--,--.--,--.--,--.--,--.--,--.--,--.--,--.--,100.00,0,0.000,0.000,0.000,0.000,0.000,0.000,0.000,0.000,0.000,0.000,0.000,0.000,false,false,false,false,false,false,false,false,false,false,false,false,--.--,--.--,--.--,--.--,--.--,--.--,--.--,--.--,-16.6964475,-54.6718846,21KYB 48265 52575,0.5,0.1,289.6,3,28,--.--,--.--,,--.--,--.--,--.--,0,0,--.--,--.--,0,-0.1,-0.3,-4.6,0.2,-0.2,-0.0,--.--,--.--,--.--,--.--,--.--,--.--,--.--,--.--,--.--,--.--,--.--,--.--,35.94,34.70,--.--,0,0,2.4,2.2,4.6,0,0,0,180.0,0.0,0.0
2025-01-29 09:52:47.382,-0.2,0.5,229,0.0,0.0,0.0,0.2,0.2,0.169,-0.0,4.3,530.6,4.020,4.039,0.025,0.0,00:00:26,0.1,0,--.--,--.--,--.--,11,0000:32:25,0,0,0,49.08,33.98,145,26,97,--.--,--:--:--,1,1667.91,09:52:47,29/01/2025,15.80,--.--,--.--,--.--,--.--,--.--,--.--,--.--,--.--,--.--,--.--,100.00,0,0.000,0.000,0.000,0.000,0.000,0.000,0.000,0.000,0.000,0.000,0.000,0.000,false,false,false,false,false,false,false,false,false,false,false,false,--.--,--.--,--.--,--.--,--.--,--.--,--.--,--.--,-16.6964470,-54.6718857,21KYB 48264 52575,0.5,0.1,319.6,3,28,--.--,--.--,,--.--,--.--,--.--,0,0,--.--,--.--,0,-0.0,-0.3,-4.6,0.2,-0.1,0.0,--.--,--.--,--.--,--.--,--.--,--.--,--.--,--.--,--.--,--.--,--.--,--.--,35.97,34.71,--.--,0,0,1.8,5.3,4.2,0,0,0,180.0,0.0,0.0
2025-01-29 09:52:48.383,0.6,0.1,238,0.0,0.0,0.0,0.1,0.1,0.127,0.0,4.3,530.6,4.010,4.023,0.017,0.0,00:00:27,0.1,0,--.--,--.--,--.--,11,0000:32:25,0,0,0,49.07,33.98,156,26,97,--.--,--:--:--,1,1667.40,09:52:48,29/01/2025,11.53,--.--,--.--,--.--,--.--,--.--,--.--,--.--,--.--,--.--,--.--,100.00,0,0.000,0.000,0.000,0.000,0.000,0.000,0.000,0.000,0.000,0.000,0.000,0.000,false,false,false,false,false,false,false,false,false,false,false,false,--.--,--.--,--.--,--.--,--.--,--.--,--.--,--.--,-16.6964465,-54.6718854,21KYB 48264 52575,0.5,0.1,67.2,3,28,--.--,--.--,,--.--,--.--,--.--,0,0,--.--,--.--,0,-0.0,-0.3,-4.6,0.1,-0.0,0.0,--.--,--.--,--.--,--.--,--.--,--.--,--.--,--.--,--.--,--.--,--.--,--.--,36.00,34.72,--.--,0,0,1.7,2.1,7.0,0,0,0,180.0,0.0,0.0
2025-01-29 09:52:49.381,3.5,-0.0,238,0.0,0.0,0.0,0.5,0.5,0.517,-0.0,4.3,530.6,4.010,4.019,0.031,0.0,00:00:28,0.1,0,--.--,--.--,--.--,11,0000:32:25,0,0,0,49.06,33.98,166,26,97,--.--,--:--:--,1,1666.99,09:52:49,29/01/2025,50.72,--.--,--.--,--.--,--.--,--.--,--.--,--.--,--.--,--.--,--.--,100.00,0,0.000,0.000,0.000,0.000,0.000,0.000,0.000,0.000,0.000,0.000,0.000,0.000,false,false,false,false,false,false,false,false,false,false,false,false,--.--,--.--,--.--,--.--,--.--,--.--,--.--,--.--,-16.6964454,-54.6718857,21KYB 48264 52575,0.5,0.1,322.9,3,28,--.--,--.--,,--.--,--.--,--.--,0,0,--.--,--.--,0,0.0,-0.3,-4.6,0.3,-0.2,0.0,--.--,--.--,--.--,--.--,--.--,--.--,--.--,--.--,--.--,--.--,--.--,--.--,36.01,34.75,--.--,0,0,2.2,2.0,4.8,0,0,0,180.0,0.0,0.0
2025-01-29 09:52:50.391,2.6,0.5,238,0.0,0.0,0.0,1.0,1.0,1.013,-0.0,4.3,530.5,3.990,3.975,0.015,0.0,00:00:29,0.6,0,--.--,--.--,--.--,11,0000:32:25,0,0,0,49.05,33.98,175,26,97,--.--,--:--:--,1,1666.58,09:52:50,29/01/2025,52.59,--.--,--.--,--.--,--.--,--.--,--.--,--.--,--.--,--.--,--.--,100.00,0,0.000,0.000,0.000,0.000,0.000,0.000,0.000,0.000,0.000,0.000,0.000,0.000,false,false,false,false,false,false,false,false,false,false,false,false,--.--,--.--,--.--,--.--,--.--,--.--,--.--,--.--,-16.6964432,-54.6718873,21KYB 48264 52575,0.5,0.1,325.5,3,28,--.--,--.--,,--.--,--.--,--.--,0,0,--.--,--.--,0,0.5,-0.7,-4.6,0.8,-0.5,0.0,--.--,--.--,--.--,--.--,--.--,--.--,--.--,--.--,--.--,--.--,--.--,--.--,36.04,34.74,--.--,0,0,1.9,4.5,7.5,0,0,0,180.0,0.0,0.0
2025-01-29 09:52:51.356,0.4,0.4,238,0.0,0.0,0.0,1.1,1.1,1.083,0.0,4.3,530.5,3.990,3.981,0.035,0.0,00:00:30,1.5,0,--.--,150,--.--,11,0000:32:25,0,0,0,49.03,33.98,185,26,96,--.--,--:--:--,1,1665.97,09:52:51,29/01/2025,50.04,--.--,--.--,--.--,--.--,--.--,--.--,--.--,--.--,--.--,--.--,100.00,0,0.000,0.000,0.000,0.000,0.000,0.000,0.000,0.000,0.000,0.000,0.000,0.000,false,false,false,false,false,false,false,false,false,false,false,false,--.--,--.--,--.--,--.--,--.--,--.--,--.--,--.--,-16.6964370,-54.6718916,21KYB 48264 52576,0.5,0.1,327.1,3,28,--.--,--.--,,--.--,--.--,--.--,0,0,--.--,--.--,0,1.3,-1.2,-4.6,0.9,-0.6,-0.0,--.--,--.--,--.--,--.--,--.--,--.--,--.--,--.--,--.--,--.--,--.--,--.--,36.04,34.75,--.--,0,0,3.3,3.1,7.4,0,0,0,180.0,0.0,0.0
2025-01-29 09:52:52.390,1.4,0.4,238,0.0,0.0,0.0,1.0,1.0,0.973,0.0,4.3,530.5,3.990,3.982,0.026,2.1,00:00:31,2.4,0,--.--,150,--.--,11,0000:32:25,0,0,0,49.02,32.98,195,26,96,--.--,--:--:--,1,1616.51,09:52:52,29/01/2025,46.63,--.--,--.--,--.--,--.--,--.--,--.--,--.--,--.--,--.--,--.--,100.00,0,0.000,0.000,0.000,0.000,0.000,0.000,0.000,0.000,0.000,0.000,0.000,0.000,false,false,false,false,false,false,false,false,false,false,false,false,--.--,--.--,--.--,--.--,--.--,--.--,--.--,--.--,-16.6964275,-54.6718976,21KYB 48263 52577,0.5,0.1,328.6,3,28,--.--,--.--,,--.--,--.--,--.--,0,0,--.--,--.--,0,2.1,-1.7,-4.6,0.8,-0.5,0.0,--.--,--.--,--.--,--.--,--.--,--.--,--.--,--.--,--.--,--.--,--.--,--.--,36.10,34.74,--.--,0,0,2.9,3.6,8.3,0,0,0,180.0,0.0,0.0
2025-01-29 09:52:53.385,1.9,0.2,238,0.0,0.0,0.0,1.0,1.0,1.018,-0.0,4.3,530.5,3.990,3.981,0.005,2.1,00:00:32,3.3,0,--.--,150,--.--,12,0000:32:25,0,0,0,49.00,32.98,204,26,96,--.--,--:--:--,1,1616.18,09:52:53,29/01/2025,45.35,--.--,--.--,--.--,--.--,--.--,--.--,--.--,--.--,--.--,--.--,100.00,0,0.000,0.000,0.000,0.000,0.000,0.000,0.000,0.000,0.000,0.000,0.000,0.000,false,false,false,false,false,false,false,false,false,false,false,false,--.--,--.--,--.--,--.--,--.--,--.--,--.--,--.--,-16.6964236,-54.6718999,21KYB 48263 52577,0.5,0.1,329.6,3,28,--.--,--.--,,--.--,--.--,--.--,0,0,--.--,--.--,0,2.8,-2.1,-4.6,0.9,-0.5,0.0,--.--,--.--,--.--,--.--,--.--,--.--,--.--,--.--,--.--,--.--,--.--,--.--,36.07,34.73,--.--,0,0,2.7,2.3,8.4,0,0,0,180.0,0.0,0.0
2025-01-29 09:52:54.379,0.7,0.1,238,0.0,0.0,0.0,1.0,1.0,1.054,-0.0,4.3,530.5,4.000,3.981,0.022,4.2,00:00:33,4.2,0,--.--,150,--.--,12,0000:32:25,0,0,0,48.98,33.98,213,26,96,--.--,--:--:--,1,1664.44,09:52:54,29/01/2025,42.48,--.--,--.--,--.--,--.--,--.--,--.--,--.--,--.--,--.--,--.--,100.00,0,0.000,0.000,0.000,0.000,0.000,0.000,0.000,0.000,0.000,0.000,0.000,0.000,false,false,false,false,false,false,false,false,false,false,false,false,--.--,--.--,--.--,--.--,--.--,--.--,--.--,--.--,-16.6964165,-54.6719040,21KYB 48263 52578,0.5,0.1,329.6,3,28,--.--,--.--,,--.--,--.--,--.--,0,0,--.--,--.--,0,3.6,-2.5,-4.6,0.9,-0.6,0.0,--.--,--.--,--.--,--.--,--.--,--.--,--.--,--.--,--.--,--.--,--.--,--.--,36.09,34.74,--.--,0,0,2.8,4.4,6.0,0,0,0,180.0,0.0,0.0
2025-01-29 09:52:55.375,-5.6,0.4,238,0.0,0.0,0.0,0.2,0.2,0.160,0.0,4.3,530.6,4.000,4.003,0.008,4.2,00:00:34,4.9,0,--.--,149,--.--,12,0000:32:25,0,0,0,48.96,33.98,223,26,96,--.--,--:--:--,1,1663.80,09:52:55,29/01/2025,43.21,--.--,--.--,--.--,--.--,--.--,--.--,--.--,--.--,--.--,--.--,100.00,0,0.000,0.000,0.000,0.000,0.000,0.000,0.000,0.000,0.000,0.000,0.000,0.000,false,false,false,false,false,false,false,false,false,false,false,false,--.--,--.--,--.--,--.--,--.--,--.--,--.--,--.--,-16.6964098,-54.6719084,21KYB 48262 52579,0.5,0.1,327.2,3,28,--.--,--.--,,--.--,--.--,--.--,0,0,--.--,--.--,0,4.3,-2.9,-4.6,0.4,-0.3,-0.0,--.--,--.--,--.--,--.--,--.--,--.--,--.--,--.--,--.--,--.--,--.--,--.--,36.06,34.79,--.--,0,0,2.7,4.6,6.8,0,0,0,180.0,0.0,0.0
2025-01-29 09:52:56.384,2.1,-0.0,238,0.0,0.0,0.0,0.1,0.1,0.097,-0.0,4.3,530.6,4.010,4.020,0.027,4.2,00:00:35,4.8,0,--.--,150,--.--,11,0000:32:25,0,0,0,48.95,33.98,233,26,96,--.--,--:--:--,1,1663.39,09:52:56,29/01/2025,43.61,--.--,--.--,--.--,--.--,--.--,--.--,--.--,--.--,--.--,--.--,100.00,0,0.000,0.000,0.000,0.000,0.000,0.000,0.000,0.000,0.000,0.000,0.000,0.000,false,false,false,false,false,false,false,false,false,false,false,false,--.--,--.--,--.--,--.--,--.--,--.--,--.--,--.--,-16.6964082,-54.6719096,21KYB 48262 52579,0.5,0.1,151.9,3,28,--.--,--.--,,--.--,--.--,--.--,0,0,--.--,--.--,0,4.2,-2.9,-4.6,-0.1,0.1,-0.0,--.--,--.--,--.--,--.--,--.--,--.--,--.--,--.--,--.--,--.--,--.--,--.--,36.13,34.77,--.--,0,0,2.7,4.1,5.4,0,0,0,180.0,0.0,0.0
2025-01-29 09:52:57.379,-1.3,-0.0,238,0.0,0.0,0.0,0.1,0.1,0.074,0.0,4.3,530.6,4.010,4.015,0.022,4.2,00:00:36,4.7,0,--.--,150,--.--,11,0000:32:25,0,0,0,48.95,33.98,243,26,96,--.--,--:--:--,1,1663.19,09:52:57,29/01/2025,42.62,--.--,--.--,--.--,--.--,--.--,--.--,--.--,--.--,--.--,--.--,100.00,0,0.000,0.000,0.000,0.000,0.000,0.000,0.000,0.000,0.000,0.000,0.000,0.000,false,false,false,false,false,false,false,false,false,false,false,false,--.--,--.--,--.--,--.--,--.--,--.--,--.--,--.--,-16.6964092,-54.6719090,21KYB 48262 52579,0.5,0.1,150.8,3,28,--.--,--.--,,--.--,--.--,--.--,0,0,--.--,--.--,0,4.1,-2.8,-4.6,-0.0,-0.0,0.0,--.--,--.--,--.--,--.--,--.--,--.--,--.--,--.--,--.--,--.--,--.--,--.--,36.09,34.82,--.--,0,0,2.1,4.0,4.4,0,0,0,180.0,0.0,0.0
2025-01-29 09:52:58.378,0.1,0.5,238,0.0,0.0,0.0,0.2,0.2,0.244,0.0,4.3,530.5,4.000,3.998,0.010,4.2,00:00:37,4.6,0,--.--,149,--.--,11,0000:32:25,0,0,0,48.94,33.98,253,26,96,--.--,--:--:--,1,1662.95,09:52:58,29/01/2025,41.98,--.--,--.--,--.--,--.--,--.--,--.--,--.--,--.--,--.--,--.--,100.00,0,0.000,0.000,0.000,0.000,0.000,0.000,0.000,0.000,0.000,0.000,0.000,0.000,false,false,false,false,false,false,false,false,false,false,false,false,--.--,--.--,--.--,--.--,--.--,--.--,--.--,--.--,-16.6964099,-54.6719090,21KYB 48262 52579,0.5,0.1,161.4,3,28,--.--,--.--,,--.--,--.--,--.--,0,0,--.--,--.--,0,3.9,-2.8,-4.6,-0.2,0.1,-0.0,--.--,--.--,--.--,--.--,--.--,--.--,--.--,--.--,--.--,--.--,--.--,--.--,36.15,34.82,--.--,0,0,3.0,5.0,7.7,0,0,0,180.0,0.0,0.0
2025-01-29 09:52:59.389,2.6,0.3,238,0.0,0.0,0.0,0.1,0.1,0.124,0.0,4.3,530.6,4.010,4.019,0.015,4.2,00:00:38,4.3,0,--.--,149,--.--,12,0000:32:25,0,0,0,48.93,33.98,262,26,96,--.--,--:--:--,1,1662.54,09:52:59,29/01/2025,43.74,--.--,--.--,--.--,--.--,--.--,--.--,--.--,--.--,--.--,--.--,100.00,0,0.000,0.000,0.000,0.000,0.000,0.000,0.000,0.000,0.000,0.000,0.000,0.000,false,false,false,false,false,false,false,false,false,false,false,false,--.--,--.--,--.--,--.--,--.--,--.--,--.--,--.--,-16.6964121,-54.6719079,21KYB 48262 52579,0.5,0.1,151.2,3,28,--.--,--.--,,--.--,--.--,--.--,0,0,--.--,--.--,0,3.7,-2.6,-4.6,-0.0,0.0,0.0,--.--,--.--,--.--,--.--,--.--,--.--,--.--,--.--,--.--,--.--,--.--,--.--,36.16,34.81,--.--,0,0,2.3,3.9,6.3,0,0,0,180.0,0.0,0.0
2025-01-29 09:53:00.372,-0.9,0.4,238,0.0,0.0,0.0,0.2,0.3,0.289,0.2,4.4,530.7,4.170,4.172,0.016,4.2,00:00:39,4.5,0,--.--,149,--.--,11,0000:32:25,0,0,0,48.91,33.98,272,26,96,--.--,--:--:--,1,1661.83,09:53:00,29/01/2025,44.12,--.--,--.--,--.--,--.--,--.--,--.--,--.--,--.--,--.--,--.--,100.00,0,0.000,0.000,0.000,0.000,0.000,0.000,0.000,0.000,0.000,0.000,0.000,0.000,false,false,false,false,false,false,false,false,false,false,false,false,--.--,--.--,--.--,--.--,--.--,--.--,--.--,--.--,-16.6964121,-54.6719080,21KYB 48262 52579,0.5,0.1,327.9,3,28,--.--,--.--,,--.--,--.--,--.--,0,0,--.--,--.--,0,3.9,-2.7,-4.7,0.2,-0.1,-0.2,--.--,--.--,--.--,--.--,--.--,--.--,--.--,--.--,--.--,--.--,--.--,--.--,36.15,34.82,--.--,0,0,1.0,3.6,5.7,0,0,0,180.0,0.0,0.0
2025-01-29 09:53:01.373,-0.7,-0.2,238,0.0,0.0,0.0,0.1,0.2,0.246,0.2,4.6,530.9,4.360,4.363,0.025,4.2,00:00:40,4.5,0,--.--,150,--.--,12,0000:32:25,0,0,0,48.90,35.98,277,26,96,--.--,--:--:--,1,1759.57,09:53:01,29/01/2025,44.05,--.--,--.--,--.--,--.--,--.--,--.--,--.--,--.--,--.--,--.--,100.00,0,0.000,0.000,0.000,0.000,0.000,0.000,0.000,0.000,0.000,0.000,0.000,0.000,false,false,false,false,false,false,false,false,false,false,false,false,--.--,--.--,--.--,--.--,--.--,--.--,--.--,--.--,-16.6964111,-54.6719084,21KYB 48262 52579,0.5,0.1,7.0,3,28,--.--,--.--,,--.--,--.--,--.--,0,0,--.--,--.--,0,3.9,-2.7,-4.9,0.1,-0.0,-0.2,--.--,--.--,--.--,--.--,--.--,--.--,--.--,--.--,--.--,--.--,--.--,--.--,36.20,34.80,--.--,0,0,1.3,4.3,7.0,0,0,0,180.0,0.0,0.0
2025-01-29 09:53:02.382,-0.1,-0.9,238,0.0,0.0,0.0,0.0,0.3,0.349,0.3,4.8,531.1,4.610,4.612,0.053,4.2,00:00:41,4.4,0,--.--,150,--.--,11,0000:32:25,0,0,0,48.86,35.98,287,26,96,--.--,--:--:--,1,1757.80,09:53:02,29/01/2025,43.41,--.--,--.--,--.--,--.--,--.--,--.--,--.--,--.--,--.--,--.--,100.00,0,0.000,0.000,0.000,0.000,0.000,0.000,0.000,0.000,0.000,0.000,0.000,0.000,false,false,false,false,false,false,false,false,false,false,false,false,--.--,--.--,--.--,--.--,--.--,--.--,--.--,--.--,-16.6964111,-54.6719079,21KYB 48262 52579,0.5,0.1,96.8,3,28,--.--,--.--,,--.--,--.--,--.--,0,0,--.--,--.--,0,3.9,-2.6,-5.1,0.1,-0.0,-0.3,--.--,--.--,--.--,--.--,--.--,--.--,--.--,--.--,--.--,--.--,--.--,--.--,36.16,34.83,--.--,0,0,0.9,4.0,7.1,0,0,0,180.0,0.0,0.0
2025-01-29 09:53:03.379,0.9,0.3,239,0.0,0.0,0.0,0.1,0.6,0.581,0.6,5.2,531.5,5.050,5.050,0.013,4.2,00:00:42,4.4,0,--.--,150,--.--,12,0000:32:25,0,0,0,48.85,35.98,297,26,96,--.--,--:--:--,1,1757.73,09:53:03,29/01/2025,43.48,--.--,--.--,--.--,--.--,--.--,--.--,--.--,--.--,--.--,--.--,100.00,0,0.000,0.000,0.000,0.000,0.000,0.000,0.000,0.000,0.000,0.000,0.000,0.000,false,false,false,false,false,false,false,false,false,false,false,false,--.--,--.--,--.--,--.--,--.--,--.--,--.--,--.--,-16.6964119,-54.6719090,21KYB 48262 52579,0.5,0.1,218.7,3,28,--.--,--.--,,--.--,--.--,--.--,0,0,--.--,--.--,0,3.8,-2.7,-5.5,0.0,-0.1,-0.5,--.--,--.--,--.--,--.--,--.--,--.--,--.--,--.--,--.--,--.--,--.--,--.--,36.19,34.84,--.--,0,0,1.2,3.3,5.4,0,0,0,180.0,0.0,0.0
2025-01-29 09:53:04.376,-0.1,0.1,239,0.0,0.0,0.0,0.1,0.5,0.541,0.5,5.7,532.0,5.580,5.567,0.050,4.2,00:00:43,4.5,0,--.--,149,--.--,11,0000:32:25,0,0,0,48.84,35.98,308,26,96,--.--,--:--:--,1,1757.12,09:53:04,29/01/2025,52.10,--.--,--.--,--.--,--.--,--.--,--.--,--.--,--.--,--.--,--.--,100.00,0,0.000,0.000,0.000,0.000,0.000,0.000,0.000,0.000,0.000,0.000,0.000,0.000,false,false,false,false,false,false,false,false,false,false,false,false,--.--,--.--,--.--,--.--,--.--,--.--,--.--,--.--,-16.6964126,-54.6719109,21KYB 48262 52579,0.5,0.1,345.3,3,28,--.--,--.--,,--.--,--.--,--.--,0,0,--.--,--.--,0,3.8,-2.7,-6.0,0.1,-0.0,-0.5,--.--,--.--,--.--,--.--,--.--,--.--,--.--,--.--,--.--,--.--,--.--,--.--,36.20,34.82,--.--,0,0,1.0,3.0,5.7,0,0,0,180.0,0.0,0.0
2025-01-29 09:53:05.394,0.6,0.4,238,0.0,0.0,0.0,0.0,0.5,0.546,0.5,6.2,532.5,6.030,5.948,0.087,4.2,00:00:44,4.5,0,--.--,149,--.--,11,0000:32:25,0,0,0,48.86,33.98,318,26,96,--.--,--:--:--,1,1660.26,09:53:05,29/01/2025,56.68,--.--,--.--,--.--,--.--,--.--,--.--,--.--,--.--,--.--,--.--,100.00,0,0.000,0.000,0.000,0.000,0.000,0.000,0.000,0.000,0.000,0.000,0.000,0.000,false,false,false,false,false,false,false,false,false,false,false,false,--.--,--.--,--.--,--.--,--.--,--.--,--.--,--.--,-16.6964134,-54.6719113,21KYB 48262 52579,0.5,0.1,139.9,3,28,--.--,--.--,,--.--,--.--,--.--,0,0,--.--,--.--,0,3.8,-2.8,-6.5,0.0,0.0,-0.5,--.--,--.--,--.--,--.--,--.--,--.--,--.--,--.--,--.--,--.--,--.--,--.--,36.20,34.85,--.--,0,0,2.9,2.8,6.9,0,0,0,180.0,0.0,0.0
2025-01-29 09:53:06.376,0.7,1.1,238,0.0,0.0,0.0,0.1,0.4,0.442,0.4,6.6,532.9,6.450,6.315,0.128,4.2,00:00:45,4.4,0,--.--,148,--.--,10,0000:32:25,0,0,0,48.82,33.98,328,26,96,--.--,--:--:--,1,1658.84,09:53:06,29/01/2025,1.37,--.--,--.--,--.--,--.--,--.--,--.--,--.--,--.--,--.--,--.--,100.00,0,0.000,0.000,0.000,0.000,0.000,0.000,0.000,0.000,0.000,0.000,0.000,0.000,false,false,false,false,false,false,false,false,false,false,false,false,--.--,--.--,--.--,--.--,--.--,--.--,--.--,--.--,-16.6964136,-54.6719112,21KYB 48262 52579,0.5,0.1,109.4,3,28,--.--,--.--,,--.--,--.--,--.--,0,0,--.--,--.--,0,3.8,-2.8,-6.9,0.1,-0.0,-0.5,--.--,--.--,--.--,--.--,--.--,--.--,--.--,--.--,--.--,--.--,--.--,--.--,36.24,34.85,--.--,0,0,2.2,2.0,7.1,0,0,0,180.0,0.0,0.0
2025-01-29 09:53:07.383,-0.8,1.3,239,0.0,0.0,0.0,0.1,0.1,0.106,0.1,6.7,533.0,6.470,6.283,0.112,4.2,00:00:46,4.5,0,--.--,148,--.--,12,0000:32:25,0,0,0,48.80,34.98,338,26,96,--.--,--:--:--,1,1706.99,09:53:07,29/01/2025,11.76,--.--,--.--,--.--,--.--,--.--,--.--,--.--,--.--,--.--,--.--,100.00,0,0.000,0.000,0.000,0.000,0.000,0.000,0.000,0.000,0.000,0.000,0.000,0.000,false,false,false,false,false,false,false,false,false,false,false,false,--.--,--.--,--.--,--.--,--.--,--.--,--.--,--.--,-16.6964132,-54.6719112,21KYB 48262 52579,0.5,0.1,339.7,3,28,--.--,--.--,,--.--,--.--,--.--,0,0,--.--,--.--,0,3.8,-2.8,-7.1,0.1,-0.0,-0.1,--.--,--.--,--.--,--.--,--.--,--.--,--.--,--.--,--.--,--.--,--.--,--.--,36.22,34.88,--.--,0,0,2.5,2.0,5.6,0,0,0,180.0,0.0,0.0
2025-01-29 09:53:08.385,1.4,1.3,239,0.0,0.0,0.0,0.1,0.1,0.149,0.1,6.7,533.0,6.490,6.325,0.107,4.2,00:00:47,4.5,0,--.--,148,--.--,12,0000:32:25,0,0,0,48.76,38.98,348,26,96,--.--,--:--:--,1,1900.66,09:53:08,29/01/2025,11.76,--.--,--.--,--.--,--.--,--.--,--.--,--.--,--.--,--.--,--.--,100.00,0,0.000,0.000,0.000,0.000,0.000,0.000,0.000,0.000,0.000,0.000,0.000,0.000,false,false,false,false,false,false,false,false,false,false,false,false,--.--,--.--,--.--,--.--,--.--,--.--,--.--,--.--,-16.6964126,-54.6719105,21KYB 48262 52579,0.5,0.1,102.7,3,28,--.--,--.--,,--.--,--.--,--.--,0,0,--.--,--.--,0,3.8,-2.8,-7.1,-0.0,0.1,-0.1,--.--,--.--,--.--,--.--,--.--,--.--,--.--,--.--,--.--,--.--,--.--,--.--,36.29,34.85,--.--,0,0,3.1,2.3,7.1,0,0,0,180.0,0.0,0.0
2025-01-29 09:53:09.373,1.1,0.9,238,0.0,0.0,0.0,0.1,0.4,0.389,-0.4,6.8,533.1,6.430,6.325,0.079,4.2,00:00:48,4.4,0,--.--,149,--.--,11,0000:32:25,0,0,0,48.76,36.98,359,26,96,--.--,--:--:--,1,1803.18,09:53:09,29/01/2025,25.51,--.--,--.--,--.--,--.--,--.--,--.--,--.--,--.--,--.--,--.--,100.00,0,0.000,0.000,0.000,0.000,0.000,0.000,0.000,0.000,0.000,0.000,0.000,0.000,false,false,false,false,false,false,false,false,false,false,false,false,--.--,--.--,--.--,--.--,--.--,--.--,--.--,--.--,-16.6964125,-54.6719099,21KYB 48262 52579,0.5,0.1,76.0,3,28,--.--,--.--,,--.--,--.--,--.--,0,0,--.--,--.--,0,3.8,-2.7,-7.1,0.1,0.1,0.1,--.--,--.--,--.--,--.--,--.--,--.--,--.--,--.--,--.--,--.--,--.--,--.--,36.26,34.83,--.--,0,0,2.0,1.9,5.3,0,0,0,180.0,0.0,0.0
2025-01-29 09:53:10.378,0.7,0.0,238,0.0,0.0,0.0,0.1,0.4,0.399,-0.4,6.3,532.6,5.940,5.823,0.049,4.2,00:00:49,4.5,0,--.--,150,--.--,11,0000:32:25,0,0,0,48.82,30.99,369,26,96,--.--,--:--:--,1,1512.87,09:53:10,29/01/2025,25.80,--.--,--.--,--.--,--.--,--.--,--.--,--.--,--.--,--.--,--.--,100.00,0,0.000,0.000,0.000,0.000,0.000,0.000,0.000,0.000,0.000,0.000,0.000,0.000,false,false,false,false,false,false,false,false,false,false,false,false,--.--,--.--,--.--,--.--,--.--,--.--,--.--,--.--,-16.6964118,-54.6719093,21KYB 48262 52579,0.5,0.1,13.5,3,28,--.--,--.--,,--.--,--.--,--.--,0,0,--.--,--.--,0,3.9,-2.7,-6.7,0.1,0.0,0.4,--.--,--.--,--.--,--.--,--.--,--.--,--.--,--.--,--.--,--.--,--.--,--.--,36.26,34.86,--.--,0,0,2.8,2.9,7.1,0,0,0,180.0,0.0,0.0
2025-01-29 09:53:11.383,-0.3,0.5,238,0.0,0.0,0.0,0.0,0.5,0.463,-0.5,5.9,532.2,5.500,5.424,0.039,4.2,00:00:50,4.5,0,--.--,150,--.--,11,0000:32:25,0,0,0,48.79,33.98,378,26,96,--.--,--:--:--,1,1657.95,09:53:11,29/01/2025,1.30,--.--,--.--,--.--,--.--,--.--,--.--,--.--,--.--,--.--,--.--,100.00,0,0.000,0.000,0.000,0.000,0.000,0.000,0.000,0.000,0.000,0.000,0.000,0.000,false,false,false,false,false,false,false,false,false,false,false,false,--.--,--.--,--.--,--.--,--.--,--.--,--.--,--.--,-16.6964111,-54.6719092,21KYB 48262 52579,0.5,0.1,272.3,3,28,--.--,--.--,,--.--,--.--,--.--,0,0,--.--,--.--,0,3.9,-2.7,-6.2,0.1,-0.0,0.4,--.--,--.--,--.--,--.--,--.--,--.--,--.--,--.--,--.--,--.--,--.--,--.--,36.28,34.89,--.--,0,0,2.6,4.1,5.4,0,0,0,180.0,0.0,0.0
2025-01-29 09:53:12.383,0.5,0.7,238,0.0,0.0,0.0,0.0,0.6,0.564,-0.6,5.4,531.7,5.010,4.977,0.017,4.2,00:00:51,4.5,0,--.--,149,--.--,11,0000:32:25,0,0,0,48.81,32.98,388,26,96,--.--,--:--:--,1,1609.65,09:53:12,29/01/2025,1.30,--.--,--.--,--.--,--.--,--.--,--.--,--.--,--.--,--.--,--.--,100.00,0,0.000,0.000,0.000,0.000,0.000,0.000,0.000,0.000,0.000,0.000,0.000,0.000,false,false,false,false,false,false,false,false,false,false,false,false,--.--,--.--,--.--,--.--,--.--,--.--,--.--,--.--,-16.6964111,-54.6719092,21KYB 48262 52579,0.5,0.1,156.7,3,28,--.--,--.--,,--.--,--.--,--.--,0,0,--.--,--.--,0,3.9,-2.8,-5.8,-0.0,-0.0,0.6,--.--,--.--,--.--,--.--,--.--,--.--,--.--,--.--,--.--,--.--,--.--,--.--,36.31,34.92,--.--,0,0,1.5,1.8,7.7,0,0,0,180.0,0.0,0.0
2025-01-29 09:53:13.379,0.4,0.5,238,0.0,0.0,0.0,0.0,0.5,0.476,-0.5,4.9,531.2,4.500,4.495,0.028,4.2,00:00:52,4.5,0,--.--,149,--.--,10,0000:32:25,0,0,0,48.79,32.98,397,26,96,--.--,--:--:--,1,1609.03,09:53:13,29/01/2025,1.33,--.--,--.--,--.--,--.--,--.--,--.--,--.--,--.--,--.--,--.--,100.00,0,0.000,0.000,0.000,0.000,0.000,0.000,0.000,0.000,0.000,0.000,0.000,0.000,false,false,false,false,false,false,false,false,false,false,false,false,--.--,--.--,--.--,--.--,--.--,--.--,--.--,--.--,-16.6964114,-54.6719088,21KYB 48262 52579,0.5,0.1,130.6,3,28,--.--,--.--,,--.--,--.--,--.--,0,0,--.--,--.--,0,3.9,-2.7,-5.2,0.0,-0.0,0.5,--.--,--.--,--.--,--.--,--.--,--.--,--.--,--.--,--.--,--.--,--.--,--.--,36.29,34.89,--.--,0,0,2.2,3.4,8.0,0,0,0,180.0,0.0,0.0
2025-01-29 09:53:14.372,0.4,0.4,238,0.0,0.0,0.0,0.0,0.6,0.556,-0.6,4.4,530.7,3.970,3.987,0.027,4.2,00:00:53,4.5,0,--.--,149,--.--,11,0000:32:25,0,0,0,48.79,31.99,407,26,96,--.--,--:--:--,1,1560.66,09:53:14,29/01/2025,31.23,--.--,--.--,--.--,--.--,--.--,--.--,--.--,--.--,--.--,--.--,100.00,0,0.000,0.000,0.000,0.000,0.000,0.000,0.000,0.000,0.000,0.000,0.000,0.000,false,false,false,false,false,false,false,false,false,false,false,false,--.--,--.--,--.--,--.--,--.--,--.--,--.--,--.--,-16.6964113,-54.6719088,21KYB 48262 52579,0.5,0.1,328.7,3,28,--.--,--.--,,--.--,--.--,--.--,0,0,--.--,--.--,0,3.9,-2.7,-4.7,0.0,-0.0,0.5,--.--,--.--,--.--,--.--,--.--,--.--,--.--,--.--,--.--,--.--,--.--,--.--,36.34,34.95,--.--,0,0,3.0,3.5,6.6,0,0,0,180.0,0.0,0.0
2025-01-29 09:53:15.388,1.0,0.8,238,0.0,0.0,0.0,0.0,0.0,0.034,0.0,3.9,530.2,3.650,3.658,0.067,4.2,00:00:54,4.5,0,--.--,149,--.--,12,0000:32:25,0,0,0,48.78,32.98,416,26,96,--.--,--:--:--,1,1608.76,09:53:15,29/01/2025,52.38,--.--,--.--,--.--,--.--,--.--,--.--,--.--,--.--,--.--,--.--,100.00,0,0.000,0.000,0.000,0.000,0.000,0.000,0.000,0.000,0.000,0.000,0.000,0.000,false,false,false,false,false,false,false,false,false,false,false,false,--.--,--.--,--.--,--.--,--.--,--.--,--.--,--.--,-16.6964112,-54.6719086,21KYB 48262 52579,0.5,0.1,59.5,3,28,--.--,--.--,,--.--,--.--,--.--,0,0,--.--,--.--,0,3.8,-2.7,-4.3,-0.0,0.0,0.2,--.--,--.--,--.--,--.--,--.--,--.--,--.--,--.--,--.--,--.--,--.--,--.--,36.32,34.88,--.--,0,0,2.2,4.0,8.7,0,0,0,180.0,0.0,0.0
2025-01-29 09:53:16.372,1.1,0.8,238,0.0,0.0,0.0,0.1,0.1,0.066,-0.0,4.0,530.3,3.700,3.760,0.059,4.2,00:00:55,4.4,0,--.--,149,--.--,11,0000:32:25,0,0,0,48.73,35.98,426,27,96,--.--,--:--:--,1,1753.27,09:53:16,29/01/2025,58.01,--.--,--.--,--.--,--.--,--.--,--.--,--.--,--.--,--.--,--.--,100.00,0,0.000,0.000,0.000,0.000,0.000,0.000,0.000,0.000,0.000,0.000,0.000,0.000,false,false,false,false,false,false,false,false,false,false,false,false,--.--,--.--,--.--,--.--,--.--,--.--,--.--,--.--,-16.6964115,-54.6719085,21KYB 48262 52579,0.5,0.1,121.0,3,28,--.--,--.--,,--.--,--.--,--.--,0,0,--.--,--.--,0,3.8,-2.7,-4.3,0.1,-0.0,0.0,--.--,--.--,--.--,--.--,--.--,--.--,--.--,--.--,--.--,--.--,--.--,--.--,36.40,34.89,--.--,0,0,2.2,4.3,8.9,0,0,0,180.0,0.0,0.0
2025-01-29 09:53:17.381,0.4,0.8,238,0.0,0.0,0.0,0.0,0.4,0.399,-0.4,4.0,530.3,3.620,3.689,0.019,4.2,00:00:56,4.5,0,--.--,149,--.--,10,0000:32:25,0,0,0,48.76,33.98,431,27,96,--.--,--:--:--,1,1656.76,09:53:17,29/01/2025,56.00,--.--,--.--,--.--,--.--,--.--,--.--,--.--,--.--,--.--,--.--,100.00,0,0.000,0.000,0.000,0.000,0.000,0.000,0.000,0.000,0.000,0.000,0.000,0.000,false,false,false,false,false,false,false,false,false,false,false,false,--.--,--.--,--.--,--.--,--.--,--.--,--.--,--.--,-16.6964112,-54.6719085,21KYB 48262 52579,0.5,0.1,338.7,3,28,--.--,--.--,,--.--,--.--,--.--,0,0,--.--,--.--,0,3.9,-2.7,-4.3,0.0,-0.0,0.1,--.--,--.--,--.--,--.--,--.--,--.--,--.--,--.--,--.--,--.--,--.--,--.--,36.32,34.91,--.--,0,0,2.1,3.8,7.2,0,0,0,180.0,0.0,0.0
2025-01-29 09:53:18.378,0.8,1.4,238,0.0,0.0,0.0,0.0,0.5,0.546,-0.5,3.5,529.8,3.080,3.100,0.057,4.2,00:00:57,4.5,0,--.--,149,--.--,11,0000:32:25,0,0,0,48.78,29.99,441,27,96,--.--,--:--:--,1,1462.94,09:53:18,29/01/2025,55.51,--.--,--.--,--.--,--.--,--.--,--.--,--.--,--.--,--.--,--.--,100.00,0,0.000,0.000,0.000,0.000,0.000,0.000,0.000,0.000,0.000,0.000,0.000,0.000,false,false,false,false,false,false,false,false,false,false,false,false,--.--,--.--,--.--,--.--,--.--,--.--,--.--,--.--,-16.6964113,-54.6719088,21KYB 48262 52579,0.5,0.1,210.3,3,28,--.--,--.--,,--.--,--.--,--.--,0,0,--.--,--.--,0,3.9,-2.8,-3.8,-0.0,-0.0,0.6,--.--,--.--,--.--,--.--,--.--,--.--,--.--,--.--,--.--,--.--,--.--,--.--,36.41,34.95,--.--,0,0,2.2,3.2,6.0,0,0,0,180.0,0.0,0.0
2025-01-29 09:53:19.379,0.3,0.1,239,0.0,0.0,0.0,0.1,0.8,0.753,-0.8,2.9,529.2,2.430,2.428,0.009,4.2,00:00:58,4.5,0,--.--,149,--.--,11,0000:32:25,0,0,0,48.76,32.98,450,27,96,--.--,--:--:--,1,1608.20,09:53:19,29/01/2025,49.00,--.--,--.--,--.--,--.--,--.--,--.--,--.--,--.--,--.--,--.--,100.00,0,0.000,0.000,0.000,0.000,0.000,0.000,0.000,0.000,0.000,0.000,0.000,0.000,false,false,false,false,false,false,false,false,false,false,false,false,--.--,--.--,--.--,--.--,--.--,--.--,--.--,--.--,-16.6964111,-54.6719089,21KYB 48262 52579,0.5,0.1,22.0,3,28,--.--,--.--,,--.--,--.--,--.--,0,0,--.--,--.--,0,3.9,-2.7,-3.2,0.1,0.0,0.7,--.--,--.--,--.--,--.--,--.--,--.--,--.--,--.--,--.--,--.--,--.--,--.--,36.45,34.93,--.--,0,0,2.3,2.4,8.1,0,0,0,180.0,0.0,0.0
2025-01-29 09:53:20.386,0.5,0.8,239,0.0,0.0,0.0,0.0,0.6,0.577,-0.6,2.2,528.5,1.800,1.775,0.026,4.2,00:00:59,4.5,0,--.--,149,--.--,11,0000:32:25,0,0,0,48.76,31.99,459,27,96,--.--,--:--:--,1,1559.96,09:53:20,29/01/2025,40.91,--.--,--.--,--.--,--.--,--.--,--.--,--.--,--.--,--.--,--.--,100.00,0,0.000,0.000,0.000,0.000,0.000,0.000,0.000,0.000,0.000,0.000,0.000,0.000,false,false,false,false,false,false,false,false,false,false,false,false,--.--,--.--,--.--,--.--,--.--,--.--,--.--,--.--,-16.6964108,-54.6719090,21KYB 48262 52579,0.5,0.1,0.0,3,28,--.--,--.--,,--.--,--.--,--.--,0,0,--.--,--.--,0,3.9,-2.7,-2.6,-0.0,-0.0,0.5,--.--,--.--,--.--,--.--,--.--,--.--,--.--,--.--,--.--,--.--,--.--,--.--,36.44,34.96,--.--,0,0,3.1,3.9,7.8,0,0,0,180.0,0.0,0.0
2025-01-29 09:53:21.377,0.2,0.7,239,0.0,0.0,0.0,0.0,0.6,0.612,-0.6,1.7,528.0,1.210,1.194,0.022,4.2,00:01:00,4.5,0,--.--,149,--.--,12,0000:32:25,0,0,0,48.74,34.98,468,27,96,--.--,--:--:--,1,1705.03,09:53:21,29/01/2025,40.57,--.--,--.--,--.--,--.--,--.--,--.--,--.--,--.--,--.--,--.--,100.00,0,0.000,0.000,0.000,0.000,0.000,0.000,0.000,0.000,0.000,0.000,0.000,0.000,false,false,false,false,false,false,false,false,false,false,false,false,--.--,--.--,--.--,--.--,--.--,--.--,--.--,--.--,-16.6964107,-54.6719091,21KYB 48262 52579,0.5,0.1,333.4,3,28,--.--,--.--,,--.--,--.--,--.--,0,0,--.--,--.--,0,3.9,-2.8,-2.0,0.0,0.0,0.6,--.--,--.--,--.--,--.--,--.--,--.--,--.--,--.--,--.--,--.--,--.--,--.--,36.46,34.98,--.--,0,0,1.9,2.6,6.4,0,0,0,180.0,0.0,0.0
2025-01-29 09:53:22.374,0.7,0.8,239,0.0,0.0,0.0,0.1,0.1,0.099,-0.1,1.1,527.4,0.770,0.723,0.017,4.2,00:01:01,4.5,0,--.--,149,--.--,12,0000:32:25,0,0,0,48.70,33.98,478,27,96,--.--,--:--:--,1,1654.86,09:53:22,29/01/2025,37.80,--.--,--.--,--.--,--.--,--.--,--.--,--.--,--.--,--.--,--.--,100.00,0,0.000,0.000,0.000,0.000,0.000,0.000,0.000,0.000,0.000,0.000,0.000,0.000,false,false,false,false,false,false,false,false,false,false,false,false,--.--,--.--,--.--,--.--,--.--,--.--,--.--,--.--,-16.6964105,-54.6719090,21KYB 48262 52579,0.5,0.1,77.6,3,28,--.--,--.--,,--.--,--.--,--.--,0,0,--.--,--.--,0,3.9,-2.7,-1.4,-0.0,0.1,0.3,--.--,--.--,--.--,--.--,--.--,--.--,--.--,--.--,--.--,--.--,--.--,--.--,36.48,34.99,--.--,0,0,2.6,2.9,8.5,0,0,0,180.0,0.0,0.0
2025-01-29 09:53:23.380,0.2,0.2,249,0.0,0.0,0.0,0.0,0.0,0.050,0.0,1.1,527.4,0.810,0.820,0.057,4.2,00:01:02,4.5,0,--.--,150,--.--,11,0000:32:25,0,0,0,48.66,36.98,488,27,96,--.--,--:--:--,1,1799.52,09:53:23,29/01/2025,35.47,--.--,--.--,--.--,--.--,--.--,--.--,--.--,--.--,--.--,--.--,100.00,0,0.000,0.000,0.000,0.000,0.000,0.000,0.000,0.000,0.000,0.000,0.000,0.000,false,false,false,false,false,false,false,false,false,false,false,false,--.--,--.--,--.--,--.--,--.--,--.--,--.--,--.--,-16.6964104,-54.6719085,21KYB 48262 52579,0.5,0.1,59.3,3,28,--.--,--.--,,--.--,--.--,--.--,0,0,--.--,--.--,0,3.9,-2.7,-1.4,0.0,0.0,-0.0,--.--,--.--,--.--,--.--,--.--,--.--,--.--,--.--,--.--,--.--,--.--,--.--,36.48,34.97,--.--,0,0,1.8,2.3,5.0,0,0,0,180.0,0.0,0.0
2025-01-29 09:53:24.373,0.6,-0.2,267,0.0,0.0,0.0,0.0,0.0,0.046,-0.0,1.1,527.4,0.800,0.804,0.049,4.2,00:01:03,4.5,0,--.--,150,--.--,12,0000:32:25,0,0,0,48.66,35.98,498,27,96,--.--,--:--:--,1,1750.89,09:53:24,29/01/2025,36.61,--.--,--.--,--.--,--.--,--.--,--.--,--.--,--.--,--.--,--.--,100.00,0,0.000,0.000,0.000,0.000,0.000,0.000,0.000,0.000,0.000,0.000,0.000,0.000,false,false,false,false,false,false,false,false,false,false,false,false,--.--,--.--,--.--,--.--,--.--,--.--,--.--,--.--,-16.6964103,-54.6719078,21KYB 48262 52579,0.5,0.1,98.6,3,28,--.--,--.--,,--.--,--.--,--.--,0,0,--.--,--.--,0,3.9,-2.7,-1.4,-0.0,-0.0,0.0,--.--,--.--,--.--,--.--,--.--,--.--,--.--,--.--,--.--,--.--,--.--,--.--,36.44,34.99,--.--,0,0,2.3,3.2,5.7,0,0,0,180.0,0.0,0.0
2025-01-29 09:53:25.380,1.8,-0.8,286,0.0,0.0,0.0,0.0,0.0,0.047,-0.0,1.1,527.4,0.800,0.797,0.084,4.2,00:01:04,4.5,0,--.--,150,--.--,12,0000:32:25,0,0,0,48.68,34.98,508,27,96,--.--,--:--:--,1,1702.72,09:53:25,29/01/2025,37.36,--.--,--.--,--.--,--.--,--.--,--.--,--.--,--.--,--.--,--.--,100.00,0,0.000,0.000,0.000,0.000,0.000,0.000,0.000,0.000,0.000,0.000,0.000,0.000,false,false,false,false,false,false,false,false,false,false,false,false,--.--,--.--,--.--,--.--,--.--,--.--,--.--,--.--,-16.6964110,-54.6719075,21KYB 48262 52579,0.5,0.1,172.2,3,28,--.--,--.--,,--.--,--.--,--.--,0,0,--.--,--.--,0,3.8,-2.7,-1.4,-0.1,0.0,0.0,--.--,--.--,--.--,--.--,--.--,--.--,--.--,--.--,--.--,--.--,--.--,--.--,36.46,35.00,--.--,0,0,3.7,4.6,9.7,0,0,0,180.0,0.0,0.0
2025-01-29 09:53:26.378,1.1,-1.6,304,0.0,0.0,0.0,0.1,0.1,0.065,-0.0,1.1,527.4,0.810,0.820,0.105,4.2,00:01:05,4.4,0,--.--,149,--.--,11,0000:32:25,0,0,0,48.67,34.98,519,27,96,--.--,--:--:--,1,1702.37,09:53:26,29/01/2025,45.78,--.--,--.--,--.--,--.--,--.--,--.--,--.--,--.--,--.--,--.--,100.00,0,0.000,0.000,0.000,0.000,0.000,0.000,0.000,0.000,0.000,0.000,0.000,0.000,false,false,false,false,false,false,false,false,false,false,false,false,--.--,--.--,--.--,--.--,--.--,--.--,--.--,--.--,-16.6964120,-54.6719072,21KYB 48262 52579,0.5,0.1,174.2,3,28,--.--,--.--,,--.--,--.--,--.--,0,0,--.--,--.--,0,3.8,-2.7,-1.4,0.1,0.0,-0.0,--.--,--.--,--.--,--.--,--.--,--.--,--.--,--.--,--.--,--.--,--.--,--.--,36.50,34.98,--.--,0,0,2.5,2.1,8.7,0,0,0,180.0,0.0,0.0
2025-01-29 09:53:27.373,0.6,-1.4,323,0.0,0.0,0.0,0.1,0.1,0.107,-0.0,1.1,527.4,0.820,0.843,0.098,4.2,00:01:06,4.5,0,--.--,148,--.--,11,0000:32:25,0,0,0,48.67,34.98,529,27,96,--.--,--:--:--,1,1702.30,09:53:27,29/01/2025,45.77,--.--,--.--,--.--,--.--,--.--,--.--,--.--,--.--,--.--,--.--,100.00,0,0.000,0.000,0.000,0.000,0.000,0.000,0.000,0.000,0.000,0.000,0.000,0.000,false,false,false,false,false,false,false,false,false,false,false,false,--.--,--.--,--.--,--.--,--.--,--.--,--.--,--.--,-16.6964124,-54.6719073,21KYB 48262 52579,0.5,0.1,234.9,3,28,--.--,--.--,,--.--,--.--,--.--,0,0,--.--,--.--,0,3.8,-2.8,-1.4,0.1,0.0,0.0,--.--,--.--,--.--,--.--,--.--,--.--,--.--,--.--,--.--,--.--,--.--,--.--,36.55,35.06,--.--,0,0,2.5,3.3,7.0,0,0,0,180.0,0.0,0.0
2025-01-29 09:53:28.380,0.7,-2.0,343,0.0,0.0,0.0,0.0,0.0,0.047,0.0,1.1,527.4,0.800,0.800,0.143,4.2,00:01:07,4.5,0,--.--,148,--.--,11,0000:32:25,0,0,0,48.66,33.98,539,27,95,--.--,--:--:--,1,1653.36,09:53:28,29/01/2025,24.96,--.--,--.--,--.--,--.--,--.--,--.--,--.--,--.--,--.--,--.--,100.00,0,0.000,0.000,0.000,0.000,0.000,0.000,0.000,0.000,0.000,0.000,0.000,0.000,false,false,false,false,false,false,false,false,false,false,false,false,--.--,--.--,--.--,--.--,--.--,--.--,--.--,--.--,-16.6964128,-54.6719075,21KYB 48262 52579,0.5,0.1,219.8,3,28,--.--,--.--,,--.--,--.--,--.--,0,0,--.--,--.--,0,3.8,-2.8,-1.4,0.0,0.0,-0.0,--.--,--.--,--.--,--.--,--.--,--.--,--.--,--.--,--.--,--.--,--.--,--.--,36.54,35.03,--.--,0,0,1.9,2.2,7.1,0,0,0,180.0,0.0,0.0
2025-01-29 09:53:29.376,1.0,-1.7,3,0.0,0.0,0.0,0.2,0.2,0.171,0.0,1.1,527.4,0.800,0.799,0.189,4.2,00:01:08,4.5,0,--.--,147,--.--,11,0000:32:25,0,0,0,48.66,34.98,549,27,95,--.--,--:--:--,1,1701.95,09:53:29,29/01/2025,44.66,--.--,--.--,--.--,--.--,--.--,--.--,--.--,--.--,--.--,--.--,100.00,0,0.000,0.000,0.000,0.000,0.000,0.000,0.000,0.000,0.000,0.000,0.000,0.000,false,false,false,false,false,false,false,false,false,false,false,false,--.--,--.--,--.--,--.--,--.--,--.--,--.--,--.--,-16.6964135,-54.6719081,21KYB 48262 52579,0.5,0.1,259.2,3,28,--.--,--.--,,--.--,--.--,--.--,0,0,--.--,--.--,0,3.8,-2.9,-1.4,0.1,0.1,-0.0,--.--,--.--,--.--,--.--,--.--,--.--,--.--,--.--,--.--,--.--,--.--,--.--,36.56,35.05,--.--,0,0,1.4,3.8,5.2,0,0,0,180.0,0.0,0.0
2025-01-29 09:53:30.378,0.0,-1.4,23,0.0,0.0,0.0,0.1,0.1,0.145,-0.0,1.1,527.4,0.780,0.763,0.149,4.2,00:01:09,4.6,0,--.--,148,--.--,11,0000:32:25,0,0,0,48.65,33.98,559,27,95,--.--,--:--:--,1,1653.23,09:53:30,29/01/2025,47.24,--.--,--.--,--.--,--.--,--.--,--.--,--.--,--.--,--.--,--.--,100.00,0,0.000,0.000,0.000,0.000,0.000,0.000,0.000,0.000,0.000,0.000,0.000,0.000,false,false,false,false,false,false,false,false,false,false,false,false,--.--,--.--,--.--,--.--,--.--,--.--,--.--,--.--,-16.6964132,-54.6719084,21KYB 48262 52579,0.5,0.1,9.5,3,28,--.--,--.--,,--.--,--.--,--.--,0,0,--.--,--.--,0,3.9,-2.9,-1.4,0.1,0.1,-0.0,--.--,--.--,--.--,--.--,--.--,--.--,--.--,--.--,--.--,--.--,--.--,--.--,36.58,35.04,--.--,0,0,1.3,3.6,3.2,0,0,0,180.0,0.0,0.0
2025-01-29 09:53:31.377,-0.4,-1.4,43,0.0,0.0,0.0,0.1,0.1,0.135,-0.0,1.0,527.3,0.780,0.760,0.113,4.2,00:01:10,4.6,0,--.--,148,--.--,11,0000:32:25,0,0,0,48.66,33.98,568,27,95,--.--,--:--:--,1,1653.30,09:53:31,29/01/2025,36.54,--.--,--.--,--.--,--.--,--.--,--.--,--.--,--.--,--.--,--.--,100.00,0,0.000,0.000,0.000,0.000,0.000,0.000,0.000,0.000,0.000,0.000,0.000,0.000,false,false,false,false,false,false,false,false,false,false,false,false,--.--,--.--,--.--,--.--,--.--,--.--,--.--,--.--,-16.6964127,-54.6719087,21KYB 48262 52579,0.5,0.1,254.7,3,28,--.--,--.--,,--.--,--.--,--.--,0,0,--.--,--.--,0,3.9,-2.8,-1.4,-0.0,0.1,-0.0,--.--,--.--,--.--,--.--,--.--,--.--,--.--,--.--,--.--,--.--,--.--,--.--,36.62,35.06,--.--,0,0,1.8,4.0,4.4,0,0,0,180.0,0.0,0.0
2025-01-29 09:53:32.374,-1.7,-1.4,51,0.0,0.0,0.0,0.1,0.1,0.134,-0.0,1.0,527.3,0.780,0.763,0.079,4.2,00:01:11,4.6,0,--.--,149,--.--,11,0000:32:25,0,0,0,48.64,33.98,573,27,95,--.--,--:--:--,1,1652.96,09:53:32,29/01/2025,35.15,--.--,--.--,--.--,--.--,--.--,--.--,--.--,--.--,--.--,--.--,100.00,0,0.000,0.000,0.000,0.000,0.000,0.000,0.000,0.000,0.000,0.000,0.000,0.000,false,false,false,false,false,false,false,false,false,false,false,false,--.--,--.--,--.--,--.--,--.--,--.--,--.--,--.--,-16.6964127,-54.6719091,21KYB 48262 52579,0.5,0.1,177.5,3,28,--.--,--.--,,--.--,--.--,--.--,0,0,--.--,--.--,0,3.9,-2.8,-1.4,-0.1,0.1,-0.0,--.--,--.--,--.--,--.--,--.--,--.--,--.--,--.--,--.--,--.--,--.--,--.--,36.60,35.08,--.--,0,0,1.8,3.4,5.1,0,0,0,180.0,0.0,0.0
2025-01-29 09:53:33.376,-1.5,-1.9,50,0.0,0.0,0.0,0.0,0.0,0.039,-0.0,1.1,527.4,0.810,0.818,0.063,4.2,00:01:12,4.5,0,--.--,149,--.--,11,0000:32:25,0,0,0,48.64,33.98,583,27,95,--.--,--:--:--,1,1652.79,09:53:33,29/01/2025,42.80,--.--,--.--,--.--,--.--,--.--,--.--,--.--,--.--,--.--,--.--,100.00,0,0.000,0.000,0.000,0.000,0.000,0.000,0.000,0.000,0.000,0.000,0.000,0.000,false,false,false,false,false,false,false,false,false,false,false,false,--.--,--.--,--.--,--.--,--.--,--.--,--.--,--.--,-16.6964130,-54.6719094,21KYB 48262 52579,0.5,0.1,174.3,3,28,--.--,--.--,,--.--,--.--,--.--,0,0,--.--,--.--,0,3.9,-2.8,-1.4,-0.1,0.0,-0.0,--.--,--.--,--.--,--.--,--.--,--.--,--.--,--.--,--.--,--.--,--.--,--.--,36.56,35.11,--.--,0,0,1.5,3.8,4.9,0,0,0,180.0,0.0,0.0
2025-01-29 09:53:34.372,-1.7,-1.5,50,0.0,0.0,0.0,0.1,0.1,0.058,-0.0,1.1,527.4,0.850,0.903,0.053,4.2,00:01:13,4.5,0,--.--,149,--.--,11,0000:32:25,0,0,0,48.62,33.98,593,27,95,--.--,--:--:--,1,1652.11,09:53:34,29/01/2025,41.78,--.--,--.--,--.--,--.--,--.--,--.--,--.--,--.--,--.--,--.--,100.00,0,0.000,0.000,0.000,0.000,0.000,0.000,0.000,0.000,0.000,0.000,0.000,0.000,false,false,false,false,false,false,false,false,false,false,false,false,--.--,--.--,--.--,--.--,--.--,--.--,--.--,--.--,-16.6964130,-54.6719095,21KYB 48262 52579,0.5,0.1,155.0,3,28,--.--,--.--,,--.--,--.--,--.--,0,0,--.--,--.--,0,3.9,-2.8,-1.4,0.0,0.0,0.0,--.--,--.--,--.--,--.--,--.--,--.--,--.--,--.--,--.--,--.--,--.--,--.--,36.64,35.10,--.--,0,0,1.5,3.7,4.4,0,0,0,180.0,0.0,0.0
2025-01-29 09:53:35.387,-1.6,-1.4,50,0.0,0.0,0.0,0.1,0.1,0.085,-0.1,1.1,527.4,0.880,0.958,0.045,4.2,00:01:14,4.5,0,--.--,149,--.--,11,0000:32:25,0,0,0,48.60,34.98,603,27,95,--.--,--:--:--,1,1700.10,09:53:35,29/01/2025,41.89,--.--,--.--,--.--,--.--,--.--,--.--,--.--,--.--,--.--,--.--,100.00,0,0.000,0.000,0.000,0.000,0.000,0.000,0.000,0.000,0.000,0.000,0.000,0.000,false,false,false,false,false,false,false,false,false,false,false,false,--.--,--.--,--.--,--.--,--.--,--.--,--.--,--.--,-16.6964125,-54.6719087,21KYB 48262 52579,0.5,0.1,29.5,3,28,--.--,--.--,,--.--,--.--,--.--,0,0,--.--,--.--,0,3.9,-2.8,-1.5,0.0,0.0,0.0,--.--,--.--,--.--,--.--,--.--,--.--,--.--,--.--,--.--,--.--,--.--,--.--,36.62,35.08,--.--,0,0,1.3,3.4,5.9,0,0,0,180.0,0.0,0.0
2025-01-29 09:53:36.378,-1.4,-1.6,50,0.0,0.0,0.0,0.0,0.1,0.059,-0.0,1.1,527.4,0.860,0.922,0.069,4.2,00:01:15,4.6,0,--.--,149,--.--,11,0000:32:25,0,0,0,48.59,34.98,613,27,95,--.--,--:--:--,1,1699.75,09:53:36,29/01/2025,41.57,--.--,--.--,--.--,--.--,--.--,--.--,--.--,--.--,--.--,--.--,100.00,0,0.000,0.000,0.000,0.000,0.000,0.000,0.000,0.000,0.000,0.000,0.000,0.000,false,false,false,false,false,false,false,false,false,false,false,false,--.--,--.--,--.--,--.--,--.--,--.--,--.--,--.--,-16.6964119,-54.6719082,21KYB 48262 52579,0.5,0.1,31.3,3,28,--.--,--.--,,--.--,--.--,--.--,0,0,--.--,--.--,0,3.9,-2.8,-1.5,-0.0,0.0,0.0,--.--,--.--,--.--,--.--,--.--,--.--,--.--,--.--,--.--,--.--,--.--,--.--,36.59,35.11,--.--,0,0,0.9,4.6,5.7,0,0,0,180.0,0.0,0.0
