Timestamp,roll,pitch,heading,rollRate,pitchRate,yawRate,groundSpeed,airSpeed,airSpeedSetpoint,climbRate,altitudeRelative,altitudeAMSL,altitudeTuning,altitudeTuningSetpoint,xTrackError,flightDistance,flightTime,distanceToHome,missionItemIndex,headingToNextWP,headingToHome,distanceToGCS,throttlePct,hobbs,battery0.id,battery0.batteryFunction,battery0.batteryType,battery0.voltage,battery0.current,battery0.mahConsumed,battery0.temperature,battery0.percentRemaining,battery0.timeRemaining,battery0.timeRemainingStr,battery0.chargeState,battery0.instantPower,clock.currentTime,clock.currentDate,distanceSensor.rotationNone,distanceSensor.rotationYaw45,distanceSensor.rotationYaw90,distanceSensor.rotationYaw135,distanceSensor.rotationYaw180,distanceSensor.rotationYaw225,distanceSensor.rotationYaw270,distanceSensor.rotationYaw315,distanceSensor.rotationPitch90,distanceSensor.rotationPitch270,distanceSensor.minDistance,distanceSensor.maxDistance,escStatus.index,escStatus.rpm1,escStatus.rpm2,escStatus.rpm3,escStatus.rpm4,escStatus.current1,escStatus.current2,escStatus.current3,escStatus.current4,escStatus.voltage1,escStatus.voltage2,escStatus.voltage3,escStatus.voltage4,estimatorStatus.goodAttitudeEsimate,estimatorStatus.goodHorizVelEstimate,estimatorStatus.goodVertVelEstimate,estimatorStatus.goodHorizPosRelEstimate,estimatorStatus.goodHorizPosAbsEstimate,estimatorStatus.goodVertPosAbsEstimate,estimatorStatus.goodVertPosAGLEstimate,estimatorStatus.goodConstPosModeEstimate,estimatorStatus.goodPredHorizPosRelEstimate,estimatorStatus.goodPredHorizPosAbsEstimate,estimatorStatus.gpsGlitch,estimatorStatus.accelError,estimatorStatus.velRatio,estimatorStatus.horizPosRatio,estimatorStatus.vertPosRatio,estimatorStatus.magRatio,estimatorStatus.haglRatio,estimatorStatus.tasRatio,estimatorStatus.horizPosAccuracy,estimatorStatus.vertPosAccuracy,gps.lat,gps.lon,gps.mgrs,gps.hdop,gps.vdop,gps.courseOverGround,gps.lock,gps.count,gps2.lat,gps2.lon,gps2.mgrs,gps2.hdop,gps2.vdop,gps2.courseOverGround,gps2.lock,gps2.count,hygrometer.temperature,hygrometer.humidity,hygrometer.hygrometerid,localPosition.x,localPosition.y,localPosition.z,localPosition.vx,localPosition.vy,localPosition.vz,localPositionSetpoint.x,localPositionSetpoint.y,localPositionSetpoint.z,localPositionSetpoint.vx,localPositionSetpoint.vy,localPositionSetpoint.vz,setpoint.roll,setpoint.pitch,setpoint.yaw,setpoint.rollRate,setpoint.pitchRate,setpoint.yawRate,temperature.temperature1,temperature.temperature2,temperature.temperature3,terrain.blocksPending,terrain.blocksLoaded,vibration.xAxis,vibration.yAxis,vibration.zAxis,vibration.clipCount1,vibration.clipCount2,vibration.clipCount3,wind.direction,wind.speed,wind.verticalSpeed
2025-01-24 12:14:36.247,-1.5,-0.5,31,0.0,0.0,0.0,0.0,0.0,0.003,-0.0,0.0,581.1,-1.350,-1.360,0.000,0.0,00:00:00,0.0,0,--.--,--.--,14.2,0,0000:20:44,0,0,0,49.51,0.00,0,39,99,--.--,--:--:--,1,0.00,12:14:36,24/01/2025,7.81,--.--,--.--,--.--,--.--,--.--,--.--,--.--,--.--,--.--,--.--,100.00,0,0.000,0.000,0.000,0.000,0.000,0.000,0.000,0.000,0.000,0.000,0.000,0.000,false,false,false,false,false,false,false,false,false,false,false,false,--.--,--.--,--.--,--.--,--.--,--.--,--.--,--.--,-23.2556968,-47.2987407,23KKQ 64823 26310,0.6,0.1,90.0,3,27,--.--,--.--,,--.--,--.--,--.--,0,0,--.--,--.--,0,0.5,-0.2,0.4,0.0,0.0,0.0,--.--,--.--,--.--,--.--,--.--,--.--,--.--,--.--,--.--,--.--,--.--,--.--,45.31,48.54,--.--,0,0,0.0,0.0,0.0,0,0,0,180.0,0.0,0.0
2025-01-24 12:14:37.111,-1.5,-0.5,31,0.0,0.0,0.0,0.0,0.0,0.004,-0.0,0.0,581.1,-1.350,-1.350,0.000,0.0,00:00:00,0.0,0,--.--,--.--,14.2,0,0000:20:44,0,0,0,49.51,0.00,0,39,99,--.--,--:--:--,1,0.00,12:14:37,24/01/2025,7.81,--.--,--.--,--.--,--.--,--.--,--.--,--.--,--.--,--.--,--.--,100.00,0,0.000,0.000,0.000,0.000,0.000,0.000,0.000,0.000,0.000,0.000,0.000,0.000,false,false,false,false,false,false,false,false,false,false,false,false,--.--,--.--,--.--,--.--,--.--,--.--,--.--,--.--,-23.2556968,-47.2987406,23KKQ 64823 26310,0.6,0.1,135.0,3,27,--.--,--.--,,--.--,--.--,--.--,0,0,--.--,--.--,0,0.5,-0.2,0.4,-0.0,0.0,0.0,--.--,--.--,--.--,--.--,--.--,--.--,--.--,--.--,--.--,--.--,--.--,--.--,45.34,48.57,--.--,0,0,0.0,0.0,0.0,0,0,0,180.0,0.0,0.0
2025-01-24 12:14:38.113,-1.5,-0.5,31,0.0,0.0,0.0,0.0,0.0,0.004,-0.0,0.0,581.1,-1.350,-1.350,0.000,0.0,00:00:01,0.1,0,--.--,--.--,14.2,0,0000:20:44,0,0,0,49.51,0.00,0,39,99,--.--,--:--:--,1,0.00,12:14:38,24/01/2025,7.82,--.--,--.--,--.--,--.--,--.--,--.--,--.--,--.--,--.--,--.--,100.00,0,0.000,0.000,0.000,0.000,0.000,0.000,0.000,0.000,0.000,0.000,0.000,0.000,false,false,false,false,false,false,false,false,false,false,false,false,--.--,--.--,--.--,--.--,--.--,--.--,--.--,--.--,-23.2556968,-47.2987404,23KKQ 64823 26310,0.6,0.1,135.0,3,28,--.--,--.--,,--.--,--.--,--.--,0,0,--.--,--.--,0,0.5,-0.2,0.4,-0.0,0.0,0.0,--.--,--.--,--.--,--.--,--.--,--.--,--.--,--.--,--.--,--.--,--.--,--.--,45.38,48.59,--.--,0,0,0.0,0.0,0.0,0,0,0,180.0,0.0,0.0
2025-01-24 12:14:39.112,-1.5,-0.5,31,0.0,0.0,0.0,0.0,0.0,0.005,-0.0,0.0,581.1,-1.350,-1.350,0.000,0.0,00:00:02,0.1,0,--.--,--.--,14.2,0,0000:20:44,0,0,0,49.51,0.00,0,39,99,--.--,--:--:--,1,0.00,12:14:39,24/01/2025,7.84,--.--,--.--,--.--,--.--,--.--,--.--,--.--,--.--,--.--,--.--,100.00,0,0.000,0.000,0.000,0.000,0.000,0.000,0.000,0.000,0.000,0.000,0.000,0.000,false,false,false,false,false,false,false,false,false,false,false,false,--.--,--.--,--.--,--.--,--.--,--.--,--.--,--.--,-23.2556968,-47.2987402,23KKQ 64823 26310,0.6,0.1,161.6,3,28,--.--,--.--,,--.--,--.--,--.--,0,0,--.--,--.--,0,0.5,-0.2,0.4,-0.0,0.0,0.0,--.--,--.--,--.--,--.--,--.--,--.--,--.--,--.--,--.--,--.--,--.--,--.--,45.37,48.61,--.--,0,0,0.0,0.0,0.0,0,0,0,180.0,0.0,0.0
2025-01-24 12:14:40.113,-1.4,-0.5,31,0.0,0.0,0.0,0.0,0.0,0.006,-0.0,0.0,581.1,-1.340,-1.340,0.000,0.0,00:00:03,0.1,0,--.--,--.--,14.2,0,0000:20:44,0,0,0,49.51,0.00,0,39,99,--.--,--:--:--,1,0.00,12:14:40,24/01/2025,7.89,--.--,--.--,--.--,--.--,--.--,--.--,--.--,--.--,--.--,--.--,100.00,0,0.000,0.000,0.000,0.000,0.000,0.000,0.000,0.000,0.000,0.000,0.000,0.000,false,false,false,false,false,false,false,false,false,false,false,false,--.--,--.--,--.--,--.--,--.--,--.--,--.--,--.--,-23.2556968,-47.2987400,23KKQ 64823 26310,0.6,0.1,161.6,3,28,--.--,--.--,,--.--,--.--,--.--,0,0,--.--,--.--,0,0.5,-0.1,0.4,-0.0,-0.0,0.0,--.--,--.--,--.--,--.--,--.--,--.--,--.--,--.--,--.--,--.--,--.--,--.--,45.35,48.67,--.--,0,0,0.8,0.6,0.7,0,0,0,180.0,0.0,0.0
2025-01-24 12:14:41.112,-1.4,-0.5,30,0.0,0.0,0.0,0.0,0.1,0.020,-0.0,0.0,581.1,-1.340,-1.340,0.000,0.0,00:00:04,0.1,0,--.--,--.--,14.1,0,0000:20:44,0,0,0,49.45,2.99,0,39,99,--.--,--:--:--,1,147.87,12:14:41,24/01/2025,7.95,--.--,--.--,--.--,--.--,--.--,--.--,--.--,--.--,--.--,--.--,100.00,0,0.000,0.000,0.000,0.000,0.000,0.000,0.000,0.000,0.000,0.000,0.000,0.000,false,false,false,false,false,false,false,false,false,false,false,false,--.--,--.--,--.--,--.--,--.--,--.--,--.--,--.--,-23.2556968,-47.2987398,23KKQ 64823 26310,0.6,0.1,161.6,3,28,--.--,--.--,,--.--,--.--,--.--,0,0,--.--,--.--,0,0.5,-0.1,0.4,-0.0,0.0,0.0,--.--,--.--,--.--,--.--,--.--,--.--,--.--,--.--,--.--,--.--,--.--,--.--,45.37,48.66,--.--,0,0,1.4,1.0,0.7,0,0,0,180.0,0.0,0.0
2025-01-24 12:14:42.111,-1.4,-0.5,31,0.0,0.0,0.0,0.0,0.0,0.032,-0.0,0.0,581.1,-1.330,-1.340,0.000,0.0,00:00:05,0.1,0,--.--,--.--,14.1,0,0000:20:44,0,0,0,49.45,3.99,1,39,99,--.--,--:--:--,1,197.30,12:14:42,24/01/2025,8.16,--.--,--.--,--.--,--.--,--.--,--.--,--.--,--.--,--.--,--.--,100.00,0,0.000,0.000,0.000,0.000,0.000,0.000,0.000,0.000,0.000,0.000,0.000,0.000,false,false,false,false,false,false,false,false,false,false,false,false,--.--,--.--,--.--,--.--,--.--,--.--,--.--,--.--,-23.2556968,-47.2987395,23KKQ 64824 26310,0.6,0.1,161.6,3,28,--.--,--.--,,--.--,--.--,--.--,0,0,--.--,--.--,0,0.6,-0.1,0.4,-0.0,0.0,-0.0,--.--,--.--,--.--,--.--,--.--,--.--,--.--,--.--,--.--,--.--,--.--,--.--,45.34,48.66,--.--,0,0,1.6,1.3,0.8,0,0,0,180.0,0.0,0.0
2025-01-24 12:14:43.112,-1.4,-0.5,30,0.0,0.0,0.0,0.0,0.0,0.071,-0.0,0.0,581.1,-1.320,-1.320,0.000,0.0,00:00:06,0.1,0,--.--,--.--,14.1,0,0000:20:44,0,0,0,49.45,3.99,2,39,98,--.--,--:--:--,1,197.29,12:14:43,24/01/2025,8.14,--.--,--.--,--.--,--.--,--.--,--.--,--.--,--.--,--.--,--.--,100.00,0,0.000,0.000,0.000,0.000,0.000,0.000,0.000,0.000,0.000,0.000,0.000,0.000,false,false,false,false,false,false,false,false,false,false,false,false,--.--,--.--,--.--,--.--,--.--,--.--,--.--,--.--,-23.2556968,-47.2987393,23KKQ 64824 26310,0.6,0.1,206.6,3,28,--.--,--.--,,--.--,--.--,--.--,0,0,--.--,--.--,0,0.6,-0.1,0.4,-0.0,-0.0,0.0,--.--,--.--,--.--,--.--,--.--,--.--,--.--,--.--,--.--,--.--,--.--,--.--,45.37,48.68,--.--,0,0,1.7,1.1,0.9,0,0,0,180.0,0.0,0.0
2025-01-24 12:14:44.112,-1.5,-0.5,31,0.0,0.0,0.0,0.0,0.0,0.058,-0.0,0.1,581.2,-1.310,-1.320,0.000,0.0,00:00:07,0.2,0,--.--,--.--,14.1,0,0000:20:44,0,0,0,49.45,3.99,3,39,98,--.--,--:--:--,1,197.29,12:14:44,24/01/2025,7.44,--.--,--.--,--.--,--.--,--.--,--.--,--.--,--.--,--.--,--.--,100.00,0,0.000,0.000,0.000,0.000,0.000,0.000,0.000,0.000,0.000,0.000,0.000,0.000,false,false,false,false,false,false,false,false,false,false,false,false,--.--,--.--,--.--,--.--,--.--,--.--,--.--,--.--,-23.2556969,-47.2987390,23KKQ 64824 26310,0.6,0.1,180.0,3,28,--.--,--.--,,--.--,--.--,--.--,0,0,--.--,--.--,0,0.6,-0.1,0.3,0.0,0.1,0.0,--.--,--.--,--.--,--.--,--.--,--.--,--.--,--.--,--.--,--.--,--.--,--.--,45.35,48.68,--.--,0,0,1.6,1.1,0.9,0,0,0,180.0,0.0,0.0
2025-01-24 12:14:45.113,-1.5,-0.5,31,0.0,0.0,0.0,0.1,0.1,0.032,0.0,0.1,581.2,-1.300,-1.300,0.000,0.0,00:00:08,0.2,0,--.--,--.--,14.0,0,0000:20:44,0,0,0,49.44,4.98,4,39,98,--.--,--:--:--,1,246.20,12:14:45,24/01/2025,7.27,--.--,--.--,--.--,--.--,--.--,--.--,--.--,--.--,--.--,--.--,100.00,0,0.000,0.000,0.000,0.000,0.000,0.000,0.000,0.000,0.000,0.000,0.000,0.000,false,false,false,false,false,false,false,false,false,false,false,false,--.--,--.--,--.--,--.--,--.--,--.--,--.--,--.--,-23.2556969,-47.2987388,23KKQ 64824 26310,0.6,0.1,180.0,3,28,--.--,--.--,,--.--,--.--,--.--,0,0,--.--,--.--,0,0.6,-0.0,0.3,0.0,-0.0,0.0,--.--,--.--,--.--,--.--,--.--,--.--,--.--,--.--,--.--,--.--,--.--,--.--,45.36,48.70,--.--,0,0,2.1,1.2,0.8,0,0,0,180.0,0.0,0.0
2025-01-24 12:14:46.115,-1.4,-0.5,30,0.0,0.0,0.0,0.0,0.0,0.014,-0.0,0.1,581.2,-1.280,-1.290,0.000,0.0,00:00:09,0.2,0,--.--,--.--,14.0,0,0000:20:44,0,0,0,49.43,3.99,5,39,98,--.--,--:--:--,1,197.21,12:14:46,24/01/2025,7.80,--.--,--.--,--.--,--.--,--.--,--.--,--.--,--.--,--.--,--.--,100.00,0,0.000,0.000,0.000,0.000,0.000,0.000,0.000,0.000,0.000,0.000,0.000,0.000,false,false,false,false,false,false,false,false,false,false,false,false,--.--,--.--,--.--,--.--,--.--,--.--,--.--,--.--,-23.2556969,-47.2987386,23KKQ 64824 26310,0.6,0.1,251.6,3,28,--.--,--.--,,--.--,--.--,--.--,0,0,--.--,--.--,0,0.6,-0.0,0.3,-0.0,0.0,0.0,--.--,--.--,--.--,--.--,--.--,--.--,--.--,--.--,--.--,--.--,--.--,--.--,45.41,48.67,--.--,0,0,1.6,1.1,1.0,0,0,0,180.0,0.0,0.0
2025-01-24 12:14:47.113,-1.4,-0.5,31,0.0,0.0,0.0,0.0,0.0,0.064,-0.0,0.1,581.2,-1.260,-1.270,0.000,0.0,00:00:10,0.2,0,--.--,--.--,12.6,0,0000:20:44,0,0,0,49.43,2.99,6,39,98,--.--,--:--:--,1,147.79,12:14:47,24/01/2025,7.93,--.--,--.--,--.--,--.--,--.--,--.--,--.--,--.--,--.--,--.--,100.00,0,0.000,0.000,0.000,0.000,0.000,0.000,0.000,0.000,0.000,0.000,0.000,0.000,false,false,false,false,false,false,false,false,false,false,false,false,--.--,--.--,--.--,--.--,--.--,--.--,--.--,--.--,-23.2556970,-47.2987384,23KKQ 64824 26310,0.6,0.1,123.7,3,28,--.--,--.--,,--.--,--.--,--.--,0,0,--.--,--.--,0,0.6,0.0,0.3,-0.0,0.0,-0.0,--.--,--.--,--.--,--.--,--.--,--.--,--.--,--.--,--.--,--.--,--.--,--.--,45.42,48.71,--.--,0,0,1.8,1.2,1.0,0,0,0,180.0,0.0,0.0
2025-01-24 12:14:48.113,-1.3,-0.5,31,0.0,0.0,0.0,0.0,0.0,0.048,-0.0,0.1,581.2,-1.250,-1.250,0.000,0.0,00:00:11,0.2,0,--.--,--.--,10.6,0,0000:20:44,0,0,0,49.43,3.99,7,39,98,--.--,--:--:--,1,197.23,12:14:48,24/01/2025,8.10,--.--,--.--,--.--,--.--,--.--,--.--,--.--,--.--,--.--,--.--,100.00,0,0.000,0.000,0.000,0.000,0.000,0.000,0.000,0.000,0.000,0.000,0.000,0.000,false,false,false,false,false,false,false,false,false,false,false,false,--.--,--.--,--.--,--.--,--.--,--.--,--.--,--.--,-23.2556970,-47.2987382,23KKQ 64824 26310,0.6,0.1,180.0,3,28,--.--,--.--,,--.--,--.--,--.--,0,0,--.--,--.--,0,0.6,0.0,0.3,-0.0,-0.0,0.0,--.--,--.--,--.--,--.--,--.--,--.--,--.--,--.--,--.--,--.--,--.--,--.--,45.43,48.75,--.--,0,0,2.0,1.0,1.0,0,0,0,180.0,0.0,0.0
2025-01-24 12:14:49.112,-1.4,-0.5,31,0.0,0.0,0.0,0.0,0.0,0.038,-0.0,0.1,581.2,-1.240,-1.240,0.000,0.0,00:00:12,0.2,0,--.--,--.--,8.6,0,0000:20:44,0,0,0,49.42,2.99,9,39,98,--.--,--:--:--,1,147.76,12:14:49,24/01/2025,8.12,--.--,--.--,--.--,--.--,--.--,--.--,--.--,--.--,--.--,--.--,100.00,0,0.000,0.000,0.000,0.000,0.000,0.000,0.000,0.000,0.000,0.000,0.000,0.000,false,false,false,false,false,false,false,false,false,false,false,false,--.--,--.--,--.--,--.--,--.--,--.--,--.--,--.--,-23.2556972,-47.2987381,23KKQ 64824 26310,0.6,0.1,281.3,3,27,--.--,--.--,,--.--,--.--,--.--,0,0,--.--,--.--,0,0.6,0.0,0.3,-0.0,0.1,0.0,--.--,--.--,--.--,--.--,--.--,--.--,--.--,--.--,--.--,--.--,--.--,--.--,45.43,48.75,--.--,0,0,2.0,1.0,0.8,0,0,0,180.0,0.0,0.0
2025-01-24 12:14:50.113,0.1,0.4,30,0.0,0.0,0.0,0.0,0.1,0.037,0.0,0.1,581.3,-1.210,-1.238,0.002,0.0,00:00:13,0.3,0,--.--,--.--,7.0,10,0000:20:44,0,0,0,49.33,19.99,10,39,98,--.--,--:--:--,1,986.13,12:14:50,24/01/2025,7.64,--.--,--.--,--.--,--.--,--.--,--.--,--.--,--.--,--.--,--.--,100.00,0,0.000,0.000,0.000,0.000,0.000,0.000,0.000,0.000,0.000,0.000,0.000,0.000,false,false,false,false,false,false,false,false,false,false,false,false,--.--,--.--,--.--,--.--,--.--,--.--,--.--,--.--,-23.2556973,-47.2987381,23KKQ 64824 26310,0.6,0.1,161.6,3,27,--.--,--.--,,--.--,--.--,--.--,0,0,--.--,--.--,0,0.5,0.0,0.2,-0.0,-0.0,-0.0,--.--,--.--,--.--,--.--,--.--,--.--,--.--,--.--,--.--,--.--,--.--,--.--,45.44,48.78,--.--,0,0,1.1,1.6,4.5,0,0,0,180.0,0.0,0.0
2025-01-24 12:14:51.113,-0.6,-1.1,30,0.0,0.0,0.0,0.0,0.0,0.061,0.0,0.2,581.3,-1.200,-1.212,0.052,0.0,00:00:14,0.3,0,--.--,--.--,6.0,11,0000:20:44,0,0,0,49.06,35.98,17,39,98,--.--,--:--:--,1,1765.00,12:14:51,24/01/2025,8.67,--.--,--.--,--.--,--.--,--.--,--.--,--.--,--.--,--.--,--.--,100.00,0,0.000,0.000,0.000,0.000,0.000,0.000,0.000,0.000,0.000,0.000,0.000,0.000,false,false,false,false,false,false,false,false,false,false,false,false,--.--,--.--,--.--,--.--,--.--,--.--,--.--,--.--,-23.2556976,-47.2987380,23KKQ 64824 26310,0.6,0.1,201.0,3,28,--.--,--.--,,--.--,--.--,--.--,0,0,--.--,--.--,0,0.5,0.0,0.2,-0.0,-0.0,0.0,--.--,--.--,--.--,--.--,--.--,--.--,--.--,--.--,--.--,--.--,--.--,--.--,45.42,48.77,--.--,0,0,0.9,2.1,4.4,0,0,0,180.0,0.0,0.0
2025-01-24 12:14:52.127,-0.8,-0.8,31,0.0,0.0,0.0,0.0,0.0,0.015,-0.0,0.2,581.3,-1.190,-1.190,0.064,0.0,00:00:15,0.3,0,--.--,--.--,4.6,11,0000:20:44,0,0,0,49.05,34.98,28,39,98,--.--,--:--:--,1,1715.63,12:14:52,24/01/2025,7.57,--.--,--.--,--.--,--.--,--.--,--.--,--.--,--.--,--.--,--.--,100.00,0,0.000,0.000,0.000,0.000,0.000,0.000,0.000,0.000,0.000,0.000,0.000,0.000,false,false,false,false,false,false,false,false,false,false,false,false,--.--,--.--,--.--,--.--,--.--,--.--,--.--,--.--,-23.2556978,-47.2987381,23KKQ 64824 26310,0.6,0.1,223.9,3,28,--.--,--.--,,--.--,--.--,--.--,0,0,--.--,--.--,0,0.5,0.0,0.2,0.0,0.0,0.0,--.--,--.--,--.--,--.--,--.--,--.--,--.--,--.--,--.--,--.--,--.--,--.--,45.41,48.82,--.--,0,0,1.3,1.7,4.7,0,0,0,180.0,0.0,0.0
2025-01-24 12:14:53.113,-0.7,-1.5,31,0.0,0.0,0.0,0.1,0.1,0.041,-0.0,0.2,581.3,-1.170,-1.174,0.085,0.0,00:00:16,0.2,0,--.--,--.--,4.0,11,0000:20:44,0,0,0,49.01,34.98,38,39,98,--.--,--:--:--,1,1714.47,12:14:53,24/01/2025,6.72,--.--,--.--,--.--,--.--,--.--,--.--,--.--,--.--,--.--,--.--,100.00,0,0.000,0.000,0.000,0.000,0.000,0.000,0.000,0.000,0.000,0.000,0.000,0.000,false,false,false,false,false,false,false,false,false,false,false,false,--.--,--.--,--.--,--.--,--.--,--.--,--.--,--.--,-23.2556980,-47.2987381,23KKQ 64824 26310,0.6,0.1,257.9,3,28,--.--,--.--,,--.--,--.--,--.--,0,0,--.--,--.--,0,0.5,0.0,0.2,0.0,-0.0,-0.0,--.--,--.--,--.--,--.--,--.--,--.--,--.--,--.--,--.--,--.--,--.--,--.--,45.39,48.78,--.--,0,0,1.3,1.5,4.7,0,0,0,180.0,0.0,0.0
2025-01-24 12:14:54.112,-0.8,-1.0,31,0.0,0.0,0.0,0.0,0.0,0.076,-0.0,0.2,581.3,-1.170,-1.145,0.048,0.0,00:00:17,0.2,0,--.--,--.--,3.8,11,0000:20:44,0,0,0,48.98,33.98,47,39,98,--.--,--:--:--,1,1664.27,12:14:54,24/01/2025,6.74,--.--,--.--,--.--,--.--,--.--,--.--,--.--,--.--,--.--,--.--,100.00,0,0.000,0.000,0.000,0.000,0.000,0.000,0.000,0.000,0.000,0.000,0.000,0.000,false,false,false,false,false,false,false,false,false,false,false,false,--.--,--.--,--.--,--.--,--.--,--.--,--.--,--.--,-23.2556980,-47.2987382,23KKQ 64824 26310,0.6,0.1,331.1,3,28,--.--,--.--,,--.--,--.--,--.--,0,0,--.--,--.--,0,0.5,0.0,0.2,0.0,0.0,0.0,--.--,--.--,--.--,--.--,--.--,--.--,--.--,--.--,--.--,--.--,--.--,--.--,45.45,48.79,--.--,0,0,1.2,2.1,5.7,0,0,0,180.0,0.0,0.0
2025-01-24 12:14:55.112,-1.1,-1.1,31,0.0,0.0,0.0,0.0,0.0,0.035,0.0,0.2,581.3,-1.160,-1.133,0.025,0.0,00:00:18,0.3,0,--.--,--.--,3.8,11,0000:20:44,0,0,0,48.97,33.98,52,39,98,--.--,--:--:--,1,1663.86,12:14:55,24/01/2025,6.57,--.--,--.--,--.--,--.--,--.--,--.--,--.--,--.--,--.--,--.--,100.00,0,0.000,0.000,0.000,0.000,0.000,0.000,0.000,0.000,0.000,0.000,0.000,0.000,false,false,false,false,false,false,false,false,false,false,false,false,--.--,--.--,--.--,--.--,--.--,--.--,--.--,--.--,-23.2556979,-47.2987382,23KKQ 64824 26310,0.6,0.1,357.5,3,28,--.--,--.--,,--.--,--.--,--.--,0,0,--.--,--.--,0,0.5,0.0,0.2,-0.0,0.0,-0.0,--.--,--.--,--.--,--.--,--.--,--.--,--.--,--.--,--.--,--.--,--.--,--.--,45.44,48.82,--.--,0,0,1.3,1.3,3.4,0,0,0,180.0,0.0,0.0
2025-01-24 12:14:56.112,-1.0,-0.5,31,0.0,0.0,0.0,0.0,0.1,0.109,0.1,0.3,581.4,-1.080,-1.118,0.016,0.0,00:00:19,0.3,0,--.--,--.--,3.8,11,0000:20:44,0,0,0,48.95,34.98,62,39,98,--.--,--:--:--,1,1712.38,12:14:56,24/01/2025,7.65,--.--,--.--,--.--,--.--,--.--,--.--,--.--,--.--,--.--,--.--,100.00,0,0.000,0.000,0.000,0.000,0.000,0.000,0.000,0.000,0.000,0.000,0.000,0.000,false,false,false,false,false,false,false,false,false,false,false,false,--.--,--.--,--.--,--.--,--.--,--.--,--.--,--.--,-23.2556979,-47.2987382,23KKQ 64824 26310,0.6,0.1,38.6,3,28,--.--,--.--,,--.--,--.--,--.--,0,0,--.--,--.--,0,0.6,0.1,0.1,0.0,-0.0,-0.1,--.--,--.--,--.--,--.--,--.--,--.--,--.--,--.--,--.--,--.--,--.--,--.--,45.47,48.82,--.--,0,0,0.9,2.0,4.0,0,0,0,180.0,0.0,0.0
2025-01-24 12:14:57.114,-1.0,-0.3,31,0.0,0.0,0.0,0.1,0.1,0.142,0.1,0.4,581.5,-0.970,-1.027,0.028,0.0,00:00:20,0.3,0,--.--,--.--,3.7,12,0000:20:44,0,0,0,48.89,34.98,72,39,98,--.--,--:--:--,1,1710.31,12:14:57,24/01/2025,14.08,--.--,--.--,--.--,--.--,--.--,--.--,--.--,--.--,--.--,--.--,100.00,0,0.000,0.000,0.000,0.000,0.000,0.000,0.000,0.000,0.000,0.000,0.000,0.000,false,false,false,false,false,false,false,false,false,false,false,false,--.--,--.--,--.--,--.--,--.--,--.--,--.--,--.--,-23.2556978,-47.2987382,23KKQ 64824 26310,0.6,0.1,356.1,3,28,--.--,--.--,,--.--,--.--,--.--,0,0,--.--,--.--,0,0.6,0.0,0.0,0.0,-0.0,-0.1,--.--,--.--,--.--,--.--,--.--,--.--,--.--,--.--,--.--,--.--,--.--,--.--,45.47,48.87,--.--,0,0,1.4,1.9,3.9,0,0,0,180.0,0.0,0.0
2025-01-24 12:14:58.113,-0.8,-1.7,31,0.0,0.0,0.0,0.0,0.2,0.218,0.2,0.6,581.7,-0.770,-0.891,0.021,0.0,00:00:21,0.2,0,--.--,--.--,3.7,12,0000:20:44,0,0,0,48.86,35.98,82,39,98,--.--,--:--:--,1,1758.13,12:14:58,24/01/2025,13.50,--.--,--.--,--.--,--.--,--.--,--.--,--.--,--.--,--.--,--.--,100.00,0,0.000,0.000,0.000,0.000,0.000,0.000,0.000,0.000,0.000,0.000,0.000,0.000,false,false,false,false,false,false,false,false,false,false,false,false,--.--,--.--,--.--,--.--,--.--,--.--,--.--,--.--,-23.2556978,-47.2987385,23KKQ 64824 26310,0.6,0.1,241.2,3,27,--.--,--.--,,--.--,--.--,--.--,0,0,--.--,--.--,0,0.5,0.0,-0.2,-0.0,0.0,-0.2,--.--,--.--,--.--,--.--,--.--,--.--,--.--,--.--,--.--,--.--,--.--,--.--,45.51,48.86,--.--,0,0,1.5,1.8,4.7,0,0,0,180.0,0.0,0.0
2025-01-24 12:14:59.112,-0.4,-1.1,31,0.0,0.0,0.0,0.0,0.2,0.187,0.2,0.7,581.9,-0.600,-0.717,0.033,0.0,00:00:22,0.2,0,--.--,--.--,3.6,12,0000:20:44,0,0,0,48.84,36.98,92,38,98,--.--,--:--:--,1,1805.92,12:14:59,24/01/2025,7.69,--.--,--.--,--.--,--.--,--.--,--.--,--.--,--.--,--.--,--.--,100.00,0,0.000,0.000,0.000,0.000,0.000,0.000,0.000,0.000,0.000,0.000,0.000,0.000,false,false,false,false,false,false,false,false,false,false,false,false,--.--,--.--,--.--,--.--,--.--,--.--,--.--,--.--,-23.2556979,-47.2987390,23KKQ 64824 26310,0.6,0.1,1.8,3,27,--.--,--.--,,--.--,--.--,--.--,0,0,--.--,--.--,0,0.6,-0.0,-0.3,0.0,0.0,-0.2,--.--,--.--,--.--,--.--,--.--,--.--,--.--,--.--,--.--,--.--,--.--,--.--,45.51,48.88,--.--,0,0,1.3,2.6,4.9,0,0,0,180.0,0.0,0.0
2025-01-24 12:15:00.111,0.0,-0.4,31,0.0,0.0,0.0,0.1,0.3,0.270,0.2,1.0,582.1,-0.360,-0.488,0.027,0.0,00:00:23,0.2,0,--.--,--.--,3.7,13,0000:20:44,0,0,0,48.79,38.98,103,38,98,--.--,--:--:--,1,1901.83,12:15:00,24/01/2025,7.11,--.--,--.--,--.--,--.--,--.--,--.--,--.--,--.--,--.--,--.--,100.00,0,0.000,0.000,0.000,0.000,0.000,0.000,0.000,0.000,0.000,0.000,0.000,0.000,false,false,false,false,false,false,false,false,false,false,false,false,--.--,--.--,--.--,--.--,--.--,--.--,--.--,--.--,-23.2556975,-47.2987392,23KKQ 64824 26310,0.6,0.1,48.2,3,28,--.--,--.--,,--.--,--.--,--.--,0,0,--.--,--.--,0,0.6,0.0,-0.6,0.0,0.1,-0.3,--.--,--.--,--.--,--.--,--.--,--.--,--.--,--.--,--.--,--.--,--.--,--.--,45.53,48.84,--.--,0,0,1.3,2.1,5.0,0,0,0,180.0,0.0,0.0
2025-01-24 12:15:01.114,-1.8,-0.4,32,0.0,0.0,0.0,0.1,0.3,0.240,0.3,1.2,582.3,-0.120,-0.265,0.063,0.0,00:00:24,0.3,0,--.--,--.--,3.8,14,0000:20:44,0,0,0,48.76,40.99,114,38,97,--.--,--:--:--,1,1998.67,12:15:01,24/01/2025,6.98,--.--,--.--,--.--,--.--,--.--,--.--,--.--,--.--,--.--,--.--,100.00,0,0.000,0.000,0.000,0.000,0.000,0.000,0.000,0.000,0.000,0.000,0.000,0.000,false,false,false,false,false,false,false,false,false,false,false,false,--.--,--.--,--.--,--.--,--.--,--.--,--.--,--.--,-23.2556973,-47.2987386,23KKQ 64824 26310,0.6,0.1,116.3,3,28,--.--,--.--,,--.--,--.--,--.--,0,0,--.--,--.--,0,0.5,0.1,-0.8,-0.0,-0.1,-0.2,--.--,--.--,--.--,--.--,--.--,--.--,--.--,--.--,--.--,--.--,--.--,--.--,45.50,48.91,--.--,0,0,1.0,1.6,4.8,0,0,0,180.0,0.0,0.0
2025-01-24 12:15:02.112,1.3,-1.3,31,0.0,0.0,0.0,0.1,0.1,0.227,0.1,1.4,582.5,0.060,-0.000,0.041,0.0,00:00:25,0.2,0,--.--,--.--,3.9,13,0000:20:44,0,0,0,48.72,42.99,127,38,97,--.--,--:--:--,1,2094.47,12:15:02,24/01/2025,7.07,--.--,--.--,--.--,--.--,--.--,--.--,--.--,--.--,--.--,--.--,100.00,0,0.000,0.000,0.000,0.000,0.000,0.000,0.000,0.000,0.000,0.000,0.000,0.000,false,false,false,false,false,false,false,false,false,false,false,false,--.--,--.--,--.--,--.--,--.--,--.--,--.--,--.--,-23.2556975,-47.2987386,23KKQ 64824 26310,0.6,0.1,290.3,3,28,--.--,--.--,,--.--,--.--,--.--,0,0,--.--,--.--,0,0.6,-0.0,-1.0,0.1,-0.0,-0.0,--.--,--.--,--.--,--.--,--.--,--.--,--.--,--.--,--.--,--.--,--.--,--.--,45.49,48.93,--.--,0,0,1.2,2.4,4.1,0,0,0,180.0,0.0,0.0
2025-01-24 12:15:03.112,-0.2,0.0,31,0.0,0.0,0.0,0.1,0.2,0.174,0.1,1.6,582.7,0.220,0.135,0.064,0.0,00:00:26,0.3,0,--.--,--.--,3.8,13,0000:20:44,0,0,0,48.69,41.99,139,38,97,--.--,--:--:--,1,2044.37,12:15:03,24/01/2025,7.02,--.--,--.--,--.--,--.--,--.--,--.--,--.--,--.--,--.--,--.--,100.00,0,0.000,0.000,0.000,0.000,0.000,0.000,0.000,0.000,0.000,0.000,0.000,0.000,false,false,false,false,false,false,false,false,false,false,false,false,--.--,--.--,--.--,--.--,--.--,--.--,--.--,--.--,-23.2556973,-47.2987389,23KKQ 64824 26310,0.6,0.1,82.2,3,27,--.--,--.--,,--.--,--.--,--.--,0,0,--.--,--.--,0,0.6,0.0,-1.2,-0.1,-0.0,-0.2,--.--,--.--,--.--,--.--,--.--,--.--,--.--,--.--,--.--,--.--,--.--,--.--,45.53,48.91,--.--,0,0,1.2,2.8,4.2,0,0,0,180.0,0.0,0.0
2025-01-24 12:15:04.112,-0.8,-0.9,30,0.0,0.0,0.0,0.0,0.1,0.156,0.1,1.7,582.8,0.370,0.356,0.033,0.0,00:00:27,0.2,0,--.--,--.--,3.8,13,0000:20:44,0,0,0,48.68,40.99,151,38,97,--.--,--:--:--,1,1995.52,12:15:04,24/01/2025,6.79,--.--,--.--,--.--,--.--,--.--,--.--,--.--,--.--,--.--,--.--,100.00,0,0.000,0.000,0.000,0.000,0.000,0.000,0.000,0.000,0.000,0.000,0.000,0.000,false,false,false,false,false,false,false,false,false,false,false,false,--.--,--.--,--.--,--.--,--.--,--.--,--.--,--.--,-23.2556976,-47.2987393,23KKQ 64824 26310,0.6,0.1,228.6,3,27,--.--,--.--,,--.--,--.--,--.--,0,0,--.--,--.--,0,0.5,0.0,-1.3,0.0,-0.0,-0.1,--.--,--.--,--.--,--.--,--.--,--.--,--.--,--.--,--.--,--.--,--.--,--.--,45.57,48.91,--.--,0,0,1.4,2.2,5.9,0,0,0,180.0,0.0,0.0
2025-01-24 12:15:05.114,0.0,-0.6,31,0.0,0.0,0.0,0.0,0.1,0.091,0.1,1.8,582.9,0.470,0.447,0.031,0.0,00:00:28,0.2,0,--.--,--.--,3.8,13,0000:20:44,0,0,0,48.67,39.98,162,38,97,--.--,--:--:--,1,1945.91,12:15:05,24/01/2025,22.49,--.--,--.--,--.--,--.--,--.--,--.--,--.--,--.--,--.--,--.--,100.00,0,0.000,0.000,0.000,0.000,0.000,0.000,0.000,0.000,0.000,0.000,0.000,0.000,false,false,false,false,false,false,false,false,false,false,false,false,--.--,--.--,--.--,--.--,--.--,--.--,--.--,--.--,-23.2556977,-47.2987396,23KKQ 64824 26310,0.6,0.1,336.0,3,27,--.--,--.--,,--.--,--.--,--.--,0,0,--.--,--.--,0,0.6,0.0,-1.4,0.0,0.0,-0.1,--.--,--.--,--.--,--.--,--.--,--.--,--.--,--.--,--.--,--.--,--.--,--.--,45.51,48.95,--.--,0,0,1.6,2.3,4.9,0,0,0,180.0,0.0,0.0
2025-01-24 12:15:06.116,-0.7,-0.8,31,0.0,0.0,0.0,0.0,0.1,0.098,0.1,2.0,583.1,0.600,0.586,0.007,0.0,00:00:29,0.2,0,--.--,--.--,4.0,13,0000:20:44,0,0,0,48.64,40.99,174,38,97,--.--,--:--:--,1,1993.84,12:15:06,24/01/2025,22.92,--.--,--.--,--.--,--.--,--.--,--.--,--.--,--.--,--.--,--.--,100.00,0,0.000,0.000,0.000,0.000,0.000,0.000,0.000,0.000,0.000,0.000,0.000,0.000,false,false,false,false,false,false,false,false,false,false,false,false,--.--,--.--,--.--,--.--,--.--,--.--,--.--,--.--,-23.2556974,-47.2987399,23KKQ 64823 26310,0.6,0.1,141.3,3,28,--.--,--.--,,--.--,--.--,--.--,0,0,--.--,--.--,0,0.5,0.0,-1.6,-0.0,-0.0,-0.1,--.--,--.--,--.--,--.--,--.--,--.--,--.--,--.--,--.--,--.--,--.--,--.--,45.59,48.91,--.--,0,0,1.2,4.1,5.6,0,0,0,180.0,0.0,0.0
2025-01-24 12:15:07.113,1.2,-0.3,31,0.0,0.0,0.0,0.1,0.2,0.159,0.1,2.1,583.2,0.710,0.696,0.045,0.0,00:00:30,0.2,0,--.--,--.--,4.2,13,0000:20:44,0,0,0,48.63,41.99,186,38,97,--.--,--:--:--,1,2041.89,12:15:07,24/01/2025,22.67,--.--,--.--,--.--,--.--,--.--,--.--,--.--,--.--,--.--,--.--,100.00,0,0.000,0.000,0.000,0.000,0.000,0.000,0.000,0.000,0.000,0.000,0.000,0.000,false,false,false,false,false,false,false,false,false,false,false,false,--.--,--.--,--.--,--.--,--.--,--.--,--.--,--.--,-23.2556973,-47.2987403,23KKQ 64823 26310,0.6,0.1,313.0,3,28,--.--,--.--,,--.--,--.--,--.--,0,0,--.--,--.--,0,0.6,-0.0,-1.7,0.1,-0.0,-0.1,--.--,--.--,--.--,--.--,--.--,--.--,--.--,--.--,--.--,--.--,--.--,--.--,45.60,48.94,--.--,0,0,1.4,3.6,3.9,0,0,0,180.0,0.0,0.0
2025-01-24 12:15:08.117,-0.4,0.7,31,0.0,0.0,0.0,0.1,0.1,0.135,0.1,2.2,583.3,0.850,0.820,0.055,0.0,00:00:31,0.3,0,--.--,--.--,4.2,13,0000:20:44,0,0,0,48.60,42.99,198,38,97,--.--,--:--:--,1,2089.31,12:15:08,24/01/2025,27.25,--.--,--.--,--.--,--.--,--.--,--.--,--.--,--.--,--.--,--.--,100.00,0,0.000,0.000,0.000,0.000,0.000,0.000,0.000,0.000,0.000,0.000,0.000,0.000,false,false,false,false,false,false,false,false,false,false,false,false,--.--,--.--,--.--,--.--,--.--,--.--,--.--,--.--,-23.2556968,-47.2987405,23KKQ 64823 26310,0.6,0.1,70.9,3,28,--.--,--.--,,--.--,--.--,--.--,0,0,--.--,--.--,0,0.6,0.0,-1.8,-0.0,0.1,-0.1,--.--,--.--,--.--,--.--,--.--,--.--,--.--,--.--,--.--,--.--,--.--,--.--,45.58,48.95,--.--,0,0,1.8,5.6,5.7,0,0,0,180.0,0.0,0.0
2025-01-24 12:15:09.112,0.6,-0.2,31,0.0,0.0,0.0,0.0,0.0,0.043,0.0,2.3,583.4,0.920,0.957,0.016,0.0,00:00:32,0.2,0,--.--,--.--,4.2,14,0000:20:44,0,0,0,48.62,41.99,210,38,97,--.--,--:--:--,1,2041.60,12:15:09,24/01/2025,28.21,--.--,--.--,--.--,--.--,--.--,--.--,--.--,--.--,--.--,--.--,100.00,0,0.000,0.000,0.000,0.000,0.000,0.000,0.000,0.000,0.000,0.000,0.000,0.000,false,false,false,false,false,false,false,false,false,false,false,false,--.--,--.--,--.--,--.--,--.--,--.--,--.--,--.--,-23.2556969,-47.2987399,23KKQ 64823 26310,0.6,0.1,155.8,3,28,--.--,--.--,,--.--,--.--,--.--,0,0,--.--,--.--,0,0.6,0.0,-1.9,-0.0,-0.0,-0.0,--.--,--.--,--.--,--.--,--.--,--.--,--.--,--.--,--.--,--.--,--.--,--.--,45.63,48.99,--.--,0,0,1.9,3.0,3.9,0,0,0,180.0,0.0,0.0
2025-01-24 12:15:10.114,0.5,-0.5,31,0.0,0.0,0.0,0.0,0.1,0.041,0.0,2.3,583.5,0.980,0.994,0.027,0.0,00:00:33,0.2,0,--.--,--.--,4.0,14,0000:20:44,0,0,0,48.57,42.99,222,38,97,--.--,--:--:--,1,2088.15,12:15:10,24/01/2025,28.07,--.--,--.--,--.--,--.--,--.--,--.--,--.--,--.--,--.--,--.--,100.00,0,0.000,0.000,0.000,0.000,0.000,0.000,0.000,0.000,0.000,0.000,0.000,0.000,false,false,false,false,false,false,false,false,false,false,false,false,--.--,--.--,--.--,--.--,--.--,--.--,--.--,--.--,-23.2556972,-47.2987398,23KKQ 64823 26310,0.6,0.1,229.6,3,28,--.--,--.--,,--.--,--.--,--.--,0,0,--.--,--.--,0,0.5,-0.0,-1.9,0.0,-0.0,-0.1,--.--,--.--,--.--,--.--,--.--,--.--,--.--,--.--,--.--,--.--,--.--,--.--,45.61,48.93,--.--,0,0,1.6,5.2,4.7,0,0,0,180.0,0.0,0.0
2025-01-24 12:15:11.113,0.8,-0.3,31,0.0,0.0,0.0,0.0,0.1,0.071,0.1,2.4,583.5,1.060,1.079,0.041,0.0,00:00:34,0.2,0,--.--,--.--,3.9,13,0000:20:44,0,0,0,48.54,43.99,228,38,97,--.--,--:--:--,1,2135.23,12:15:11,24/01/2025,27.46,--.--,--.--,--.--,--.--,--.--,--.--,--.--,--.--,--.--,--.--,100.00,0,0.000,0.000,0.000,0.000,0.000,0.000,0.000,0.000,0.000,0.000,0.000,0.000,false,false,false,false,false,false,false,false,false,false,false,false,--.--,--.--,--.--,--.--,--.--,--.--,--.--,--.--,-23.2556973,-47.2987400,23KKQ 64823 26310,0.6,0.1,293.2,3,28,--.--,--.--,,--.--,--.--,--.--,0,0,--.--,--.--,0,0.5,-0.0,-2.0,0.0,0.0,-0.1,--.--,--.--,--.--,--.--,--.--,--.--,--.--,--.--,--.--,--.--,--.--,--.--,45.61,49.02,--.--,0,0,1.2,3.9,3.4,0,0,0,180.0,0.0,0.0
2025-01-24 12:15:12.112,0.7,-0.4,31,0.0,0.0,0.0,0.0,0.1,0.123,0.1,2.5,583.6,1.180,1.161,0.042,0.0,00:00:35,0.2,0,--.--,--.--,3.7,14,0000:20:44,0,0,0,48.53,43.99,241,38,96,--.--,--:--:--,1,2134.61,12:15:12,24/01/2025,27.91,--.--,--.--,--.--,--.--,--.--,--.--,--.--,--.--,--.--,--.--,100.00,0,0.000,0.000,0.000,0.000,0.000,0.000,0.000,0.000,0.000,0.000,0.000,0.000,false,false,false,false,false,false,false,false,false,false,false,false,--.--,--.--,--.--,--.--,--.--,--.--,--.--,--.--,-23.2556974,-47.2987400,23KKQ 64823 26310,0.6,0.1,120.7,3,28,--.--,--.--,,--.--,--.--,--.--,0,0,--.--,--.--,0,0.5,-0.0,-2.1,0.0,-0.0,-0.1,--.--,--.--,--.--,--.--,--.--,--.--,--.--,--.--,--.--,--.--,--.--,--.--,45.60,48.99,--.--,0,0,1.2,3.3,4.0,0,0,0,180.0,0.0,0.0
2025-01-24 12:15:13.113,1.5,-0.6,31,0.0,0.0,0.0,0.1,0.2,0.241,0.2,2.7,583.8,1.390,1.335,0.053,0.0,00:00:36,0.2,0,--.--,--.--,3.7,13,0000:20:44,0,0,0,48.51,44.99,254,38,96,--.--,--:--:--,1,2182.51,12:15:13,24/01/2025,28.05,--.--,--.--,--.--,--.--,--.--,--.--,--.--,--.--,--.--,--.--,100.00,0,0.000,0.000,0.000,0.000,0.000,0.000,0.000,0.000,0.000,0.000,0.000,0.000,false,false,false,false,false,false,false,false,false,false,false,false,--.--,--.--,--.--,--.--,--.--,--.--,--.--,--.--,-23.2556975,-47.2987399,23KKQ 64823 26310,0.6,0.1,63.4,3,28,--.--,--.--,,--.--,--.--,--.--,0,0,--.--,--.--,0,0.6,-0.0,-2.3,0.1,-0.1,-0.2,--.--,--.--,--.--,--.--,--.--,--.--,--.--,--.--,--.--,--.--,--.--,--.--,45.60,49.03,--.--,0,0,1.8,1.8,5.5,0,0,0,180.0,0.0,0.0
2025-01-24 12:15:14.112,2.3,-0.2,30,0.0,0.0,0.0,0.1,0.2,0.177,0.1,2.9,584.0,1.560,1.526,0.096,0.0,00:00:37,0.2,0,--.--,--.--,3.6,14,0000:20:44,0,0,0,48.51,42.99,267,39,96,--.--,--:--:--,1,2085.49,12:15:14,24/01/2025,27.75,--.--,--.--,--.--,--.--,--.--,--.--,--.--,--.--,--.--,--.--,100.00,0,0.000,0.000,0.000,0.000,0.000,0.000,0.000,0.000,0.000,0.000,0.000,0.000,false,false,false,false,false,false,false,false,false,false,false,false,--.--,--.--,--.--,--.--,--.--,--.--,--.--,--.--,-23.2556972,-47.2987401,23KKQ 64823 26310,0.6,0.1,328.0,3,28,--.--,--.--,,--.--,--.--,--.--,0,0,--.--,--.--,0,0.6,-0.0,-2.5,-0.0,0.1,-0.1,--.--,--.--,--.--,--.--,--.--,--.--,--.--,--.--,--.--,--.--,--.--,--.--,45.63,49.08,--.--,0,0,1.3,2.1,4.9,0,0,0,180.0,0.0,0.0
2025-01-24 12:15:15.113,0.3,-0.3,31,0.0,0.0,0.0,0.0,0.2,0.221,0.2,3.1,584.2,1.740,1.682,0.009,0.0,00:00:38,0.3,0,--.--,--.--,3.6,13,0000:20:44,0,0,0,48.49,42.99,279,39,96,--.--,--:--:--,1,2084.37,12:15:15,24/01/2025,28.10,--.--,--.--,--.--,--.--,--.--,--.--,--.--,--.--,--.--,--.--,100.00,0,0.000,0.000,0.000,0.000,0.000,0.000,0.000,0.000,0.000,0.000,0.000,0.000,false,false,false,false,false,false,false,false,false,false,false,false,--.--,--.--,--.--,--.--,--.--,--.--,--.--,--.--,-23.2556973,-47.2987398,23KKQ 64823 26310,0.6,0.1,119.9,3,28,--.--,--.--,,--.--,--.--,--.--,0,0,--.--,--.--,0,0.5,0.0,-2.7,-0.0,0.0,-0.2,--.--,--.--,--.--,--.--,--.--,--.--,--.--,--.--,--.--,--.--,--.--,--.--,45.60,49.08,--.--,0,0,1.1,3.6,5.3,0,0,0,180.0,0.0,0.0
2025-01-24 12:15:16.112,0.9,-0.5,31,0.0,0.0,0.0,0.1,0.2,0.181,0.2,3.2,584.3,1.890,1.781,0.043,0.0,00:00:39,0.3,0,--.--,--.--,3.6,13,0000:20:44,0,0,0,48.49,42.99,291,39,96,--.--,--:--:--,1,2084.67,12:15:16,24/01/2025,28.08,--.--,--.--,--.--,--.--,--.--,--.--,--.--,--.--,--.--,--.--,100.00,0,0.000,0.000,0.000,0.000,0.000,0.000,0.000,0.000,0.000,0.000,0.000,0.000,false,false,false,false,false,false,false,false,false,false,false,false,--.--,--.--,--.--,--.--,--.--,--.--,--.--,--.--,-23.2556974,-47.2987396,23KKQ 64824 26310,0.6,0.1,137.3,3,28,--.--,--.--,,--.--,--.--,--.--,0,0,--.--,--.--,0,0.5,0.0,-2.8,0.1,-0.0,-0.2,--.--,--.--,--.--,--.--,--.--,--.--,--.--,--.--,--.--,--.--,--.--,--.--,45.60,49.08,--.--,0,0,1.3,4.4,6.1,0,0,0,180.0,0.0,0.0
2025-01-24 12:15:17.112,2.4,-0.1,30,0.0,0.0,0.0,0.0,0.2,0.262,0.2,3.4,584.5,2.070,1.955,0.027,0.0,00:00:40,0.2,0,--.--,--.--,3.6,13,0000:20:44,0,0,0,48.47,42.99,304,39,96,--.--,--:--:--,1,2083.68,12:15:17,24/01/2025,28.07,--.--,--.--,--.--,--.--,--.--,--.--,--.--,--.--,--.--,--.--,100.00,0,0.000,0.000,0.000,0.000,0.000,0.000,0.000,0.000,0.000,0.000,0.000,0.000,false,false,false,false,false,false,false,false,false,false,false,false,--.--,--.--,--.--,--.--,--.--,--.--,--.--,--.--,-23.2556973,-47.2987398,23KKQ 64823 26310,0.6,0.1,327.1,3,28,--.--,--.--,,--.--,--.--,--.--,0,0,--.--,--.--,0,0.6,-0.0,-3.0,0.1,-0.0,-0.2,--.--,--.--,--.--,--.--,--.--,--.--,--.--,--.--,--.--,--.--,--.--,--.--,45.63,49.05,--.--,0,0,1.1,2.5,5.2,0,0,0,180.0,0.0,0.0
2025-01-24 12:15:18.113,2.4,-0.3,30,0.0,0.0,0.0,0.0,0.1,0.119,0.0,3.5,584.6,2.160,2.087,0.062,0.0,00:00:41,0.2,0,--.--,--.--,3.7,13,0000:20:44,0,0,0,48.48,42.99,316,39,96,--.--,--:--:--,1,2084.11,12:15:18,24/01/2025,27.94,--.--,--.--,--.--,--.--,--.--,--.--,--.--,--.--,--.--,--.--,100.00,0,0.000,0.000,0.000,0.000,0.000,0.000,0.000,0.000,0.000,0.000,0.000,0.000,false,false,false,false,false,false,false,false,false,false,false,false,--.--,--.--,--.--,--.--,--.--,--.--,--.--,--.--,-23.2556969,-47.2987402,23KKQ 64823 26310,0.6,0.1,308.4,3,28,--.--,--.--,,--.--,--.--,--.--,0,0,--.--,--.--,0,0.6,-0.0,-3.1,-0.0,0.0,-0.1,--.--,--.--,--.--,--.--,--.--,--.--,--.--,--.--,--.--,--.--,--.--,--.--,45.63,49.05,--.--,0,0,2.0,2.3,6.5,0,0,0,180.0,0.0,0.0
2025-01-24 12:15:19.115,1.3,-0.9,31,0.0,0.0,0.0,0.0,0.1,0.092,0.0,3.5,584.6,2.160,2.111,0.035,0.0,00:00:42,0.2,0,--.--,--.--,3.7,13,0000:20:44,0,0,0,48.47,40.99,328,39,96,--.--,--:--:--,1,1986.66,12:15:19,24/01/2025,27.99,--.--,--.--,--.--,--.--,--.--,--.--,--.--,--.--,--.--,--.--,100.00,0,0.000,0.000,0.000,0.000,0.000,0.000,0.000,0.000,0.000,0.000,0.000,0.000,false,false,false,false,false,false,false,false,false,false,false,false,--.--,--.--,--.--,--.--,--.--,--.--,--.--,--.--,-23.2556969,-47.2987404,23KKQ 64823 26310,0.6,0.1,166.8,3,28,--.--,--.--,,--.--,--.--,--.--,0,0,--.--,--.--,0,0.5,0.0,-3.1,-0.0,0.0,-0.0,--.--,--.--,--.--,--.--,--.--,--.--,--.--,--.--,--.--,--.--,--.--,--.--,45.66,49.06,--.--,0,0,2.1,2.1,6.6,0,0,0,180.0,0.0,0.0
2025-01-24 12:15:20.112,1.7,-1.2,35,0.0,0.0,0.0,0.1,0.1,0.047,0.0,3.5,584.7,2.190,2.155,0.062,0.0,00:00:43,0.2,0,--.--,--.--,3.7,13,0000:20:44,0,0,0,48.47,40.99,340,39,96,--.--,--:--:--,1,1986.74,12:15:20,24/01/2025,28.03,--.--,--.--,--.--,--.--,--.--,--.--,--.--,--.--,--.--,--.--,100.00,0,0.000,0.000,0.000,0.000,0.000,0.000,0.000,0.000,0.000,0.000,0.000,0.000,false,false,false,false,false,false,false,false,false,false,false,false,--.--,--.--,--.--,--.--,--.--,--.--,--.--,--.--,-23.2556970,-47.2987407,23KKQ 64823 26310,0.6,0.1,150.9,3,28,--.--,--.--,,--.--,--.--,--.--,0,0,--.--,--.--,0,0.5,0.0,-3.2,-0.0,0.1,-0.0,--.--,--.--,--.--,--.--,--.--,--.--,--.--,--.--,--.--,--.--,--.--,--.--,45.69,49.06,--.--,0,0,1.1,1.9,5.9,0,0,0,180.0,0.0,0.0
2025-01-24 12:15:21.112,0.6,-0.6,41,0.0,0.0,0.0,0.1,0.1,0.077,-0.0,3.6,584.7,2.190,2.172,0.049,0.0,00:00:44,0.3,0,--.--,--.--,3.7,13,0000:20:44,0,0,0,48.44,41.99,352,39,96,--.--,--:--:--,1,2034.16,12:15:21,24/01/2025,28.14,--.--,--.--,--.--,--.--,--.--,--.--,--.--,--.--,--.--,--.--,100.00,0,0.000,0.000,0.000,0.000,0.000,0.000,0.000,0.000,0.000,0.000,0.000,0.000,false,false,false,false,false,false,false,false,false,false,false,false,--.--,--.--,--.--,--.--,--.--,--.--,--.--,--.--,-23.2556969,-47.2987408,23KKQ 64823 26310,0.6,0.1,96.5,3,28,--.--,--.--,,--.--,--.--,--.--,0,0,--.--,--.--,0,0.5,0.1,-3.2,0.1,0.0,0.0,--.--,--.--,--.--,--.--,--.--,--.--,--.--,--.--,--.--,--.--,--.--,--.--,45.66,49.09,--.--,0,0,1.5,2.6,6.8,0,0,0,180.0,0.0,0.0
2025-01-24 12:15:22.113,1.6,-1.0,48,0.0,0.0,0.0,0.0,0.0,0.058,0.0,3.6,584.7,2.210,2.211,0.023,0.0,00:00:45,0.2,0,--.--,--.--,3.6,13,0000:20:44,0,0,0,48.44,40.99,364,39,95,--.--,--:--:--,1,1985.51,12:15:22,24/01/2025,29.72,--.--,--.--,--.--,--.--,--.--,--.--,--.--,--.--,--.--,--.--,100.00,0,0.000,0.000,0.000,0.000,0.000,0.000,0.000,0.000,0.000,0.000,0.000,0.000,false,false,false,false,false,false,false,false,false,false,false,false,--.--,--.--,--.--,--.--,--.--,--.--,--.--,--.--,-23.2556965,-47.2987411,23KKQ 64823 26310,0.6,0.1,314.4,3,28,--.--,--.--,,--.--,--.--,--.--,0,0,--.--,--.--,0,0.6,0.0,-3.2,-0.0,-0.0,0.0,--.--,--.--,--.--,--.--,--.--,--.--,--.--,--.--,--.--,--.--,--.--,--.--,45.67,49.13,--.--,0,0,1.1,2.5,7.7,0,0,0,180.0,0.0,0.0
2025-01-24 12:15:23.113,1.8,-1.5,54,0.0,0.0,0.0,0.0,0.0,0.031,-0.0,3.6,584.7,2.210,2.215,0.049,0.0,00:00:46,0.2,0,--.--,--.--,3.6,13,0000:20:44,0,0,0,48.44,40.99,376,39,95,--.--,--:--:--,1,1985.43,12:15:23,24/01/2025,28.69,--.--,--.--,--.--,--.--,--.--,--.--,--.--,--.--,--.--,--.--,100.00,0,0.000,0.000,0.000,0.000,0.000,0.000,0.000,0.000,0.000,0.000,0.000,0.000,false,false,false,false,false,false,false,false,false,false,false,false,--.--,--.--,--.--,--.--,--.--,--.--,--.--,--.--,-23.2556964,-47.2987418,23KKQ 64823 26310,0.6,0.1,246.3,3,28,--.--,--.--,,--.--,--.--,--.--,0,0,--.--,--.--,0,0.6,-0.0,-3.2,-0.0,-0.0,0.0,--.--,--.--,--.--,--.--,--.--,--.--,--.--,--.--,--.--,--.--,--.--,--.--,45.69,49.11,--.--,0,0,1.3,2.0,5.9,0,0,0,180.0,0.0,0.0
2025-01-24 12:15:24.114,0.9,-1.6,55,0.0,0.0,0.0,0.1,0.1,0.081,-0.0,3.6,584.7,2.190,2.192,0.058,0.0,00:00:47,0.2,0,--.--,--.--,3.5,13,0000:20:44,0,0,0,48.42,40.99,382,39,95,--.--,--:--:--,1,1984.78,12:15:24,24/01/2025,27.48,--.--,--.--,--.--,--.--,--.--,--.--,--.--,--.--,--.--,--.--,100.00,0,0.000,0.000,0.000,0.000,0.000,0.000,0.000,0.000,0.000,0.000,0.000,0.000,false,false,false,false,false,false,false,false,false,false,false,false,--.--,--.--,--.--,--.--,--.--,--.--,--.--,--.--,-23.2556965,-47.2987421,23KKQ 64823 26310,0.6,0.1,162.0,3,28,--.--,--.--,,--.--,--.--,--.--,0,0,--.--,--.--,0,0.5,-0.0,-3.2,-0.0,0.1,0.0,--.--,--.--,--.--,--.--,--.--,--.--,--.--,--.--,--.--,--.--,--.--,--.--,45.69,49.15,--.--,0,0,1.7,4.0,6.5,0,0,0,180.0,0.0,0.0
2025-01-24 12:15:25.112,0.3,-1.2,47,0.0,0.0,0.0,0.1,0.1,0.081,0.0,3.6,584.7,2.200,2.178,0.033,0.0,00:00:48,0.2,0,--.--,--.--,3.5,13,0000:20:44,0,0,0,48.41,42.99,394,39,95,--.--,--:--:--,1,2080.97,12:15:25,24/01/2025,28.29,--.--,--.--,--.--,--.--,--.--,--.--,--.--,--.--,--.--,--.--,100.00,0,0.000,0.000,0.000,0.000,0.000,0.000,0.000,0.000,0.000,0.000,0.000,0.000,false,false,false,false,false,false,false,false,false,false,false,false,--.--,--.--,--.--,--.--,--.--,--.--,--.--,--.--,-23.2556968,-47.2987418,23KKQ 64823 26310,0.6,0.1,105.9,3,28,--.--,--.--,,--.--,--.--,--.--,0,0,--.--,--.--,0,0.5,0.0,-3.2,0.0,0.1,-0.0,--.--,--.--,--.--,--.--,--.--,--.--,--.--,--.--,--.--,--.--,--.--,--.--,45.72,49.15,--.--,0,0,2.2,2.4,7.3,0,0,0,180.0,0.0,0.0
2025-01-24 12:15:26.112,0.6,-0.2,33,0.0,0.0,0.0,0.0,0.1,0.077,-0.0,3.6,584.7,2.210,2.213,0.030,0.0,00:00:49,0.3,0,--.--,--.--,3.4,13,0000:20:44,0,0,0,48.41,40.99,406,39,95,--.--,--:--:--,1,1984.24,12:15:26,24/01/2025,29.02,--.--,--.--,--.--,--.--,--.--,--.--,--.--,--.--,--.--,--.--,100.00,0,0.000,0.000,0.000,0.000,0.000,0.000,0.000,0.000,0.000,0.000,0.000,0.000,false,false,false,false,false,false,false,false,false,false,false,false,--.--,--.--,--.--,--.--,--.--,--.--,--.--,--.--,-23.2556968,-47.2987412,23KKQ 64823 26310,0.6,0.1,67.8,3,28,--.--,--.--,,--.--,--.--,--.--,0,0,--.--,--.--,0,0.6,0.1,-3.2,0.1,0.0,0.0,--.--,--.--,--.--,--.--,--.--,--.--,--.--,--.--,--.--,--.--,--.--,--.--,45.72,49.10,--.--,0,0,1.2,3.0,5.2,0,0,0,180.0,0.0,0.0
2025-01-24 12:15:27.111,1.7,0.4,21,0.0,0.0,0.0,0.1,0.1,0.056,-0.0,3.6,584.7,2.220,2.240,0.050,0.0,00:00:50,0.3,0,--.--,--.--,3.5,13,0000:20:44,0,0,0,48.39,41.99,418,39,95,--.--,--:--:--,1,2032.11,12:15:27,24/01/2025,28.14,--.--,--.--,--.--,--.--,--.--,--.--,--.--,--.--,--.--,--.--,100.00,0,0.000,0.000,0.000,0.000,0.000,0.000,0.000,0.000,0.000,0.000,0.000,0.000,false,false,false,false,false,false,false,false,false,false,false,false,--.--,--.--,--.--,--.--,--.--,--.--,--.--,--.--,-23.2556966,-47.2987407,23KKQ 64823 26310,0.6,0.1,11.6,3,28,--.--,--.--,,--.--,--.--,--.--,0,0,--.--,--.--,0,0.6,0.0,-3.2,0.0,-0.1,0.0,--.--,--.--,--.--,--.--,--.--,--.--,--.--,--.--,--.--,--.--,--.--,--.--,45.70,49.22,--.--,0,0,1.2,2.1,5.7,0,0,0,180.0,0.0,0.0
2025-01-24 12:15:28.113,2.0,-0.4,8,0.0,0.0,0.0,0.1,0.1,0.090,-0.0,3.6,584.7,2.210,2.220,0.041,0.0,00:00:51,0.2,0,--.--,--.--,3.5,13,0000:20:44,0,0,0,48.39,40.99,430,39,95,--.--,--:--:--,1,1983.34,12:15:28,24/01/2025,29.10,--.--,--.--,--.--,--.--,--.--,--.--,--.--,--.--,--.--,--.--,100.00,0,0.000,0.000,0.000,0.000,0.000,0.000,0.000,0.000,0.000,0.000,0.000,0.000,false,false,false,false,false,false,false,false,false,false,false,false,--.--,--.--,--.--,--.--,--.--,--.--,--.--,--.--,-23.2556965,-47.2987407,23KKQ 64823 26310,0.6,0.1,317.7,3,28,--.--,--.--,,--.--,--.--,--.--,0,0,--.--,--.--,0,0.6,0.0,-3.2,-0.1,0.1,0.0,--.--,--.--,--.--,--.--,--.--,--.--,--.--,--.--,--.--,--.--,--.--,--.--,45.75,49.16,--.--,0,0,2.3,3.4,6.5,0,0,0,180.0,0.0,0.0
2025-01-24 12:15:29.113,-0.8,-0.5,358,0.0,0.0,0.0,0.1,0.1,0.126,0.0,3.6,584.7,2.220,2.236,0.058,0.0,00:00:52,0.3,0,--.--,--.--,3.5,13,0000:20:44,0,0,0,48.38,42.99,441,39,95,--.--,--:--:--,1,2079.77,12:15:29,24/01/2025,30.09,--.--,--.--,--.--,--.--,--.--,--.--,--.--,--.--,--.--,--.--,100.00,0,0.000,0.000,0.000,0.000,0.000,0.000,0.000,0.000,0.000,0.000,0.000,0.000,false,false,false,false,false,false,false,false,false,false,false,false,--.--,--.--,--.--,--.--,--.--,--.--,--.--,--.--,-23.2556967,-47.2987401,23KKQ 64823 26310,0.6,0.1,105.6,3,28,--.--,--.--,,--.--,--.--,--.--,0,0,--.--,--.--,0,0.5,0.1,-3.2,0.0,0.1,-0.0,--.--,--.--,--.--,--.--,--.--,--.--,--.--,--.--,--.--,--.--,--.--,--.--,45.78,49.18,--.--,0,0,2.6,2.9,4.9,0,0,0,180.0,0.0,0.0
2025-01-24 12:15:30.111,1.2,0.7,357,0.0,0.0,0.0,0.1,0.1,0.120,-0.0,3.6,584.7,2.210,2.232,0.040,0.0,00:00:53,0.2,0,--.--,--.--,3.6,14,0000:20:44,0,0,0,48.38,40.99,454,39,95,--.--,--:--:--,1,1983.14,12:15:30,24/01/2025,29.52,--.--,--.--,--.--,--.--,--.--,--.--,--.--,--.--,--.--,--.--,100.00,0,0.000,0.000,0.000,0.000,0.000,0.000,0.000,0.000,0.000,0.000,0.000,0.000,false,false,false,false,false,false,false,false,false,false,false,false,--.--,--.--,--.--,--.--,--.--,--.--,--.--,--.--,-23.2556967,-47.2987396,23KKQ 64824 26310,0.6,0.1,320.3,3,28,--.--,--.--,,--.--,--.--,--.--,0,0,--.--,--.--,0,0.5,0.0,-3.2,0.0,-0.1,0.0,--.--,--.--,--.--,--.--,--.--,--.--,--.--,--.--,--.--,--.--,--.--,--.--,45.74,49.18,--.--,0,0,2.2,3.4,5.7,0,0,0,180.0,0.0,0.0
2025-01-24 12:15:31.112,2.3,0.3,5,0.0,0.0,0.0,0.1,0.1,0.072,0.0,3.6,584.7,2.210,2.217,0.081,0.0,00:00:54,0.2,0,--.--,--.--,3.6,13,0000:20:44,0,0,0,48.35,41.99,466,39,95,--.--,--:--:--,1,2030.22,12:15:31,24/01/2025,30.42,--.--,--.--,--.--,--.--,--.--,--.--,--.--,--.--,--.--,--.--,100.00,0,0.000,0.000,0.000,0.000,0.000,0.000,0.000,0.000,0.000,0.000,0.000,0.000,false,false,false,false,false,false,false,false,false,false,false,false,--.--,--.--,--.--,--.--,--.--,--.--,--.--,--.--,-23.2556968,-47.2987400,23KKQ 64823 26310,0.6,0.1,265.5,3,28,--.--,--.--,,--.--,--.--,--.--,0,0,--.--,--.--,0,0.6,-0.1,-3.2,0.0,0.0,-0.0,--.--,--.--,--.--,--.--,--.--,--.--,--.--,--.--,--.--,--.--,--.--,--.--,45.77,49.24,--.--,0,0,2.5,2.5,6.8,0,0,0,180.0,0.0,0.0
2025-01-24 12:15:32.112,0.5,-0.5,14,0.0,0.0,0.0,0.1,0.1,0.087,-0.0,3.6,584.7,2.220,2.233,0.045,0.0,00:00:55,0.2,0,--.--,--.--,3.5,13,0000:20:44,0,0,0,48.35,41.99,478,39,94,--.--,--:--:--,1,2030.26,12:15:32,24/01/2025,30.41,--.--,--.--,--.--,--.--,--.--,--.--,--.--,--.--,--.--,--.--,100.00,0,0.000,0.000,0.000,0.000,0.000,0.000,0.000,0.000,0.000,0.000,0.000,0.000,false,false,false,false,false,false,false,false,false,false,false,false,--.--,--.--,--.--,--.--,--.--,--.--,--.--,--.--,-23.2556968,-47.2987400,23KKQ 64823 26310,0.6,0.1,105.1,3,28,--.--,--.--,,--.--,--.--,--.--,0,0,--.--,--.--,0,0.6,0.0,-3.2,0.0,0.0,-0.0,--.--,--.--,--.--,--.--,--.--,--.--,--.--,--.--,--.--,--.--,--.--,--.--,45.80,49.21,--.--,0,0,2.3,2.6,6.0,0,0,0,180.0,0.0,0.0
2025-01-24 12:15:33.112,1.4,0.2,18,0.0,0.0,0.0,0.0,0.0,0.045,-0.0,3.6,584.7,2.220,2.236,0.022,0.0,00:00:56,0.3,0,--.--,--.--,3.4,13,0000:20:44,0,0,0,48.34,41.99,490,39,94,--.--,--:--:--,1,2029.67,12:15:33,24/01/2025,28.85,--.--,--.--,--.--,--.--,--.--,--.--,--.--,--.--,--.--,--.--,100.00,0,0.000,0.000,0.000,0.000,0.000,0.000,0.000,0.000,0.000,0.000,0.000,0.000,false,false,false,false,false,false,false,false,false,false,false,false,--.--,--.--,--.--,--.--,--.--,--.--,--.--,--.--,-23.2556969,-47.2987397,23KKQ 64823 26310,0.6,0.1,97.3,3,28,--.--,--.--,,--.--,--.--,--.--,0,0,--.--,--.--,0,0.6,0.0,-3.2,0.0,0.0,0.0,--.--,--.--,--.--,--.--,--.--,--.--,--.--,--.--,--.--,--.--,--.--,--.--,45.78,49.22,--.--,0,0,1.6,3.8,4.4,0,0,0,180.0,0.0,0.0
2025-01-24 12:15:34.115,1.1,-0.5,26,0.0,0.0,0.0,0.0,0.0,0.021,0.0,3.6,584.7,2.220,2.234,0.016,0.0,00:00:57,0.3,0,--.--,--.--,3.4,13,0000:20:44,0,0,0,48.33,41.99,502,39,94,--.--,--:--:--,1,2029.25,12:15:34,24/01/2025,27.71,--.--,--.--,--.--,--.--,--.--,--.--,--.--,--.--,--.--,--.--,100.00,0,0.000,0.000,0.000,0.000,0.000,0.000,0.000,0.000,0.000,0.000,0.000,0.000,false,false,false,false,false,false,false,false,false,false,false,false,--.--,--.--,--.--,--.--,--.--,--.--,--.--,--.--,-23.2556970,-47.2987395,23KKQ 64824 26310,0.6,0.1,208.8,3,28,--.--,--.--,,--.--,--.--,--.--,0,0,--.--,--.--,0,0.6,0.0,-3.2,-0.0,-0.0,0.0,--.--,--.--,--.--,--.--,--.--,--.--,--.--,--.--,--.--,--.--,--.--,--.--,45.79,49.25,--.--,0,0,1.6,2.8,6.2,0,0,0,180.0,0.0,0.0
2025-01-24 12:15:35.111,2.3,-0.1,26,0.0,0.0,0.0,0.0,0.0,0.078,-0.0,3.6,584.7,2.230,2.240,0.040,0.0,00:00:58,0.2,0,--.--,--.--,3.4,13,0000:20:44,0,0,0,48.32,41.99,514,39,94,--.--,--:--:--,1,2028.91,12:15:35,24/01/2025,28.81,--.--,--.--,--.--,--.--,--.--,--.--,--.--,--.--,--.--,--.--,100.00,0,0.000,0.000,0.000,0.000,0.000,0.000,0.000,0.000,0.000,0.000,0.000,0.000,false,false,false,false,false,false,false,false,false,false,false,false,--.--,--.--,--.--,--.--,--.--,--.--,--.--,--.--,-23.2556970,-47.2987397,23KKQ 64823 26310,0.6,0.1,287.5,3,28,--.--,--.--,,--.--,--.--,--.--,0,0,--.--,--.--,0,0.6,-0.0,-3.2,0.0,-0.1,0.0,--.--,--.--,--.--,--.--,--.--,--.--,--.--,--.--,--.--,--.--,--.--,--.--,45.80,49.23,--.--,0,0,1.1,4.1,4.5,0,0,0,180.0,0.0,0.0
2025-01-24 12:15:36.112,1.8,-0.5,26,0.0,0.0,0.0,0.1,0.1,0.071,-0.0,3.6,584.7,2.230,2.256,0.076,0.0,00:00:59,0.2,0,--.--,--.--,3.4,13,0000:20:44,0,0,0,48.32,41.99,526,39,94,--.--,--:--:--,1,2028.87,12:15:36,24/01/2025,27.68,--.--,--.--,--.--,--.--,--.--,--.--,--.--,--.--,--.--,--.--,100.00,0,0.000,0.000,0.000,0.000,0.000,0.000,0.000,0.000,0.000,0.000,0.000,0.000,false,false,false,false,false,false,false,false,false,false,false,false,--.--,--.--,--.--,--.--,--.--,--.--,--.--,--.--,-23.2556970,-47.2987399,23KKQ 64823 26310,0.6,0.1,256.6,3,28,--.--,--.--,,--.--,--.--,--.--,0,0,--.--,--.--,0,0.5,-0.0,-3.2,-0.0,0.1,0.0,--.--,--.--,--.--,--.--,--.--,--.--,--.--,--.--,--.--,--.--,--.--,--.--,45.78,49.23,--.--,0,0,2.1,2.0,5.3,0,0,0,180.0,0.0,0.0
2025-01-24 12:15:37.112,0.9,-0.7,27,0.0,0.0,0.0,0.0,0.0,0.084,-0.0,3.6,584.7,2.220,2.238,0.038,0.0,00:01:00,0.3,0,--.--,--.--,3.4,13,0000:20:44,0,0,0,48.30,41.99,538,39,94,--.--,--:--:--,1,2028.28,12:15:37,24/01/2025,44.35,--.--,--.--,--.--,--.--,--.--,--.--,--.--,--.--,--.--,--.--,100.00,0,0.000,0.000,0.000,0.000,0.000,0.000,0.000,0.000,0.000,0.000,0.000,0.000,false,false,false,false,false,false,false,false,false,false,false,false,--.--,--.--,--.--,--.--,--.--,--.--,--.--,--.--,-23.2556973,-47.2987397,23KKQ 64823 26310,0.6,0.1,119.2,3,28,--.--,--.--,,--.--,--.--,--.--,0,0,--.--,--.--,0,0.5,0.0,-3.2,-0.0,0.0,0.0,--.--,--.--,--.--,--.--,--.--,--.--,--.--,--.--,--.--,--.--,--.--,--.--,45.82,49.29,--.--,0,0,1.4,2.2,5.8,0,0,0,180.0,0.0,0.0
2025-01-24 12:15:38.112,1.2,-1.0,26,0.0,0.0,0.0,0.0,0.0,0.036,0.0,3.6,584.7,2.220,2.237,0.052,0.0,00:01:01,0.3,0,--.--,--.--,3.4,13,0000:20:44,0,0,0,48.30,40.99,549,39,94,--.--,--:--:--,1,1979.86,12:15:38,24/01/2025,47.21,--.--,--.--,--.--,--.--,--.--,--.--,--.--,--.--,--.--,--.--,100.00,0,0.000,0.000,0.000,0.000,0.000,0.000,0.000,0.000,0.000,0.000,0.000,0.000,false,false,false,false,false,false,false,false,false,false,false,false,--.--,--.--,--.--,--.--,--.--,--.--,--.--,--.--,-23.2556975,-47.2987393,23KKQ 64824 26310,0.6,0.1,124.7,3,28,--.--,--.--,,--.--,--.--,--.--,0,0,--.--,--.--,0,0.5,0.0,-3.2,0.0,-0.0,0.0,--.--,--.--,--.--,--.--,--.--,--.--,--.--,--.--,--.--,--.--,--.--,--.--,45.81,49.25,--.--,0,0,2.3,2.3,5.0,0,0,0,180.0,0.0,0.0
2025-01-24 12:15:39.111,1.2,-1.0,26,0.0,0.0,0.0,0.0,0.0,0.020,0.0,3.6,584.7,2.210,2.213,0.031,0.0,00:01:02,0.3,0,--.--,--.--,3.4,13,0000:20:44,0,0,0,48.29,41.99,561,39,94,--.--,--:--:--,1,2027.78,12:15:39,24/01/2025,46.97,--.--,--.--,--.--,--.--,--.--,--.--,--.--,--.--,--.--,--.--,100.00,0,0.000,0.000,0.000,0.000,0.000,0.000,0.000,0.000,0.000,0.000,0.000,0.000,false,false,false,false,false,false,false,false,false,false,false,false,--.--,--.--,--.--,--.--,--.--,--.--,--.--,--.--,-23.2556975,-47.2987394,23KKQ 64824 26310,0.6,0.1,312.9,3,28,--.--,--.--,,--.--,--.--,--.--,0,0,--.--,--.--,0,0.5,0.0,-3.2,0.0,0.0,0.0,--.--,--.--,--.--,--.--,--.--,--.--,--.--,--.--,--.--,--.--,--.--,--.--,45.81,49.31,--.--,0,0,1.4,3.4,5.1,0,0,0,180.0,0.0,0.0
2025-01-24 12:15:40.112,1.2,-0.7,26,0.0,0.0,0.0,0.0,0.0,0.053,-0.0,3.6,584.7,2.220,2.233,0.005,0.0,00:01:03,0.3,0,--.--,--.--,3.3,13,0000:20:44,0,0,0,48.28,41.99,573,39,94,--.--,--:--:--,1,2027.36,12:15:40,24/01/2025,45.17,--.--,--.--,--.--,--.--,--.--,--.--,--.--,--.--,--.--,--.--,100.00,0,0.000,0.000,0.000,0.000,0.000,0.000,0.000,0.000,0.000,0.000,0.000,0.000,false,false,false,false,false,false,false,false,false,false,false,false,--.--,--.--,--.--,--.--,--.--,--.--,--.--,--.--,-23.2556975,-47.2987394,23KKQ 64824 26310,0.6,0.1,344.6,3,28,--.--,--.--,,--.--,--.--,--.--,0,0,--.--,--.--,0,0.6,0.0,-3.2,0.0,0.0,-0.0,--.--,--.--,--.--,--.--,--.--,--.--,--.--,--.--,--.--,--.--,--.--,--.--,45.81,49.28,--.--,0,0,1.5,1.6,5.1,0,0,0,180.0,0.0,0.0
2025-01-24 12:15:41.111,1.0,-0.4,27,0.0,0.0,0.0,0.0,0.1,0.049,0.1,3.6,584.7,2.250,2.246,0.016,0.0,00:01:04,0.3,0,--.--,--.--,3.3,13,0000:20:44,0,0,0,48.28,41.99,585,39,94,--.--,--:--:--,1,2027.45,12:15:41,24/01/2025,46.84,--.--,--.--,--.--,--.--,--.--,--.--,--.--,--.--,--.--,--.--,100.00,0,0.000,0.000,0.000,0.000,0.000,0.000,0.000,0.000,0.000,0.000,0.000,0.000,false,false,false,false,false,false,false,false,false,false,false,false,--.--,--.--,--.--,--.--,--.--,--.--,--.--,--.--,-23.2556974,-47.2987394,23KKQ 64824 26310,0.6,0.1,50.2,3,28,--.--,--.--,,--.--,--.--,--.--,0,0,--.--,--.--,0,0.6,0.0,-3.2,-0.0,0.0,-0.1,--.--,--.--,--.--,--.--,--.--,--.--,--.--,--.--,--.--,--.--,--.--,--.--,45.84,49.29,--.--,0,0,1.3,3.1,5.7,0,0,0,180.0,0.0,0.0
2025-01-24 12:15:42.112,0.9,-1.2,27,0.0,0.0,0.0,0.0,0.1,0.117,0.1,3.7,584.8,2.320,2.261,0.021,0.0,00:01:05,0.3,0,--.--,--.--,3.4,13,0000:20:44,0,0,0,48.26,41.99,597,39,94,--.--,--:--:--,1,2026.61,12:15:42,24/01/2025,47.21,--.--,--.--,--.--,--.--,--.--,--.--,--.--,--.--,--.--,--.--,100.00,0,0.000,0.000,0.000,0.000,0.000,0.000,0.000,0.000,0.000,0.000,0.000,0.000,false,false,false,false,false,false,false,false,false,false,false,false,--.--,--.--,--.--,--.--,--.--,--.--,--.--,--.--,-23.2556975,-47.2987393,23KKQ 64824 26310,0.6,0.1,157.2,3,28,--.--,--.--,,--.--,--.--,--.--,0,0,--.--,--.--,0,0.5,0.0,-3.3,-0.0,-0.0,-0.1,--.--,--.--,--.--,--.--,--.--,--.--,--.--,--.--,--.--,--.--,--.--,--.--,45.80,49.29,--.--,0,0,1.0,2.5,5.1,0,0,0,180.0,0.0,0.0
2025-01-24 12:15:43.114,1.1,-1.0,27,0.0,0.0,0.0,0.1,0.1,0.094,0.1,3.8,584.9,2.390,2.346,0.035,0.0,00:01:06,0.3,0,--.--,--.--,3.4,13,0000:20:44,0,0,0,48.26,41.99,603,39,94,--.--,--:--:--,1,2026.31,12:15:43,24/01/2025,47.05,--.--,--.--,--.--,--.--,--.--,--.--,--.--,--.--,--.--,--.--,100.00,0,0.000,0.000,0.000,0.000,0.000,0.000,0.000,0.000,0.000,0.000,0.000,0.000,false,false,false,false,false,false,false,false,false,false,false,false,--.--,--.--,--.--,--.--,--.--,--.--,--.--,--.--,-23.2556977,-47.2987393,23KKQ 64824 26310,0.6,0.1,217.6,3,28,--.--,--.--,,--.--,--.--,--.--,0,0,--.--,--.--,0,0.5,0.0,-3.4,0.1,-0.0,-0.1,--.--,--.--,--.--,--.--,--.--,--.--,--.--,--.--,--.--,--.--,--.--,--.--,45.80,49.34,--.--,0,0,0.9,3.9,4.4,0,0,0,180.0,0.0,0.0
2025-01-24 12:15:44.116,0.4,-1.1,26,0.0,0.0,0.0,0.0,0.0,0.012,-0.0,3.8,584.9,2.410,2.376,0.034,0.0,00:01:07,0.3,0,--.--,--.--,3.4,13,0000:20:44,0,0,0,48.26,40.99,615,39,93,--.--,--:--:--,1,1978.22,12:15:44,24/01/2025,47.14,--.--,--.--,--.--,--.--,--.--,--.--,--.--,--.--,--.--,--.--,100.00,0,0.000,0.000,0.000,0.000,0.000,0.000,0.000,0.000,0.000,0.000,0.000,0.000,false,false,false,false,false,false,false,false,false,false,false,false,--.--,--.--,--.--,--.--,--.--,--.--,--.--,--.--,-23.2556977,-47.2987393,23KKQ 64824 26310,0.6,0.1,355.8,3,28,--.--,--.--,,--.--,--.--,--.--,0,0,--.--,--.--,0,0.5,0.0,-3.4,0.0,-0.0,-0.0,--.--,--.--,--.--,--.--,--.--,--.--,--.--,--.--,--.--,--.--,--.--,--.--,45.88,49.32,--.--,0,0,1.1,2.0,4.1,0,0,0,180.0,0.0,0.0
2025-01-24 12:15:45.112,1.6,-1.7,26,0.0,0.0,0.0,0.3,0.3,0.178,0.0,3.8,584.9,2.440,2.435,0.023,0.0,00:01:08,0.3,0,--.--,--.--,3.3,12,0000:20:44,0,0,0,48.25,40.99,627,39,93,--.--,--:--:--,1,1977.56,12:15:45,24/01/2025,28.17,--.--,--.--,--.--,--.--,--.--,--.--,--.--,--.--,--.--,--.--,100.00,0,0.000,0.000,0.000,0.000,0.000,0.000,0.000,0.000,0.000,0.000,0.000,0.000,false,false,false,false,false,false,false,false,false,false,false,false,--.--,--.--,--.--,--.--,--.--,--.--,--.--,--.--,-23.2556976,-47.2987393,23KKQ 64824 26310,0.6,0.1,357.4,3,28,--.--,--.--,,--.--,--.--,--.--,0,0,--.--,--.--,0,0.6,0.0,-3.4,0.2,0.1,-0.0,--.--,--.--,--.--,--.--,--.--,--.--,--.--,--.--,--.--,--.--,--.--,--.--,45.88,49.34,--.--,0,0,1.2,2.1,6.9,0,0,0,180.0,0.0,0.0
2025-01-24 12:15:46.112,0.8,-0.4,26,0.0,0.0,0.0,0.3,0.3,0.295,-0.0,3.8,584.9,2.430,2.461,0.022,0.0,00:01:09,0.5,0,--.--,--.--,3.0,13,0000:20:44,0,0,0,48.26,39.98,638,39,93,--.--,--:--:--,1,1929.35,12:15:46,24/01/2025,27.78,--.--,--.--,--.--,--.--,--.--,--.--,--.--,--.--,--.--,--.--,100.00,0,0.000,0.000,0.000,0.000,0.000,0.000,0.000,0.000,0.000,0.000,0.000,0.000,false,false,false,false,false,false,false,false,false,false,false,false,--.--,--.--,--.--,--.--,--.--,--.--,--.--,--.--,-23.2556964,-47.2987388,23KKQ 64824 26310,0.6,0.1,26.7,3,28,--.--,--.--,,--.--,--.--,--.--,0,0,--.--,--.--,0,0.9,0.2,-3.4,0.2,0.2,0.0,--.--,--.--,--.--,--.--,--.--,--.--,--.--,--.--,--.--,--.--,--.--,--.--,45.86,49.35,--.--,0,0,1.8,3.0,4.7,0,0,0,180.0,0.0,0.0
2025-01-24 12:15:47.112,0.7,-0.8,26,0.0,0.0,0.0,0.3,0.3,0.252,0.0,3.8,584.9,2.400,2.396,0.023,0.0,00:01:10,0.8,0,--.--,--.--,2.8,13,0000:20:44,0,0,0,48.23,40.99,650,39,93,--.--,--:--:--,1,1976.99,12:15:47,24/01/2025,27.41,--.--,--.--,--.--,--.--,--.--,--.--,--.--,--.--,--.--,--.--,100.00,0,0.000,0.000,0.000,0.000,0.000,0.000,0.000,0.000,0.000,0.000,0.000,0.000,false,false,false,false,false,false,false,false,false,false,false,false,--.--,--.--,--.--,--.--,--.--,--.--,--.--,--.--,-23.2556947,-47.2987375,23KKQ 64824 26311,0.6,0.1,28.9,3,28,--.--,--.--,,--.--,--.--,--.--,0,0,--.--,--.--,0,1.1,0.3,-3.4,0.2,0.1,0.0,--.--,--.--,--.--,--.--,--.--,--.--,--.--,--.--,--.--,--.--,--.--,--.--,45.90,49.37,--.--,0,0,1.7,2.1,6.0,0,0,0,180.0,0.0,0.0
2025-01-24 12:15:48.112,0.6,0.7,27,0.0,0.0,0.0,0.2,0.2,0.219,0.0,3.8,584.9,2.420,2.397,0.037,0.0,00:01:11,1.0,0,--.--,--.--,2.6,12,0000:20:44,0,0,0,48.23,40.99,662,39,93,--.--,--:--:--,1,1977.07,12:15:48,24/01/2025,27.53,--.--,--.--,--.--,--.--,--.--,--.--,--.--,--.--,--.--,--.--,100.00,0,0.000,0.000,0.000,0.000,0.000,0.000,0.000,0.000,0.000,0.000,0.000,0.000,false,false,false,false,false,false,false,false,false,false,false,false,--.--,--.--,--.--,--.--,--.--,--.--,--.--,--.--,-23.2556928,-47.2987361,23KKQ 64824 26311,0.6,0.1,32.1,3,28,--.--,--.--,,--.--,--.--,--.--,0,0,--.--,--.--,0,1.3,0.4,-3.4,0.2,0.1,-0.0,--.--,--.--,--.--,--.--,--.--,--.--,--.--,--.--,--.--,--.--,--.--,--.--,45.89,49.37,--.--,0,0,2.3,2.2,4.2,0,0,0,180.0,0.0,0.0
2025-01-24 12:15:49.113,0.6,1.5,27,0.0,0.0,0.0,0.2,0.2,0.077,-0.0,3.8,584.9,2.420,2.438,0.028,0.0,00:01:12,1.0,0,--.--,--.--,2.6,13,0000:20:44,0,0,0,48.23,39.98,674,39,93,--.--,--:--:--,1,1928.20,12:15:49,24/01/2025,27.06,--.--,--.--,--.--,--.--,--.--,--.--,--.--,--.--,--.--,--.--,100.00,0,0.000,0.000,0.000,0.000,0.000,0.000,0.000,0.000,0.000,0.000,0.000,0.000,false,false,false,false,false,false,false,false,false,false,false,false,--.--,--.--,--.--,--.--,--.--,--.--,--.--,--.--,-23.2556912,-47.2987350,23KKQ 64824 26311,0.6,0.1,3.1,3,28,--.--,--.--,,--.--,--.--,--.--,0,0,--.--,--.--,0,1.2,0.4,-3.4,-0.2,-0.1,0.0,--.--,--.--,--.--,--.--,--.--,--.--,--.--,--.--,--.--,--.--,--.--,--.--,45.90,49.35,--.--,0,0,1.2,2.1,5.6,0,0,0,180.0,0.0,0.0
2025-01-24 12:15:50.112,1.2,-0.7,27,0.0,0.0,0.0,0.3,0.3,0.347,-0.0,3.8,584.9,2.430,2.422,0.005,0.0,00:01:13,0.6,0,--.--,--.--,2.9,13,0000:20:44,0,0,0,48.21,40.99,685,39,93,--.--,--:--:--,1,1976.21,12:15:50,24/01/2025,30.87,--.--,--.--,--.--,--.--,--.--,--.--,--.--,--.--,--.--,--.--,100.00,0,0.000,0.000,0.000,0.000,0.000,0.000,0.000,0.000,0.000,0.000,0.000,0.000,false,false,false,false,false,false,false,false,false,false,false,false,--.--,--.--,--.--,--.--,--.--,--.--,--.--,--.--,-23.2556916,-47.2987354,23KKQ 64824 26311,0.6,0.1,216.2,3,28,--.--,--.--,,--.--,--.--,--.--,0,0,--.--,--.--,0,1.0,0.2,-3.4,-0.3,-0.2,0.0,--.--,--.--,--.--,--.--,--.--,--.--,--.--,--.--,--.--,--.--,--.--,--.--,45.90,49.40,--.--,0,0,1.1,2.6,5.2,0,0,0,180.0,0.0,0.0
2025-01-24 12:15:51.112,0.8,-0.7,27,0.0,0.0,0.0,0.3,0.3,0.295,-0.0,3.8,584.9,2.430,2.438,0.022,0.0,00:01:14,0.4,0,--.--,--.--,3.2,13,0000:20:44,0,0,0,48.21,40.99,697,39,93,--.--,--:--:--,1,1976.09,12:15:51,24/01/2025,29.73,--.--,--.--,--.--,--.--,--.--,--.--,--.--,--.--,--.--,--.--,100.00,0,0.000,0.000,0.000,0.000,0.000,0.000,0.000,0.000,0.000,0.000,0.000,0.000,false,false,false,false,false,false,false,false,false,false,false,false,--.--,--.--,--.--,--.--,--.--,--.--,--.--,--.--,-23.2556934,-47.2987370,23KKQ 64824 26311,0.6,0.1,208.2,3,28,--.--,--.--,,--.--,--.--,--.--,0,0,--.--,--.--,0,0.7,0.1,-3.4,-0.3,-0.1,0.0,--.--,--.--,--.--,--.--,--.--,--.--,--.--,--.--,--.--,--.--,--.--,--.--,45.90,49.39,--.--,0,0,1.1,3.4,5.1,0,0,0,180.0,0.0,0.0
